nasa/2022-11-28_2022-156A_ScottTilley.tdm

CCSDS_TDM_VERS = 2.0
COMMENT TDM ARTEMIS 1 Doppler data by Scott Tilley for 2022-11-28 UTC
COMMENT Signal not demodulated, to low of SNR, centre carrier integrated in 10s by 0.1Hz bin and extracted for peak value.
CREATION_DATE = 2022-11-30T06:50:28Z
ORIGINATOR = SCOTT TILLEY

META_START
COMMENT 
COMMENT 
SYSTEM TIME = UTC
PARTICIPANT_1 = COSPAR 8049
PARTICIPANT_2 = 2022-156A
MODE = SEQUENTIAL
PATH = 2,1
INTEGRATION_INTERVAL = 10
INTEGRATION_REF = MIDDLE
FREQ_OFFSET = 0
TRANSMIT_DELAY_1 = 0
RECEIVE_DELAY_1 = 0
DATA_QUALITY = RAW
META_STOP

DATA_START
RECEIVE_FREQ_1 =   2022-11-28T21:48:33.149   2216500696.5
RECEIVE_FREQ_1 =   2022-11-28T21:48:53.107   2216500694.6
RECEIVE_FREQ_1 =   2022-11-28T21:49:43.133   2216500690.0
RECEIVE_FREQ_1 =   2022-11-28T21:50:03.091   2216500688.4
RECEIVE_FREQ_1 =   2022-11-28T21:54:53.136   2216500661.7
RECEIVE_FREQ_1 =   2022-11-28T21:55:03.158   2216500661.1
RECEIVE_FREQ_1 =   2022-11-28T21:55:13.094   2216500660.0
RECEIVE_FREQ_1 =   2022-11-28T21:55:33.139   2216500658.3
RECEIVE_FREQ_1 =   2022-11-28T21:56:53.146   2216500650.5
RECEIVE_FREQ_1 =   2022-11-28T21:57:03.082   2216500649.6
RECEIVE_FREQ_1 =   2022-11-28T21:57:13.104   2216500648.9
RECEIVE_FREQ_1 =   2022-11-28T21:57:23.126   2216500648.1
RECEIVE_FREQ_1 =   2022-11-28T21:59:53.117   2216500635.1
RECEIVE_FREQ_1 =   2022-11-28T22:00:23.098   2216500632.8
RECEIVE_FREQ_1 =   2022-11-28T22:00:33.120   2216500631.6
RECEIVE_FREQ_1 =   2022-11-28T22:00:43.142   2216500631.0
RECEIVE_FREQ_1 =   2022-11-28T22:00:53.078   2216500629.7
RECEIVE_FREQ_1 =   2022-11-28T22:01:03.101   2216500629.2
RECEIVE_FREQ_1 =   2022-11-28T22:01:13.123   2216500628.1
RECEIVE_FREQ_1 =   2022-11-28T22:01:23.146   2216500627.4
RECEIVE_FREQ_1 =   2022-11-28T22:01:33.082   2216500626.4
RECEIVE_FREQ_1 =   2022-11-28T22:01:43.104   2216500625.7
RECEIVE_FREQ_1 =   2022-11-28T22:01:53.126   2216500624.7
RECEIVE_FREQ_1 =   2022-11-28T22:02:03.149   2216500623.7
RECEIVE_FREQ_1 =   2022-11-28T22:02:13.085   2216500622.8
RECEIVE_FREQ_1 =   2022-11-28T22:02:23.107   2216500622.0
RECEIVE_FREQ_1 =   2022-11-28T22:02:33.130   2216500621.3
RECEIVE_FREQ_1 =   2022-11-28T22:02:43.066   2216500620.4
RECEIVE_FREQ_1 =   2022-11-28T22:14:23.078   2216500554.6
RECEIVE_FREQ_1 =   2022-11-28T22:15:23.126   2216500549.3
RECEIVE_FREQ_1 =   2022-11-28T22:16:23.088   2216500542.7
RECEIVE_FREQ_1 =   2022-11-28T22:16:33.110   2216500541.8
RECEIVE_FREQ_1 =   2022-11-28T22:16:43.133   2216500540.7
RECEIVE_FREQ_1 =   2022-11-28T22:16:53.069   2216500539.5
RECEIVE_FREQ_1 =   2022-11-28T22:17:23.136   2216500536.6
RECEIVE_FREQ_1 =   2022-11-28T22:17:43.094   2216500534.3
RECEIVE_FREQ_1 =   2022-11-28T22:17:53.117   2216500533.8
RECEIVE_FREQ_1 =   2022-11-28T22:18:13.162   2216500531.4
RECEIVE_FREQ_1 =   2022-11-28T22:18:23.098   2216500530.5
RECEIVE_FREQ_1 =   2022-11-28T22:18:53.078   2216500527.4
RECEIVE_FREQ_1 =   2022-11-28T22:18:53.078   2216500527.4
RECEIVE_FREQ_1 =   2022-11-28T22:19:03.101   2216500526.4
RECEIVE_FREQ_1 =   2022-11-28T22:19:13.123   2216500524.8
RECEIVE_FREQ_1 =   2022-11-28T22:19:43.104   2216500522.2
RECEIVE_FREQ_1 =   2022-11-28T22:19:53.126   2216500521.0
RECEIVE_FREQ_1 =   2022-11-28T22:20:13.085   2216500518.9
RECEIVE_FREQ_1 =   2022-11-28T22:20:23.107   2216500518.1
RECEIVE_FREQ_1 =   2022-11-28T22:20:33.130   2216500517.1
RECEIVE_FREQ_1 =   2022-11-28T22:20:43.152   2216500515.8
RECEIVE_FREQ_1 =   2022-11-28T22:20:53.088   2216500515.2
RECEIVE_FREQ_1 =   2022-11-28T22:21:03.110   2216500513.9
RECEIVE_FREQ_1 =   2022-11-28T22:21:13.133   2216500512.8
RECEIVE_FREQ_1 =   2022-11-28T22:21:23.069   2216500511.6
RECEIVE_FREQ_1 =   2022-11-28T22:21:43.114   2216500509.8
RECEIVE_FREQ_1 =   2022-11-28T22:21:53.136   2216500508.7
RECEIVE_FREQ_1 =   2022-11-28T22:22:03.072   2216500507.8
RECEIVE_FREQ_1 =   2022-11-28T22:22:13.094   2216500506.6
RECEIVE_FREQ_1 =   2022-11-28T22:22:33.139   2216500504.8
RECEIVE_FREQ_1 =   2022-11-28T22:22:43.075   2216500504.0
RECEIVE_FREQ_1 =   2022-11-28T22:22:53.098   2216500503.0
RECEIVE_FREQ_1 =   2022-11-28T22:23:03.120   2216500502.1
RECEIVE_FREQ_1 =   2022-11-28T22:23:13.142   2216500501.2
RECEIVE_FREQ_1 =   2022-11-28T22:23:23.078   2216500500.1
RECEIVE_FREQ_1 =   2022-11-28T22:23:33.101   2216500498.9
RECEIVE_FREQ_1 =   2022-11-28T22:23:43.123   2216500498.2
RECEIVE_FREQ_1 =   2022-11-28T22:23:53.146   2216500497.2
RECEIVE_FREQ_1 =   2022-11-28T22:24:03.082   2216500496.3
RECEIVE_FREQ_1 =   2022-11-28T22:24:13.104   2216500495.6
RECEIVE_FREQ_1 =   2022-11-28T22:24:23.126   2216500494.6
RECEIVE_FREQ_1 =   2022-11-28T22:24:33.149   2216500493.2
RECEIVE_FREQ_1 =   2022-11-28T22:24:53.107   2216500491.4
RECEIVE_FREQ_1 =   2022-11-28T22:25:03.130   2216500490.5
RECEIVE_FREQ_1 =   2022-11-28T22:25:13.152   2216500489.3
RECEIVE_FREQ_1 =   2022-11-28T22:25:23.088   2216500488.8
RECEIVE_FREQ_1 =   2022-11-28T22:25:33.110   2216500487.6
RECEIVE_FREQ_1 =   2022-11-28T22:25:43.133   2216500486.8
RECEIVE_FREQ_1 =   2022-11-28T22:25:53.155   2216500485.8
RECEIVE_FREQ_1 =   2022-11-28T22:26:03.091   2216500484.6
RECEIVE_FREQ_1 =   2022-11-28T22:26:13.114   2216500483.6
RECEIVE_FREQ_1 =   2022-11-28T22:26:23.136   2216500482.5
RECEIVE_FREQ_1 =   2022-11-28T22:26:33.158   2216500481.4
RECEIVE_FREQ_1 =   2022-11-28T22:26:43.094   2216500480.8
RECEIVE_FREQ_1 =   2022-11-28T22:26:53.117   2216500479.7
RECEIVE_FREQ_1 =   2022-11-28T22:27:03.139   2216500478.8
RECEIVE_FREQ_1 =   2022-11-28T22:27:13.075   2216500477.7
RECEIVE_FREQ_1 =   2022-11-28T22:27:23.098   2216500476.7
RECEIVE_FREQ_1 =   2022-11-28T22:27:33.120   2216500475.9
RECEIVE_FREQ_1 =   2022-11-28T22:27:43.142   2216500474.9
RECEIVE_FREQ_1 =   2022-11-28T22:27:53.078   2216500473.7
RECEIVE_FREQ_1 =   2022-11-28T22:28:03.101   2216500472.8
RECEIVE_FREQ_1 =   2022-11-28T22:28:13.123   2216500471.9
RECEIVE_FREQ_1 =   2022-11-28T22:28:23.146   2216500471.0
RECEIVE_FREQ_1 =   2022-11-28T22:28:33.082   2216500469.8
RECEIVE_FREQ_1 =   2022-11-28T22:28:43.104   2216500468.7
RECEIVE_FREQ_1 =   2022-11-28T22:28:53.126   2216500468.1
RECEIVE_FREQ_1 =   2022-11-28T22:29:03.149   2216500467.0
RECEIVE_FREQ_1 =   2022-11-28T22:29:13.085   2216500465.7
RECEIVE_FREQ_1 =   2022-11-28T22:29:23.107   2216500465.0
RECEIVE_FREQ_1 =   2022-11-28T22:29:33.130   2216500463.7
RECEIVE_FREQ_1 =   2022-11-28T22:29:43.152   2216500463.0
RECEIVE_FREQ_1 =   2022-11-28T22:29:53.088   2216500461.7
RECEIVE_FREQ_1 =   2022-11-28T22:30:03.110   2216500461.0
RECEIVE_FREQ_1 =   2022-11-28T22:30:13.133   2216500460.0
RECEIVE_FREQ_1 =   2022-11-28T22:30:23.155   2216500458.8
RECEIVE_FREQ_1 =   2022-11-28T22:30:33.091   2216500457.7
RECEIVE_FREQ_1 =   2022-11-28T22:30:33.091   2216500457.7
RECEIVE_FREQ_1 =   2022-11-28T22:30:43.114   2216500456.7
RECEIVE_FREQ_1 =   2022-11-28T22:30:53.136   2216500455.6
RECEIVE_FREQ_1 =   2022-11-28T22:31:03.158   2216500454.5
RECEIVE_FREQ_1 =   2022-11-28T22:31:13.094   2216500453.8
RECEIVE_FREQ_1 =   2022-11-28T22:31:23.117   2216500453.0
RECEIVE_FREQ_1 =   2022-11-28T22:31:33.139   2216500451.8
RECEIVE_FREQ_1 =   2022-11-28T22:31:53.098   2216500449.6
RECEIVE_FREQ_1 =   2022-11-28T22:32:03.120   2216500448.8
RECEIVE_FREQ_1 =   2022-11-28T22:32:13.142   2216500447.4
RECEIVE_FREQ_1 =   2022-11-28T22:32:23.078   2216500446.8
RECEIVE_FREQ_1 =   2022-11-28T22:32:33.101   2216500445.4
RECEIVE_FREQ_1 =   2022-11-28T22:32:43.123   2216500444.6
RECEIVE_FREQ_1 =   2022-11-28T22:32:53.146   2216500443.3
RECEIVE_FREQ_1 =   2022-11-28T22:33:03.082   2216500442.2
RECEIVE_FREQ_1 =   2022-11-28T22:33:23.126   2216500440.3
RECEIVE_FREQ_1 =   2022-11-28T22:33:33.149   2216500439.3
RECEIVE_FREQ_1 =   2022-11-28T22:33:43.085   2216500438.2
RECEIVE_FREQ_1 =   2022-11-28T22:33:53.107   2216500437.5
RECEIVE_FREQ_1 =   2022-11-28T22:34:03.130   2216500436.4
RECEIVE_FREQ_1 =   2022-11-28T22:34:13.152   2216500435.2
RECEIVE_FREQ_1 =   2022-11-28T22:34:23.088   2216500434.3
RECEIVE_FREQ_1 =   2022-11-28T22:34:33.110   2216500433.0
RECEIVE_FREQ_1 =   2022-11-28T22:34:43.133   2216500432.0
RECEIVE_FREQ_1 =   2022-11-28T22:34:53.155   2216500431.0
RECEIVE_FREQ_1 =   2022-11-28T22:35:03.091   2216500429.7
RECEIVE_FREQ_1 =   2022-11-28T22:35:13.114   2216500428.8
RECEIVE_FREQ_1 =   2022-11-28T22:35:33.158   2216500427.1
RECEIVE_FREQ_1 =   2022-11-28T22:35:43.094   2216500425.9
RECEIVE_FREQ_1 =   2022-11-28T22:35:53.117   2216500424.9
RECEIVE_FREQ_1 =   2022-11-28T22:36:03.139   2216500423.6
RECEIVE_FREQ_1 =   2022-11-28T22:36:13.075   2216500422.2
RECEIVE_FREQ_1 =   2022-11-28T22:36:23.098   2216500421.4
RECEIVE_FREQ_1 =   2022-11-28T22:36:53.078   2216500418.2
RECEIVE_FREQ_1 =   2022-11-28T22:37:03.101   2216500417.5
RECEIVE_FREQ_1 =   2022-11-28T22:37:13.123   2216500416.2
RECEIVE_FREQ_1 =   2022-11-28T22:37:23.146   2216500415.2
RECEIVE_FREQ_1 =   2022-11-28T22:37:33.082   2216500414.3
RECEIVE_FREQ_1 =   2022-11-28T22:37:43.104   2216500412.9
RECEIVE_FREQ_1 =   2022-11-28T22:37:53.126   2216500411.9
RECEIVE_FREQ_1 =   2022-11-28T22:38:03.149   2216500410.6
RECEIVE_FREQ_1 =   2022-11-28T22:38:13.085   2216500409.9
RECEIVE_FREQ_1 =   2022-11-28T22:38:23.107   2216500408.6
RECEIVE_FREQ_1 =   2022-11-28T22:38:33.130   2216500408.2
RECEIVE_FREQ_1 =   2022-11-28T22:38:43.152   2216500406.9
RECEIVE_FREQ_1 =   2022-11-28T22:38:53.088   2216500405.3
RECEIVE_FREQ_1 =   2022-11-28T22:39:03.110   2216500404.3
RECEIVE_FREQ_1 =   2022-11-28T22:39:13.133   2216500403.7
RECEIVE_FREQ_1 =   2022-11-28T22:39:23.155   2216500402.4
RECEIVE_FREQ_1 =   2022-11-28T22:39:33.091   2216500401.5
RECEIVE_FREQ_1 =   2022-11-28T22:39:43.114   2216500400.2
RECEIVE_FREQ_1 =   2022-11-28T22:39:53.136   2216500399.1
RECEIVE_FREQ_1 =   2022-11-28T22:40:03.072   2216500398.2
RECEIVE_FREQ_1 =   2022-11-28T22:40:13.094   2216500396.9
RECEIVE_FREQ_1 =   2022-11-28T22:40:23.117   2216500395.8
RECEIVE_FREQ_1 =   2022-11-28T22:40:33.139   2216500394.8
RECEIVE_FREQ_1 =   2022-11-28T22:40:43.075   2216500393.9
RECEIVE_FREQ_1 =   2022-11-28T22:40:53.098   2216500392.7
RECEIVE_FREQ_1 =   2022-11-28T22:41:03.120   2216500391.4
RECEIVE_FREQ_1 =   2022-11-28T22:41:13.142   2216500390.5
RECEIVE_FREQ_1 =   2022-11-28T22:41:23.078   2216500389.4
RECEIVE_FREQ_1 =   2022-11-28T22:41:33.101   2216500388.3
RECEIVE_FREQ_1 =   2022-11-28T22:41:43.123   2216500387.2
RECEIVE_FREQ_1 =   2022-11-28T22:41:53.146   2216500386.1
RECEIVE_FREQ_1 =   2022-11-28T22:42:03.082   2216500384.9
RECEIVE_FREQ_1 =   2022-11-28T22:42:13.104   2216500383.9
RECEIVE_FREQ_1 =   2022-11-28T22:42:23.126   2216500382.5
RECEIVE_FREQ_1 =   2022-11-28T22:42:33.149   2216500381.9
RECEIVE_FREQ_1 =   2022-11-28T22:42:43.085   2216500380.5
RECEIVE_FREQ_1 =   2022-11-28T22:42:53.107   2216500379.4
RECEIVE_FREQ_1 =   2022-11-28T22:43:03.130   2216500378.3
RECEIVE_FREQ_1 =   2022-11-28T22:43:13.152   2216500377.1
RECEIVE_FREQ_1 =   2022-11-28T22:43:23.088   2216500376.0
RECEIVE_FREQ_1 =   2022-11-28T22:43:33.110   2216500375.1
RECEIVE_FREQ_1 =   2022-11-28T22:43:43.133   2216500373.4
RECEIVE_FREQ_1 =   2022-11-28T22:43:53.155   2216500372.9
RECEIVE_FREQ_1 =   2022-11-28T22:44:03.091   2216500371.9
RECEIVE_FREQ_1 =   2022-11-28T22:44:13.114   2216500370.5
RECEIVE_FREQ_1 =   2022-11-28T22:44:23.136   2216500369.6
RECEIVE_FREQ_1 =   2022-11-28T22:44:33.158   2216500368.5
RECEIVE_FREQ_1 =   2022-11-28T22:44:43.094   2216500367.2
RECEIVE_FREQ_1 =   2022-11-28T22:44:53.117   2216500366.5
RECEIVE_FREQ_1 =   2022-11-28T22:45:03.139   2216500365.2
RECEIVE_FREQ_1 =   2022-11-28T22:45:13.162   2216500363.7
RECEIVE_FREQ_1 =   2022-11-28T22:45:23.098   2216500362.7
RECEIVE_FREQ_1 =   2022-11-28T22:45:33.120   2216500361.7
RECEIVE_FREQ_1 =   2022-11-28T22:45:43.142   2216500360.7
RECEIVE_FREQ_1 =   2022-11-28T22:45:53.078   2216500359.4
RECEIVE_FREQ_1 =   2022-11-28T22:46:03.101   2216500358.0
RECEIVE_FREQ_1 =   2022-11-28T22:46:13.123   2216500356.9
RECEIVE_FREQ_1 =   2022-11-28T22:46:23.146   2216500356.1
RECEIVE_FREQ_1 =   2022-11-28T22:46:33.082   2216500354.7
RECEIVE_FREQ_1 =   2022-11-28T22:46:43.104   2216500353.9
RECEIVE_FREQ_1 =   2022-11-28T22:46:53.126   2216500352.6
RECEIVE_FREQ_1 =   2022-11-28T22:47:03.149   2216500351.7
RECEIVE_FREQ_1 =   2022-11-28T22:47:13.085   2216500350.2
RECEIVE_FREQ_1 =   2022-11-28T22:47:33.130   2216500348.0
RECEIVE_FREQ_1 =   2022-11-28T22:47:43.152   2216500346.9
RECEIVE_FREQ_1 =   2022-11-28T22:47:53.088   2216500345.8
RECEIVE_FREQ_1 =   2022-11-28T22:48:13.133   2216500343.8
RECEIVE_FREQ_1 =   2022-11-28T22:48:23.155   2216500342.3
RECEIVE_FREQ_1 =   2022-11-28T22:48:33.091   2216500341.2
RECEIVE_FREQ_1 =   2022-11-28T22:48:43.114   2216500340.6
RECEIVE_FREQ_1 =   2022-11-28T22:48:53.136   2216500339.0
RECEIVE_FREQ_1 =   2022-11-28T22:49:03.158   2216500337.6
RECEIVE_FREQ_1 =   2022-11-28T22:49:13.094   2216500336.7
RECEIVE_FREQ_1 =   2022-11-28T22:49:33.139   2216500334.6
RECEIVE_FREQ_1 =   2022-11-28T22:49:53.098   2216500332.3
RECEIVE_FREQ_1 =   2022-11-28T22:50:03.120   2216500331.4
RECEIVE_FREQ_1 =   2022-11-28T22:50:43.123   2216500327.0
RECEIVE_FREQ_1 =   2022-11-28T22:51:33.149   2216500322.0
RECEIVE_FREQ_1 =   2022-11-28T22:51:43.085   2216500320.6
RECEIVE_FREQ_1 =   2022-11-28T22:51:53.107   2216500319.8
RECEIVE_FREQ_1 =   2022-11-28T22:52:13.152   2216500317.8
RECEIVE_FREQ_1 =   2022-11-28T22:52:23.088   2216500316.5
RECEIVE_FREQ_1 =   2022-11-28T22:52:33.110   2216500315.5
RECEIVE_FREQ_1 =   2022-11-28T22:52:43.133   2216500314.5
RECEIVE_FREQ_1 =   2022-11-28T22:52:53.155   2216500313.4
RECEIVE_FREQ_1 =   2022-11-28T22:53:23.136   2216500310.2
RECEIVE_FREQ_1 =   2022-11-28T22:53:33.158   2216500308.8
RECEIVE_FREQ_1 =   2022-11-28T22:53:33.158   2216500308.8
RECEIVE_FREQ_1 =   2022-11-28T22:53:43.094   2216500307.7
RECEIVE_FREQ_1 =   2022-11-28T22:53:53.117   2216500307.1
RECEIVE_FREQ_1 =   2022-11-28T22:54:33.120   2216500302.5
RECEIVE_FREQ_1 =   2022-11-28T22:55:13.123   2216500298.2
RECEIVE_FREQ_1 =   2022-11-28T22:55:23.146   2216500297.0
RECEIVE_FREQ_1 =   2022-11-28T22:55:53.126   2216500293.8
RECEIVE_FREQ_1 =   2022-11-28T22:56:03.149   2216500292.8
RECEIVE_FREQ_1 =   2022-11-28T22:56:13.085   2216500291.8
RECEIVE_FREQ_1 =   2022-11-28T22:56:33.130   2216500289.5
RECEIVE_FREQ_1 =   2022-11-28T22:57:03.110   2216500286.2
RECEIVE_FREQ_1 =   2022-11-28T22:57:13.133   2216500285.3
RECEIVE_FREQ_1 =   2022-11-28T22:57:23.155   2216500284.0
RECEIVE_FREQ_1 =   2022-11-28T22:57:33.091   2216500282.8
RECEIVE_FREQ_1 =   2022-11-28T22:57:43.114   2216500281.7
RECEIVE_FREQ_1 =   2022-11-28T22:57:53.136   2216500280.6
RECEIVE_FREQ_1 =   2022-11-28T22:58:03.158   2216500279.2
RECEIVE_FREQ_1 =   2022-11-28T22:58:13.094   2216500278.7
RECEIVE_FREQ_1 =   2022-11-28T22:58:23.117   2216500277.1
RECEIVE_FREQ_1 =   2022-11-28T22:58:43.162   2216500275.4
RECEIVE_FREQ_1 =   2022-11-28T22:58:53.098   2216500273.9
RECEIVE_FREQ_1 =   2022-11-28T22:59:03.120   2216500272.7
RECEIVE_FREQ_1 =   2022-11-28T22:59:13.142   2216500272.1
RECEIVE_FREQ_1 =   2022-11-28T22:59:33.101   2216500269.5
RECEIVE_FREQ_1 =   2022-11-28T22:59:53.146   2216500266.9
RECEIVE_FREQ_1 =   2022-11-28T23:00:13.104   2216500265.1
RECEIVE_FREQ_1 =   2022-11-28T23:00:43.085   2216500261.7
RECEIVE_FREQ_1 =   2022-11-28T23:00:53.107   2216500260.7
RECEIVE_FREQ_1 =   2022-11-28T23:01:13.152   2216500258.2
RECEIVE_FREQ_1 =   2022-11-28T23:01:33.110   2216500256.2
RECEIVE_FREQ_1 =   2022-11-28T23:01:43.133   2216500255.0
RECEIVE_FREQ_1 =   2022-11-28T23:02:03.091   2216500252.4
RECEIVE_FREQ_1 =   2022-11-28T23:02:13.114   2216500251.5
RECEIVE_FREQ_1 =   2022-11-28T23:02:23.136   2216500250.1
RECEIVE_FREQ_1 =   2022-11-28T23:02:53.117   2216500246.1
RECEIVE_FREQ_1 =   2022-11-28T23:03:03.139   2216500245.8
RECEIVE_FREQ_1 =   2022-11-28T23:03:23.098   2216500243.7
RECEIVE_FREQ_1 =   2022-11-28T23:04:03.101   2216500239.1
RECEIVE_FREQ_1 =   2022-11-28T23:05:13.085   2216500231.0
RECEIVE_FREQ_1 =   2022-11-28T23:05:23.107   2216500229.4
RECEIVE_FREQ_1 =   2022-11-28T23:05:33.130   2216500228.7
RECEIVE_FREQ_1 =   2022-11-28T23:05:43.152   2216500227.6
RECEIVE_FREQ_1 =   2022-11-28T23:05:53.088   2216500226.5
RECEIVE_FREQ_1 =   2022-11-28T23:06:23.155   2216500222.9
RECEIVE_FREQ_1 =   2022-11-28T23:06:43.114   2216500220.6
RECEIVE_FREQ_1 =   2022-11-28T23:07:03.072   2216500218.5
RECEIVE_FREQ_1 =   2022-11-28T23:07:13.094   2216500217.3
RECEIVE_FREQ_1 =   2022-11-28T23:07:23.117   2216500215.8
RECEIVE_FREQ_1 =   2022-11-28T23:08:03.120   2216500211.3
RECEIVE_FREQ_1 =   2022-11-28T23:08:33.101   2216500208.5
RECEIVE_FREQ_1 =   2022-11-28T23:08:43.123   2216500207.0
RECEIVE_FREQ_1 =   2022-11-28T23:09:03.082   2216500204.5
RECEIVE_FREQ_1 =   2022-11-28T23:09:23.126   2216500202.1
RECEIVE_FREQ_1 =   2022-11-28T23:09:43.085   2216500199.9
RECEIVE_FREQ_1 =   2022-11-28T23:10:03.130   2216500197.6
RECEIVE_FREQ_1 =   2022-11-28T23:10:23.088   2216500195.0
RECEIVE_FREQ_1 =   2022-11-28T23:10:33.110   2216500193.7
RECEIVE_FREQ_1 =   2022-11-28T23:10:43.133   2216500192.7
RECEIVE_FREQ_1 =   2022-11-28T23:10:53.155   2216500191.3
RECEIVE_FREQ_1 =   2022-11-28T23:11:13.114   2216500188.9
RECEIVE_FREQ_1 =   2022-11-28T23:11:13.114   2216500188.9
RECEIVE_FREQ_1 =   2022-11-28T23:11:43.094   2216500185.5
RECEIVE_FREQ_1 =   2022-11-28T23:11:53.117   2216500184.2
RECEIVE_FREQ_1 =   2022-11-28T23:48:23.098   2216499917.9
RECEIVE_FREQ_1 =   2022-11-28T23:50:43.152   2216499901.6
RECEIVE_FREQ_1 =   2022-11-28T23:52:53.098   2216499884.2
RECEIVE_FREQ_1 =   2022-11-28T23:53:23.078   2216499880.8
RECEIVE_FREQ_1 =   2022-11-28T23:53:43.123   2216499878.0
RECEIVE_FREQ_1 =   2022-11-28T23:53:53.146   2216499876.7
RECEIVE_FREQ_1 =   2022-11-28T23:54:03.082   2216499875.3
RECEIVE_FREQ_1 =   2022-11-28T23:54:53.107   2216499869.2
RECEIVE_FREQ_1 =   2022-11-28T23:55:03.130   2216499867.3
RECEIVE_FREQ_1 =   2022-11-28T23:55:23.088   2216499864.6
RECEIVE_FREQ_1 =   2022-11-28T23:55:33.110   2216499863.3
RECEIVE_FREQ_1 =   2022-11-28T23:55:33.110   2216499863.3
RECEIVE_FREQ_1 =   2022-11-28T23:55:43.133   2216499862.6
RECEIVE_FREQ_1 =   2022-11-28T23:55:53.155   2216499861.3
RECEIVE_FREQ_1 =   2022-11-28T23:56:03.091   2216499859.3
RECEIVE_FREQ_1 =   2022-11-28T23:56:13.114   2216499858.6
RECEIVE_FREQ_1 =   2022-11-28T23:56:33.072   2216499855.8
RECEIVE_FREQ_1 =   2022-11-28T23:56:43.094   2216499854.4
RECEIVE_FREQ_1 =   2022-11-28T23:56:53.117   2216499853.2
RECEIVE_FREQ_1 =   2022-11-28T23:57:03.139   2216499852.1
RECEIVE_FREQ_1 =   2022-11-28T23:57:23.098   2216499849.8
RECEIVE_FREQ_1 =   2022-11-28T23:57:43.142   2216499846.9
RECEIVE_FREQ_1 =   2022-11-28T23:57:53.078   2216499845.2
RECEIVE_FREQ_1 =   2022-11-28T23:58:13.123   2216499842.7
RECEIVE_FREQ_1 =   2022-11-28T23:58:33.082   2216499840.1
RECEIVE_FREQ_1 =   2022-11-28T23:58:43.104   2216499838.7
RECEIVE_FREQ_1 =   2022-11-28T23:59:03.149   2216499836.4
RECEIVE_FREQ_1 =   2022-11-28T23:59:13.085   2216499834.7
RECEIVE_FREQ_1 =   2022-11-28T23:59:23.107   2216499834.0
RECEIVE_FREQ_1 =   2022-11-28T23:59:43.152   2216499830.8
RECEIVE_FREQ_1 =   2022-11-29T00:30:03.082   2216499595.4
RECEIVE_FREQ_1 =   2022-11-29T00:30:13.104   2216499594.4
RECEIVE_FREQ_1 =   2022-11-29T00:30:23.126   2216499593.1
RECEIVE_FREQ_1 =   2022-11-29T00:30:33.149   2216499591.9
RECEIVE_FREQ_1 =   2022-11-29T00:30:43.085   2216499590.7
RECEIVE_FREQ_1 =   2022-11-29T00:30:53.107   2216499589.3
RECEIVE_FREQ_1 =   2022-11-29T00:31:03.130   2216499588.2
RECEIVE_FREQ_1 =   2022-11-29T00:31:13.152   2216499586.7
RECEIVE_FREQ_1 =   2022-11-29T00:31:23.088   2216499585.7
RECEIVE_FREQ_1 =   2022-11-29T00:31:33.110   2216499583.9
RECEIVE_FREQ_1 =   2022-11-29T00:31:43.133   2216499582.7
RECEIVE_FREQ_1 =   2022-11-29T00:31:53.155   2216499581.6
RECEIVE_FREQ_1 =   2022-11-29T00:32:03.091   2216499580.2
RECEIVE_FREQ_1 =   2022-11-29T00:32:13.114   2216499578.7
RECEIVE_FREQ_1 =   2022-11-29T00:32:23.136   2216499577.5
RECEIVE_FREQ_1 =   2022-11-29T00:32:33.072   2216499576.2
RECEIVE_FREQ_1 =   2022-11-29T00:32:43.094   2216499575.0
RECEIVE_FREQ_1 =   2022-11-29T00:32:53.117   2216499573.9
RECEIVE_FREQ_1 =   2022-11-29T00:33:03.139   2216499572.5
RECEIVE_FREQ_1 =   2022-11-29T00:33:13.075   2216499570.8
RECEIVE_FREQ_1 =   2022-11-29T00:33:23.098   2216499569.8
RECEIVE_FREQ_1 =   2022-11-29T00:33:33.120   2216499568.4
RECEIVE_FREQ_1 =   2022-11-29T00:33:43.142   2216499566.9
RECEIVE_FREQ_1 =   2022-11-29T00:33:53.078   2216499565.7
RECEIVE_FREQ_1 =   2022-11-29T00:34:03.101   2216499564.4
RECEIVE_FREQ_1 =   2022-11-29T00:34:13.123   2216499563.4
RECEIVE_FREQ_1 =   2022-11-29T00:34:23.146   2216499561.8
RECEIVE_FREQ_1 =   2022-11-29T00:34:33.082   2216499560.3
RECEIVE_FREQ_1 =   2022-11-29T00:34:43.104   2216499559.0
RECEIVE_FREQ_1 =   2022-11-29T00:34:53.126   2216499557.9
RECEIVE_FREQ_1 =   2022-11-29T00:35:03.149   2216499556.5
RECEIVE_FREQ_1 =   2022-11-29T00:35:13.085   2216499555.3
RECEIVE_FREQ_1 =   2022-11-29T00:35:23.107   2216499553.9
RECEIVE_FREQ_1 =   2022-11-29T00:35:33.130   2216499552.5
RECEIVE_FREQ_1 =   2022-11-29T00:35:43.152   2216499551.4
RECEIVE_FREQ_1 =   2022-11-29T00:35:53.088   2216499549.8
RECEIVE_FREQ_1 =   2022-11-29T00:36:03.110   2216499548.6
RECEIVE_FREQ_1 =   2022-11-29T00:36:13.133   2216499547.4
RECEIVE_FREQ_1 =   2022-11-29T00:36:23.155   2216499546.1
RECEIVE_FREQ_1 =   2022-11-29T00:36:33.091   2216499544.5
RECEIVE_FREQ_1 =   2022-11-29T00:36:43.114   2216499543.3
RECEIVE_FREQ_1 =   2022-11-29T00:36:53.136   2216499542.1
RECEIVE_FREQ_1 =   2022-11-29T00:37:03.158   2216499540.9
RECEIVE_FREQ_1 =   2022-11-29T00:37:13.094   2216499539.5
RECEIVE_FREQ_1 =   2022-11-29T00:37:23.117   2216499537.9
RECEIVE_FREQ_1 =   2022-11-29T00:37:33.139   2216499536.9
RECEIVE_FREQ_1 =   2022-11-29T00:37:43.075   2216499535.1
RECEIVE_FREQ_1 =   2022-11-29T00:37:53.098   2216499533.9
RECEIVE_FREQ_1 =   2022-11-29T00:38:03.120   2216499532.7
RECEIVE_FREQ_1 =   2022-11-29T00:38:13.142   2216499531.3
RECEIVE_FREQ_1 =   2022-11-29T00:38:23.078   2216499530.4
RECEIVE_FREQ_1 =   2022-11-29T00:38:33.101   2216499528.7
RECEIVE_FREQ_1 =   2022-11-29T00:38:43.123   2216499527.6
RECEIVE_FREQ_1 =   2022-11-29T00:38:53.146   2216499526.2
RECEIVE_FREQ_1 =   2022-11-29T00:39:03.082   2216499525.0
RECEIVE_FREQ_1 =   2022-11-29T00:39:13.104   2216499523.4
RECEIVE_FREQ_1 =   2022-11-29T00:39:23.126   2216499522.1
RECEIVE_FREQ_1 =   2022-11-29T00:39:33.149   2216499520.9
RECEIVE_FREQ_1 =   2022-11-29T00:39:43.085   2216499519.4
RECEIVE_FREQ_1 =   2022-11-29T00:39:53.107   2216499517.7
RECEIVE_FREQ_1 =   2022-11-29T00:40:03.130   2216499517.0
RECEIVE_FREQ_1 =   2022-11-29T00:40:13.152   2216499515.8
RECEIVE_FREQ_1 =   2022-11-29T00:40:23.088   2216499514.4
RECEIVE_FREQ_1 =   2022-11-29T00:40:33.110   2216499513.2
RECEIVE_FREQ_1 =   2022-11-29T00:40:43.133   2216499511.3
RECEIVE_FREQ_1 =   2022-11-29T00:40:53.155   2216499510.3
RECEIVE_FREQ_1 =   2022-11-29T00:41:03.091   2216499509.3
RECEIVE_FREQ_1 =   2022-11-29T00:41:13.114   2216499507.6
RECEIVE_FREQ_1 =   2022-11-29T00:41:23.136   2216499506.1
RECEIVE_FREQ_1 =   2022-11-29T00:41:33.158   2216499505.0
RECEIVE_FREQ_1 =   2022-11-29T00:41:43.094   2216499503.8
RECEIVE_FREQ_1 =   2022-11-29T00:41:53.117   2216499502.5
RECEIVE_FREQ_1 =   2022-11-29T00:42:03.139   2216499501.1
RECEIVE_FREQ_1 =   2022-11-29T00:42:13.075   2216499499.7
RECEIVE_FREQ_1 =   2022-11-29T00:42:23.098   2216499498.5
RECEIVE_FREQ_1 =   2022-11-29T00:42:33.120   2216499497.2
RECEIVE_FREQ_1 =   2022-11-29T00:42:43.142   2216499495.9
RECEIVE_FREQ_1 =   2022-11-29T00:42:53.078   2216499494.4
RECEIVE_FREQ_1 =   2022-11-29T00:43:03.101   2216499493.3
RECEIVE_FREQ_1 =   2022-11-29T00:43:13.123   2216499491.8
RECEIVE_FREQ_1 =   2022-11-29T00:43:23.146   2216499490.2
RECEIVE_FREQ_1 =   2022-11-29T00:43:33.082   2216499489.1
RECEIVE_FREQ_1 =   2022-11-29T00:43:43.104   2216499487.7
RECEIVE_FREQ_1 =   2022-11-29T00:43:53.126   2216499486.6
RECEIVE_FREQ_1 =   2022-11-29T00:44:03.149   2216499485.1
RECEIVE_FREQ_1 =   2022-11-29T00:44:13.085   2216499483.6
RECEIVE_FREQ_1 =   2022-11-29T00:44:23.107   2216499482.4
RECEIVE_FREQ_1 =   2022-11-29T00:44:33.130   2216499481.0
RECEIVE_FREQ_1 =   2022-11-29T00:44:43.152   2216499479.8
RECEIVE_FREQ_1 =   2022-11-29T00:44:53.088   2216499478.6
RECEIVE_FREQ_1 =   2022-11-29T00:45:03.110   2216499477.6
RECEIVE_FREQ_1 =   2022-11-29T00:45:13.133   2216499478.2
RECEIVE_FREQ_1 =   2022-11-29T00:45:23.069   2216499476.9
RECEIVE_FREQ_1 =   2022-11-29T00:45:33.091   2216499475.7
RECEIVE_FREQ_1 =   2022-11-29T00:45:43.114   2216499474.4
RECEIVE_FREQ_1 =   2022-11-29T00:45:53.136   2216499472.7
RECEIVE_FREQ_1 =   2022-11-29T00:46:03.158   2216499471.5
RECEIVE_FREQ_1 =   2022-11-29T00:46:13.094   2216499470.0
RECEIVE_FREQ_1 =   2022-11-29T00:46:23.117   2216499468.7
RECEIVE_FREQ_1 =   2022-11-29T00:46:33.139   2216499467.5
RECEIVE_FREQ_1 =   2022-11-29T00:46:43.162   2216499465.8
RECEIVE_FREQ_1 =   2022-11-29T00:46:53.098   2216499464.8
RECEIVE_FREQ_1 =   2022-11-29T00:47:03.120   2216499463.3
RECEIVE_FREQ_1 =   2022-11-29T00:47:13.142   2216499461.9
RECEIVE_FREQ_1 =   2022-11-29T00:47:23.165   2216499460.8
RECEIVE_FREQ_1 =   2022-11-29T00:47:33.101   2216499459.6
RECEIVE_FREQ_1 =   2022-11-29T00:47:43.123   2216499457.9
RECEIVE_FREQ_1 =   2022-11-29T00:47:53.146   2216499456.7
RECEIVE_FREQ_1 =   2022-11-29T00:48:03.082   2216499455.2
RECEIVE_FREQ_1 =   2022-11-29T00:48:13.104   2216499454.1
RECEIVE_FREQ_1 =   2022-11-29T00:48:23.126   2216499452.8
RECEIVE_FREQ_1 =   2022-11-29T00:48:33.149   2216499451.3
RECEIVE_FREQ_1 =   2022-11-29T00:48:43.085   2216499450.3
RECEIVE_FREQ_1 =   2022-11-29T00:48:53.107   2216499448.8
RECEIVE_FREQ_1 =   2022-11-29T00:49:03.130   2216499447.6
RECEIVE_FREQ_1 =   2022-11-29T00:49:13.152   2216499446.2
RECEIVE_FREQ_1 =   2022-11-29T00:49:23.088   2216499444.7
RECEIVE_FREQ_1 =   2022-11-29T00:49:33.110   2216499443.3
RECEIVE_FREQ_1 =   2022-11-29T00:49:43.133   2216499442.0
RECEIVE_FREQ_1 =   2022-11-29T00:49:53.155   2216499440.6
RECEIVE_FREQ_1 =   2022-11-29T00:50:03.091   2216499439.5
RECEIVE_FREQ_1 =   2022-11-29T00:50:13.114   2216499437.7
RECEIVE_FREQ_1 =   2022-11-29T00:50:23.136   2216499436.5
RECEIVE_FREQ_1 =   2022-11-29T00:50:33.158   2216499435.4
RECEIVE_FREQ_1 =   2022-11-29T00:50:43.094   2216499434.0
RECEIVE_FREQ_1 =   2022-11-29T00:50:53.117   2216499432.6
RECEIVE_FREQ_1 =   2022-11-29T00:51:03.139   2216499431.1
RECEIVE_FREQ_1 =   2022-11-29T00:51:13.075   2216499430.0
RECEIVE_FREQ_1 =   2022-11-29T00:51:23.098   2216499428.3
RECEIVE_FREQ_1 =   2022-11-29T00:51:33.120   2216499427.4
RECEIVE_FREQ_1 =   2022-11-29T00:51:43.142   2216499425.3
RECEIVE_FREQ_1 =   2022-11-29T00:51:53.078   2216499424.7
RECEIVE_FREQ_1 =   2022-11-29T00:52:03.101   2216499423.0
RECEIVE_FREQ_1 =   2022-11-29T00:52:13.123   2216499421.6
RECEIVE_FREQ_1 =   2022-11-29T00:52:23.146   2216499420.3
RECEIVE_FREQ_1 =   2022-11-29T00:52:33.082   2216499418.7
RECEIVE_FREQ_1 =   2022-11-29T00:52:43.104   2216499417.4
RECEIVE_FREQ_1 =   2022-11-29T00:52:53.126   2216499416.3
RECEIVE_FREQ_1 =   2022-11-29T00:53:03.149   2216499415.2
RECEIVE_FREQ_1 =   2022-11-29T00:53:13.171   2216499413.4
RECEIVE_FREQ_1 =   2022-11-29T00:53:23.107   2216499412.0
RECEIVE_FREQ_1 =   2022-11-29T00:53:33.130   2216499410.7
RECEIVE_FREQ_1 =   2022-11-29T00:53:43.152   2216499409.3
RECEIVE_FREQ_1 =   2022-11-29T00:53:53.174   2216499407.8
RECEIVE_FREQ_1 =   2022-11-29T00:54:03.110   2216499406.5
RECEIVE_FREQ_1 =   2022-11-29T00:54:13.133   2216499405.1
RECEIVE_FREQ_1 =   2022-11-29T00:54:23.155   2216499403.5
RECEIVE_FREQ_1 =   2022-11-29T00:54:33.091   2216499402.4
RECEIVE_FREQ_1 =   2022-11-29T00:54:43.114   2216499401.0
RECEIVE_FREQ_1 =   2022-11-29T00:54:53.136   2216499399.4
RECEIVE_FREQ_1 =   2022-11-29T00:55:03.158   2216499398.0
RECEIVE_FREQ_1 =   2022-11-29T00:55:13.181   2216499396.9
RECEIVE_FREQ_1 =   2022-11-29T00:55:23.117   2216499395.5
RECEIVE_FREQ_1 =   2022-11-29T00:55:33.139   2216499393.9
RECEIVE_FREQ_1 =   2022-11-29T00:55:43.162   2216499393.1
RECEIVE_FREQ_1 =   2022-11-29T00:55:53.098   2216499391.7
RECEIVE_FREQ_1 =   2022-11-29T00:56:03.120   2216499390.5
RECEIVE_FREQ_1 =   2022-11-29T00:56:13.142   2216499389.2
RECEIVE_FREQ_1 =   2022-11-29T00:56:23.078   2216499387.9
RECEIVE_FREQ_1 =   2022-11-29T00:56:33.101   2216499386.8
RECEIVE_FREQ_1 =   2022-11-29T00:56:43.123   2216499385.3
RECEIVE_FREQ_1 =   2022-11-29T00:56:53.146   2216499384.2
RECEIVE_FREQ_1 =   2022-11-29T00:57:03.168   2216499383.1
RECEIVE_FREQ_1 =   2022-11-29T00:57:13.190   2216499381.8
RECEIVE_FREQ_1 =   2022-11-29T00:57:23.126   2216499380.5
RECEIVE_FREQ_1 =   2022-11-29T00:57:33.149   2216499379.0
RECEIVE_FREQ_1 =   2022-11-29T00:57:43.085   2216499377.7
RECEIVE_FREQ_1 =   2022-11-29T00:57:53.107   2216499376.6
RECEIVE_FREQ_1 =   2022-11-29T00:58:03.130   2216499375.2
RECEIVE_FREQ_1 =   2022-11-29T00:58:13.152   2216499374.0
RECEIVE_FREQ_1 =   2022-11-29T00:58:23.088   2216499372.8
RECEIVE_FREQ_1 =   2022-11-29T00:58:33.110   2216499371.4
RECEIVE_FREQ_1 =   2022-11-29T00:58:43.133   2216499369.8
RECEIVE_FREQ_1 =   2022-11-29T00:58:53.155   2216499369.2
RECEIVE_FREQ_1 =   2022-11-29T00:59:03.091   2216499367.7
RECEIVE_FREQ_1 =   2022-11-29T00:59:13.114   2216499366.3
RECEIVE_FREQ_1 =   2022-11-29T00:59:23.222   2216499365.3
RECEIVE_FREQ_1 =   2022-11-29T00:59:33.158   2216499363.8
RECEIVE_FREQ_1 =   2022-11-29T00:59:43.094   2216499362.7
RECEIVE_FREQ_1 =   2022-11-29T00:59:53.117   2216499361.2
RECEIVE_FREQ_1 =   2022-11-29T01:00:03.139   2216499360.4
RECEIVE_FREQ_1 =   2022-11-29T01:00:13.162   2216499358.6
RECEIVE_FREQ_1 =   2022-11-29T01:00:23.184   2216499357.3
RECEIVE_FREQ_1 =   2022-11-29T01:00:33.120   2216499356.4
RECEIVE_FREQ_1 =   2022-11-29T01:00:43.142   2216499355.0
RECEIVE_FREQ_1 =   2022-11-29T01:00:53.165   2216499353.3
RECEIVE_FREQ_1 =   2022-11-29T01:01:13.123   2216499350.9
RECEIVE_FREQ_1 =   2022-11-29T01:01:23.146   2216499349.5
RECEIVE_FREQ_1 =   2022-11-29T01:01:33.168   2216499348.6
RECEIVE_FREQ_1 =   2022-11-29T01:01:43.104   2216499346.7
RECEIVE_FREQ_1 =   2022-11-29T01:02:13.171   2216499343.2
RECEIVE_FREQ_1 =   2022-11-29T01:02:23.194   2216499341.7
RECEIVE_FREQ_1 =   2022-11-29T01:02:33.130   2216499340.7
RECEIVE_FREQ_1 =   2022-11-29T01:02:43.152   2216499339.0
RECEIVE_FREQ_1 =   2022-11-29T01:02:53.174   2216499337.8
RECEIVE_FREQ_1 =   2022-11-29T01:03:03.110   2216499336.5
RECEIVE_FREQ_1 =   2022-11-29T01:03:13.133   2216499335.4
RECEIVE_FREQ_1 =   2022-11-29T01:03:23.155   2216499333.9
RECEIVE_FREQ_1 =   2022-11-29T01:03:33.178   2216499332.9
RECEIVE_FREQ_1 =   2022-11-29T01:03:43.114   2216499331.2
RECEIVE_FREQ_1 =   2022-11-29T01:03:53.136   2216499330.3
RECEIVE_FREQ_1 =   2022-11-29T01:04:03.158   2216499328.7
RECEIVE_FREQ_1 =   2022-11-29T01:04:13.181   2216499327.6
RECEIVE_FREQ_1 =   2022-11-29T01:04:23.117   2216499326.4
RECEIVE_FREQ_1 =   2022-11-29T01:04:33.139   2216499324.9
RECEIVE_FREQ_1 =   2022-11-29T01:04:43.162   2216499323.3
RECEIVE_FREQ_1 =   2022-11-29T01:04:53.098   2216499322.0
RECEIVE_FREQ_1 =   2022-11-29T01:05:03.120   2216499321.1
RECEIVE_FREQ_1 =   2022-11-29T01:05:13.142   2216499319.5
RECEIVE_FREQ_1 =   2022-11-29T01:05:23.165   2216499318.6
RECEIVE_FREQ_1 =   2022-11-29T01:05:33.187   2216499316.9
RECEIVE_FREQ_1 =   2022-11-29T01:05:43.123   2216499315.9
RECEIVE_FREQ_1 =   2022-11-29T01:05:53.146   2216499314.2
RECEIVE_FREQ_1 =   2022-11-29T01:06:03.168   2216499313.3
RECEIVE_FREQ_1 =   2022-11-29T01:06:13.104   2216499311.5
RECEIVE_FREQ_1 =   2022-11-29T01:06:23.126   2216499310.1
RECEIVE_FREQ_1 =   2022-11-29T01:06:33.149   2216499309.1
RECEIVE_FREQ_1 =   2022-11-29T01:06:43.171   2216499307.7
RECEIVE_FREQ_1 =   2022-11-29T01:06:53.107   2216499306.6
RECEIVE_FREQ_1 =   2022-11-29T01:07:03.130   2216499304.7
RECEIVE_FREQ_1 =   2022-11-29T01:07:13.152   2216499303.3
RECEIVE_FREQ_1 =   2022-11-29T01:07:33.110   2216499300.7
RECEIVE_FREQ_1 =   2022-11-29T01:07:43.133   2216499299.8
RECEIVE_FREQ_1 =   2022-11-29T01:07:53.155   2216499297.9
RECEIVE_FREQ_1 =   2022-11-29T01:08:03.178   2216499297.0
RECEIVE_FREQ_1 =   2022-11-29T01:08:13.114   2216499295.6
RECEIVE_FREQ_1 =   2022-11-29T01:21:13.133   2216499192.9
RECEIVE_FREQ_1 =   2022-11-29T01:21:23.155   2216499191.6
RECEIVE_FREQ_1 =   2022-11-29T01:21:33.178   2216499189.9
RECEIVE_FREQ_1 =   2022-11-29T01:21:43.200   2216499189.1
RECEIVE_FREQ_1 =   2022-11-29T01:21:53.136   2216499187.4
RECEIVE_FREQ_1 =   2022-11-29T01:22:03.158   2216499186.3
RECEIVE_FREQ_1 =   2022-11-29T01:22:13.094   2216499184.8
RECEIVE_FREQ_1 =   2022-11-29T01:22:23.117   2216499183.5
RECEIVE_FREQ_1 =   2022-11-29T01:22:33.139   2216499182.6
RECEIVE_FREQ_1 =   2022-11-29T01:22:43.162   2216499181.6
RECEIVE_FREQ_1 =   2022-11-29T01:22:53.098   2216499179.9
RECEIVE_FREQ_1 =   2022-11-29T01:23:03.206   2216499178.4
RECEIVE_FREQ_1 =   2022-11-29T01:23:13.142   2216499177.0
RECEIVE_FREQ_1 =   2022-11-29T01:23:23.165   2216499175.9
RECEIVE_FREQ_1 =   2022-11-29T01:23:33.101   2216499174.5
RECEIVE_FREQ_1 =   2022-11-29T01:23:43.123   2216499173.2
RECEIVE_FREQ_1 =   2022-11-29T01:23:43.123   2216499173.2
RECEIVE_FREQ_1 =   2022-11-29T01:23:53.146   2216499171.7
RECEIVE_FREQ_1 =   2022-11-29T01:24:03.168   2216499170.8
RECEIVE_FREQ_1 =   2022-11-29T01:24:13.104   2216499169.4
RECEIVE_FREQ_1 =   2022-11-29T01:24:23.126   2216499168.3
RECEIVE_FREQ_1 =   2022-11-29T01:24:33.149   2216499166.8
RECEIVE_FREQ_1 =   2022-11-29T01:24:43.171   2216499165.3
RECEIVE_FREQ_1 =   2022-11-29T01:24:53.107   2216499164.0
RECEIVE_FREQ_1 =   2022-11-29T01:25:03.130   2216499162.7
RECEIVE_FREQ_1 =   2022-11-29T01:25:13.152   2216499161.7
RECEIVE_FREQ_1 =   2022-11-29T01:25:23.174   2216499160.4
RECEIVE_FREQ_1 =   2022-11-29T01:25:33.197   2216499158.8
RECEIVE_FREQ_1 =   2022-11-29T01:25:43.133   2216499157.6
RECEIVE_FREQ_1 =   2022-11-29T01:25:53.155   2216499156.0
RECEIVE_FREQ_1 =   2022-11-29T01:26:03.178   2216499154.9
RECEIVE_FREQ_1 =   2022-11-29T01:26:13.114   2216499153.7
RECEIVE_FREQ_1 =   2022-11-29T01:26:23.136   2216499152.0
RECEIVE_FREQ_1 =   2022-11-29T01:26:33.158   2216499150.9
RECEIVE_FREQ_1 =   2022-11-29T01:26:43.181   2216499149.3
RECEIVE_FREQ_1 =   2022-11-29T01:26:53.203   2216499148.4
RECEIVE_FREQ_1 =   2022-11-29T01:27:03.139   2216499146.7
RECEIVE_FREQ_1 =   2022-11-29T01:27:13.162   2216499145.6
RECEIVE_FREQ_1 =   2022-11-29T01:27:23.184   2216499144.1
RECEIVE_FREQ_1 =   2022-11-29T01:27:33.120   2216499143.2
RECEIVE_FREQ_1 =   2022-11-29T01:27:43.142   2216499141.6
RECEIVE_FREQ_1 =   2022-11-29T01:27:53.165   2216499140.0
RECEIVE_FREQ_1 =   2022-11-29T01:28:03.187   2216499138.8
RECEIVE_FREQ_1 =   2022-11-29T01:28:13.123   2216499137.6
RECEIVE_FREQ_1 =   2022-11-29T01:28:23.146   2216499136.2
RECEIVE_FREQ_1 =   2022-11-29T01:28:33.168   2216499134.9
RECEIVE_FREQ_1 =   2022-11-29T01:28:43.104   2216499133.5
RECEIVE_FREQ_1 =   2022-11-29T01:28:53.126   2216499132.2
RECEIVE_FREQ_1 =   2022-11-29T01:29:03.149   2216499130.7
RECEIVE_FREQ_1 =   2022-11-29T01:29:13.171   2216499129.0
RECEIVE_FREQ_1 =   2022-11-29T01:29:23.107   2216499127.8
RECEIVE_FREQ_1 =   2022-11-29T01:29:33.130   2216499126.7
RECEIVE_FREQ_1 =   2022-11-29T01:29:43.152   2216499125.2
RECEIVE_FREQ_1 =   2022-11-29T01:29:53.174   2216499123.8
RECEIVE_FREQ_1 =   2022-11-29T01:30:03.110   2216499122.6
RECEIVE_FREQ_1 =   2022-11-29T01:30:13.219   2216499121.0
RECEIVE_FREQ_1 =   2022-11-29T01:30:23.155   2216499119.9
RECEIVE_FREQ_1 =   2022-11-29T01:30:33.178   2216499118.1
RECEIVE_FREQ_1 =   2022-11-29T01:30:43.114   2216499117.5
RECEIVE_FREQ_1 =   2022-11-29T01:30:53.136   2216499115.9
RECEIVE_FREQ_1 =   2022-11-29T01:31:03.158   2216499114.5
RECEIVE_FREQ_1 =   2022-11-29T01:31:13.181   2216499113.2
RECEIVE_FREQ_1 =   2022-11-29T01:31:23.117   2216499111.4
RECEIVE_FREQ_1 =   2022-11-29T01:31:33.139   2216499110.5
RECEIVE_FREQ_1 =   2022-11-29T01:31:43.162   2216499109.3
RECEIVE_FREQ_1 =   2022-11-29T01:31:53.184   2216499107.9
RECEIVE_FREQ_1 =   2022-11-29T01:32:03.120   2216499106.2
RECEIVE_FREQ_1 =   2022-11-29T01:32:13.142   2216499104.7
RECEIVE_FREQ_1 =   2022-11-29T01:32:23.165   2216499103.2
RECEIVE_FREQ_1 =   2022-11-29T01:32:33.187   2216499102.4
RECEIVE_FREQ_1 =   2022-11-29T01:32:43.210   2216499100.6
RECEIVE_FREQ_1 =   2022-11-29T01:32:53.146   2216499099.5
RECEIVE_FREQ_1 =   2022-11-29T01:33:03.168   2216499098.0
RECEIVE_FREQ_1 =   2022-11-29T01:33:13.190   2216499096.8
RECEIVE_FREQ_1 =   2022-11-29T01:33:23.126   2216499095.0
RECEIVE_FREQ_1 =   2022-11-29T01:33:33.149   2216499093.6
RECEIVE_FREQ_1 =   2022-11-29T01:33:43.171   2216499092.6
RECEIVE_FREQ_1 =   2022-11-29T01:33:43.171   2216499092.6
RECEIVE_FREQ_1 =   2022-11-29T01:33:53.194   2216499091.4
RECEIVE_FREQ_1 =   2022-11-29T01:34:03.216   2216499089.8
RECEIVE_FREQ_1 =   2022-11-29T01:34:13.152   2216499088.9
RECEIVE_FREQ_1 =   2022-11-29T01:34:23.174   2216499087.6
RECEIVE_FREQ_1 =   2022-11-29T01:34:33.110   2216499086.1
RECEIVE_FREQ_1 =   2022-11-29T01:34:43.133   2216499085.0
RECEIVE_FREQ_1 =   2022-11-29T01:34:53.155   2216499083.9
RECEIVE_FREQ_1 =   2022-11-29T01:35:03.178   2216499082.5
RECEIVE_FREQ_1 =   2022-11-29T01:35:13.114   2216499080.9
RECEIVE_FREQ_1 =   2022-11-29T01:35:23.136   2216499080.3
RECEIVE_FREQ_1 =   2022-11-29T01:35:33.158   2216499079.1
RECEIVE_FREQ_1 =   2022-11-29T01:35:43.094   2216499077.4
RECEIVE_FREQ_1 =   2022-11-29T01:35:53.117   2216499076.3
RECEIVE_FREQ_1 =   2022-11-29T01:36:03.139   2216499075.1
RECEIVE_FREQ_1 =   2022-11-29T01:36:13.162   2216499073.9
RECEIVE_FREQ_1 =   2022-11-29T01:36:33.120   2216499071.0
RECEIVE_FREQ_1 =   2022-11-29T01:36:43.142   2216499070.0
RECEIVE_FREQ_1 =   2022-11-29T01:36:53.165   2216499068.9
RECEIVE_FREQ_1 =   2022-11-29T01:37:03.101   2216499067.3
RECEIVE_FREQ_1 =   2022-11-29T01:37:13.123   2216499066.1
RECEIVE_FREQ_1 =   2022-11-29T01:37:23.146   2216499065.3
RECEIVE_FREQ_1 =   2022-11-29T01:37:33.168   2216499063.4
RECEIVE_FREQ_1 =   2022-11-29T01:37:43.104   2216499062.5
RECEIVE_FREQ_1 =   2022-11-29T01:37:53.126   2216499061.4
RECEIVE_FREQ_1 =   2022-11-29T01:38:13.171   2216499058.6
RECEIVE_FREQ_1 =   2022-11-29T01:38:33.130   2216499056.3
RECEIVE_FREQ_1 =   2022-11-29T01:38:43.152   2216499054.8
RECEIVE_FREQ_1 =   2022-11-29T01:38:53.174   2216499053.4
RECEIVE_FREQ_1 =   2022-11-29T01:39:03.110   2216499052.5
RECEIVE_FREQ_1 =   2022-11-29T01:39:13.133   2216499051.1
RECEIVE_FREQ_1 =   2022-11-29T01:39:23.155   2216499049.6
RECEIVE_FREQ_1 =   2022-11-29T01:39:33.091   2216499048.8
RECEIVE_FREQ_1 =   2022-11-29T01:39:43.114   2216499047.1
RECEIVE_FREQ_1 =   2022-11-29T01:39:53.136   2216499046.1
RECEIVE_FREQ_1 =   2022-11-29T01:40:03.158   2216499045.0
RECEIVE_FREQ_1 =   2022-11-29T01:40:13.094   2216499043.5
RECEIVE_FREQ_1 =   2022-11-28T22:05:23.078   2216500606.055
RECEIVE_FREQ_1 =   2022-11-28T22:05:33.101   2216500605.155
RECEIVE_FREQ_1 =   2022-11-28T22:05:43.123   2216500604.255
RECEIVE_FREQ_1 =   2022-11-28T22:06:33.149   2216500599.755
RECEIVE_FREQ_1 =   2022-11-28T22:06:53.107   2216500597.855
RECEIVE_FREQ_1 =   2022-11-28T22:07:03.130   2216500596.955
RECEIVE_FREQ_1 =   2022-11-28T22:07:13.152   2216500595.955
RECEIVE_FREQ_1 =   2022-11-28T22:07:23.088   2216500594.955
RECEIVE_FREQ_1 =   2022-11-28T22:07:53.069   2216500592.155
RECEIVE_FREQ_1 =   2022-11-28T22:08:13.114   2216500590.455
RECEIVE_FREQ_1 =   2022-11-28T22:08:43.094   2216500587.655
RECEIVE_FREQ_1 =   2022-11-28T22:08:53.117   2216500586.555
RECEIVE_FREQ_1 =   2022-11-28T22:09:03.139   2216500585.755
RECEIVE_FREQ_1 =   2022-11-28T22:09:23.098   2216500583.655
RECEIVE_FREQ_1 =   2022-11-28T22:09:53.078   2216500580.655
RECEIVE_FREQ_1 =   2022-11-28T22:10:13.123   2216500579.055
RECEIVE_FREQ_1 =   2022-11-28T22:10:23.146   2216500577.655
RECEIVE_FREQ_1 =   2022-11-28T22:10:33.168   2216500576.855
RECEIVE_FREQ_1 =   2022-11-28T22:10:53.126   2216500575.055
RECEIVE_FREQ_1 =   2022-11-28T22:11:03.149   2216500574.155
RECEIVE_FREQ_1 =   2022-11-28T22:11:13.085   2216500573.455
RECEIVE_FREQ_1 =   2022-11-28T22:11:23.107   2216500572.155
RECEIVE_FREQ_1 =   2022-11-28T22:11:33.130   2216500571.355
RECEIVE_FREQ_1 =   2022-11-28T22:11:43.152   2216500570.255
RECEIVE_FREQ_1 =   2022-11-28T22:11:53.088   2216500569.255
RECEIVE_FREQ_1 =   2022-11-28T22:12:03.110   2216500568.455
RECEIVE_FREQ_1 =   2022-11-28T22:12:13.133   2216500567.155
RECEIVE_FREQ_1 =   2022-11-28T22:12:23.155   2216500566.555
RECEIVE_FREQ_1 =   2022-11-28T22:12:33.091   2216500565.455
RECEIVE_FREQ_1 =   2022-11-28T22:12:43.114   2216500564.655
RECEIVE_FREQ_1 =   2022-11-28T22:12:53.136   2216500563.655
RECEIVE_FREQ_1 =   2022-11-28T22:13:13.094   2216500561.555
RECEIVE_FREQ_1 =   2022-11-28T22:13:53.098   2216500557.555
RECEIVE_FREQ_1 =   2022-11-28T22:14:03.120   2216500556.755
RECEIVE_FREQ_1 =   2022-11-28T22:14:13.142   2216500555.855
RECEIVE_FREQ_1 =   2022-11-28T22:14:43.123   2216500552.355
RECEIVE_FREQ_1 =   2022-11-28T22:14:53.146   2216500551.555
RECEIVE_FREQ_1 =   2022-11-28T22:15:03.082   2216500550.555
RECEIVE_FREQ_1 =   2022-11-28T22:15:23.126   2216500548.855
RECEIVE_FREQ_1 =   2022-11-28T22:15:33.149   2216500547.655
RECEIVE_FREQ_1 =   2022-11-28T22:15:43.085   2216500546.455
RECEIVE_FREQ_1 =   2022-11-28T22:15:53.107   2216500545.555
RECEIVE_FREQ_1 =   2022-11-28T22:16:03.130   2216500544.655
RECEIVE_FREQ_1 =   2022-11-28T22:16:13.152   2216500543.455
RECEIVE_FREQ_1 =   2022-11-28T22:16:23.088   2216500542.555
RECEIVE_FREQ_1 =   2022-11-28T22:16:33.110   2216500541.755
RECEIVE_FREQ_1 =   2022-11-28T22:16:43.133   2216500540.755
RECEIVE_FREQ_1 =   2022-11-28T22:16:53.069   2216500539.455
RECEIVE_FREQ_1 =   2022-11-28T22:17:03.091   2216500538.555
RECEIVE_FREQ_1 =   2022-11-28T22:17:13.114   2216500537.555
RECEIVE_FREQ_1 =   2022-11-28T22:17:23.136   2216500536.355
RECEIVE_FREQ_1 =   2022-11-28T22:17:33.158   2216500535.455
RECEIVE_FREQ_1 =   2022-11-28T22:17:43.094   2216500534.355
RECEIVE_FREQ_1 =   2022-11-28T22:17:53.117   2216500533.755
RECEIVE_FREQ_1 =   2022-11-28T22:18:03.139   2216500532.455
RECEIVE_FREQ_1 =   2022-11-28T22:18:13.162   2216500531.655
RECEIVE_FREQ_1 =   2022-11-28T22:18:23.098   2216500530.455
RECEIVE_FREQ_1 =   2022-11-28T22:18:33.120   2216500529.455
RECEIVE_FREQ_1 =   2022-11-28T22:18:43.142   2216500528.455
RECEIVE_FREQ_1 =   2022-11-28T22:18:53.078   2216500527.455
RECEIVE_FREQ_1 =   2022-11-28T22:19:03.101   2216500526.455
RECEIVE_FREQ_1 =   2022-11-28T22:19:13.123   2216500525.255
RECEIVE_FREQ_1 =   2022-11-28T22:19:23.146   2216500524.155
RECEIVE_FREQ_1 =   2022-11-28T22:19:33.082   2216500523.055
RECEIVE_FREQ_1 =   2022-11-28T22:19:43.104   2216500522.255
RECEIVE_FREQ_1 =   2022-11-28T22:19:53.126   2216500520.955
RECEIVE_FREQ_1 =   2022-11-28T22:20:03.149   2216500520.055
RECEIVE_FREQ_1 =   2022-11-28T22:20:13.085   2216500519.055
RECEIVE_FREQ_1 =   2022-11-28T22:20:23.107   2216500518.155
RECEIVE_FREQ_1 =   2022-11-28T22:20:33.130   2216500517.055
RECEIVE_FREQ_1 =   2022-11-28T22:20:43.152   2216500515.955
RECEIVE_FREQ_1 =   2022-11-28T22:20:53.088   2216500515.155
RECEIVE_FREQ_1 =   2022-11-28T22:21:03.110   2216500514.055
RECEIVE_FREQ_1 =   2022-11-28T22:21:13.133   2216500512.755
RECEIVE_FREQ_1 =   2022-11-28T22:21:23.069   2216500511.655
RECEIVE_FREQ_1 =   2022-11-28T22:21:33.091   2216500510.855
RECEIVE_FREQ_1 =   2022-11-28T22:21:43.114   2216500509.855
RECEIVE_FREQ_1 =   2022-11-28T22:21:53.136   2216500508.655
RECEIVE_FREQ_1 =   2022-11-28T22:22:03.072   2216500507.855
RECEIVE_FREQ_1 =   2022-11-28T22:22:13.094   2216500506.455
RECEIVE_FREQ_1 =   2022-11-28T22:22:23.117   2216500505.855
RECEIVE_FREQ_1 =   2022-11-28T22:22:33.139   2216500504.855
RECEIVE_FREQ_1 =   2022-11-28T22:22:43.075   2216500503.955
RECEIVE_FREQ_1 =   2022-11-28T22:22:53.098   2216500502.955
RECEIVE_FREQ_1 =   2022-11-28T22:23:03.120   2216500502.055
RECEIVE_FREQ_1 =   2022-11-28T22:23:13.142   2216500501.055
RECEIVE_FREQ_1 =   2022-11-28T22:23:23.078   2216500500.055
RECEIVE_FREQ_1 =   2022-11-28T22:23:33.101   2216500498.955
RECEIVE_FREQ_1 =   2022-11-28T22:23:43.123   2216500498.155
RECEIVE_FREQ_1 =   2022-11-28T22:23:53.146   2216500497.255
RECEIVE_FREQ_1 =   2022-11-28T22:24:03.082   2216500496.355
RECEIVE_FREQ_1 =   2022-11-28T22:24:13.104   2216500495.455
RECEIVE_FREQ_1 =   2022-11-28T22:24:23.126   2216500494.555
RECEIVE_FREQ_1 =   2022-11-28T22:24:33.149   2216500493.255
RECEIVE_FREQ_1 =   2022-11-28T22:24:43.085   2216500492.255
RECEIVE_FREQ_1 =   2022-11-28T22:24:53.107   2216500491.255
RECEIVE_FREQ_1 =   2022-11-28T22:25:03.130   2216500490.555
RECEIVE_FREQ_1 =   2022-11-28T22:25:13.152   2216500489.355
RECEIVE_FREQ_1 =   2022-11-28T22:25:23.088   2216500488.755
RECEIVE_FREQ_1 =   2022-11-28T22:25:33.110   2216500487.555
RECEIVE_FREQ_1 =   2022-11-28T22:25:43.133   2216500486.755
RECEIVE_FREQ_1 =   2022-11-28T22:25:53.155   2216500485.755
RECEIVE_FREQ_1 =   2022-11-28T22:26:03.091   2216500484.555
RECEIVE_FREQ_1 =   2022-11-28T22:26:13.114   2216500483.555
RECEIVE_FREQ_1 =   2022-11-28T22:26:23.136   2216500482.455
RECEIVE_FREQ_1 =   2022-11-28T22:26:33.158   2216500481.955
RECEIVE_FREQ_1 =   2022-11-28T22:26:43.094   2216500480.755
RECEIVE_FREQ_1 =   2022-11-28T22:26:53.117   2216500479.755
RECEIVE_FREQ_1 =   2022-11-28T22:27:03.139   2216500478.755
RECEIVE_FREQ_1 =   2022-11-28T22:27:13.075   2216500477.655
RECEIVE_FREQ_1 =   2022-11-28T22:27:23.098   2216500476.655
RECEIVE_FREQ_1 =   2022-11-28T22:27:33.120   2216500475.755
RECEIVE_FREQ_1 =   2022-11-28T22:27:43.142   2216500474.755
RECEIVE_FREQ_1 =   2022-11-28T22:27:53.078   2216500473.655
RECEIVE_FREQ_1 =   2022-11-28T22:28:03.101   2216500472.855
RECEIVE_FREQ_1 =   2022-11-28T22:28:13.123   2216500471.955
RECEIVE_FREQ_1 =   2022-11-28T22:28:23.146   2216500470.955
RECEIVE_FREQ_1 =   2022-11-28T22:28:33.082   2216500469.755
RECEIVE_FREQ_1 =   2022-11-28T22:28:43.104   2216500468.755
RECEIVE_FREQ_1 =   2022-11-28T22:28:53.126   2216500468.055
RECEIVE_FREQ_1 =   2022-11-28T22:29:03.149   2216500466.955
RECEIVE_FREQ_1 =   2022-11-28T22:29:13.085   2216500465.955
RECEIVE_FREQ_1 =   2022-11-28T22:29:23.107   2216500464.955
RECEIVE_FREQ_1 =   2022-11-28T22:29:33.130   2216500463.955
RECEIVE_FREQ_1 =   2022-11-28T22:29:43.152   2216500462.955
RECEIVE_FREQ_1 =   2022-11-28T22:29:53.088   2216500461.755
RECEIVE_FREQ_1 =   2022-11-28T22:30:03.110   2216500460.955
RECEIVE_FREQ_1 =   2022-11-28T22:30:13.133   2216500459.955
RECEIVE_FREQ_1 =   2022-11-28T22:30:23.155   2216500458.755
RECEIVE_FREQ_1 =   2022-11-28T22:30:33.091   2216500457.655
RECEIVE_FREQ_1 =   2022-11-28T22:30:43.114   2216500456.655
RECEIVE_FREQ_1 =   2022-11-28T22:30:53.136   2216500455.555
RECEIVE_FREQ_1 =   2022-11-28T22:31:03.158   2216500454.855
RECEIVE_FREQ_1 =   2022-11-28T22:31:13.094   2216500453.755
RECEIVE_FREQ_1 =   2022-11-28T22:31:23.117   2216500452.955
RECEIVE_FREQ_1 =   2022-11-28T22:31:33.139   2216500451.755
RECEIVE_FREQ_1 =   2022-11-28T22:31:43.075   2216500450.255
RECEIVE_FREQ_1 =   2022-11-28T22:31:53.098   2216500449.655
RECEIVE_FREQ_1 =   2022-11-28T22:32:03.120   2216500448.755
RECEIVE_FREQ_1 =   2022-11-28T22:32:13.142   2216500447.455
RECEIVE_FREQ_1 =   2022-11-28T22:32:23.078   2216500446.755
RECEIVE_FREQ_1 =   2022-11-28T22:32:33.101   2216500445.355
RECEIVE_FREQ_1 =   2022-11-28T22:32:43.123   2216500444.555
RECEIVE_FREQ_1 =   2022-11-28T22:32:53.146   2216500443.255
RECEIVE_FREQ_1 =   2022-11-28T22:33:03.082   2216500442.555
RECEIVE_FREQ_1 =   2022-11-28T22:33:13.104   2216500441.355
RECEIVE_FREQ_1 =   2022-11-28T22:33:23.126   2216500440.155
RECEIVE_FREQ_1 =   2022-11-28T22:33:33.149   2216500439.255
RECEIVE_FREQ_1 =   2022-11-28T22:33:43.085   2216500438.255
RECEIVE_FREQ_1 =   2022-11-28T22:33:53.107   2216500437.455
RECEIVE_FREQ_1 =   2022-11-28T22:34:03.130   2216500436.355
RECEIVE_FREQ_1 =   2022-11-28T22:34:13.152   2216500435.255
RECEIVE_FREQ_1 =   2022-11-28T22:34:23.088   2216500434.255
RECEIVE_FREQ_1 =   2022-11-28T22:34:33.110   2216500433.055
RECEIVE_FREQ_1 =   2022-11-28T22:34:43.133   2216500432.055
RECEIVE_FREQ_1 =   2022-11-28T22:34:53.155   2216500431.055
RECEIVE_FREQ_1 =   2022-11-28T22:35:03.091   2216500429.755
RECEIVE_FREQ_1 =   2022-11-28T22:35:13.114   2216500428.855
RECEIVE_FREQ_1 =   2022-11-28T22:35:23.136   2216500428.055
RECEIVE_FREQ_1 =   2022-11-28T22:35:33.158   2216500427.155
RECEIVE_FREQ_1 =   2022-11-28T22:35:43.094   2216500425.855
RECEIVE_FREQ_1 =   2022-11-28T22:35:53.117   2216500424.855
RECEIVE_FREQ_1 =   2022-11-28T22:36:03.139   2216500423.655
RECEIVE_FREQ_1 =   2022-11-28T22:36:13.075   2216500422.655
RECEIVE_FREQ_1 =   2022-11-28T22:36:23.098   2216500421.355
RECEIVE_FREQ_1 =   2022-11-28T22:36:33.120   2216500420.655
RECEIVE_FREQ_1 =   2022-11-28T22:36:43.142   2216500419.655
RECEIVE_FREQ_1 =   2022-11-28T22:36:53.078   2216500418.255
RECEIVE_FREQ_1 =   2022-11-28T22:37:03.101   2216500417.455
RECEIVE_FREQ_1 =   2022-11-28T22:37:13.123   2216500416.155
RECEIVE_FREQ_1 =   2022-11-28T22:37:23.146   2216500415.255
RECEIVE_FREQ_1 =   2022-11-28T22:37:33.082   2216500414.255
RECEIVE_FREQ_1 =   2022-11-28T22:37:43.104   2216500413.155
RECEIVE_FREQ_1 =   2022-11-28T22:37:53.126   2216500412.155
RECEIVE_FREQ_1 =   2022-11-28T22:38:03.149   2216500410.755
RECEIVE_FREQ_1 =   2022-11-28T22:38:13.085   2216500409.855
RECEIVE_FREQ_1 =   2022-11-28T22:38:23.107   2216500408.955
RECEIVE_FREQ_1 =   2022-11-28T22:38:33.130   2216500408.155
RECEIVE_FREQ_1 =   2022-11-28T22:38:43.152   2216500406.855
RECEIVE_FREQ_1 =   2022-11-28T22:38:53.088   2216500405.755
RECEIVE_FREQ_1 =   2022-11-28T22:39:03.110   2216500404.255
RECEIVE_FREQ_1 =   2022-11-28T22:39:13.133   2216500403.755
RECEIVE_FREQ_1 =   2022-11-28T22:39:23.155   2216500402.355
RECEIVE_FREQ_1 =   2022-11-28T22:39:33.091   2216500401.455
RECEIVE_FREQ_1 =   2022-11-28T22:39:43.114   2216500400.155
RECEIVE_FREQ_1 =   2022-11-28T22:39:53.136   2216500399.055
RECEIVE_FREQ_1 =   2022-11-28T22:40:03.072   2216500398.155
RECEIVE_FREQ_1 =   2022-11-28T22:40:13.094   2216500396.955
RECEIVE_FREQ_1 =   2022-11-28T22:40:23.117   2216500395.755
RECEIVE_FREQ_1 =   2022-11-28T22:40:33.139   2216500394.655
RECEIVE_FREQ_1 =   2022-11-28T22:40:43.075   2216500393.555
RECEIVE_FREQ_1 =   2022-11-28T22:40:53.098   2216500392.655
RECEIVE_FREQ_1 =   2022-11-28T22:41:03.120   2216500391.355
RECEIVE_FREQ_1 =   2022-11-28T22:41:13.142   2216500390.455
RECEIVE_FREQ_1 =   2022-11-28T22:41:23.078   2216500389.355
RECEIVE_FREQ_1 =   2022-11-28T22:41:33.101   2216500388.155
RECEIVE_FREQ_1 =   2022-11-28T22:41:43.123   2216500387.155
RECEIVE_FREQ_1 =   2022-11-28T22:41:53.146   2216500386.055
RECEIVE_FREQ_1 =   2022-11-28T22:42:03.082   2216500384.755
RECEIVE_FREQ_1 =   2022-11-28T22:42:13.104   2216500383.855
RECEIVE_FREQ_1 =   2022-11-28T22:42:23.126   2216500382.855
RECEIVE_FREQ_1 =   2022-11-28T22:42:33.149   2216500381.455
RECEIVE_FREQ_1 =   2022-11-28T22:42:43.085   2216500380.455
RECEIVE_FREQ_1 =   2022-11-28T22:42:53.107   2216500379.355
RECEIVE_FREQ_1 =   2022-11-28T22:43:03.130   2216500378.255
RECEIVE_FREQ_1 =   2022-11-28T22:43:13.152   2216500377.155
RECEIVE_FREQ_1 =   2022-11-28T22:43:23.088   2216500375.955
RECEIVE_FREQ_1 =   2022-11-28T22:43:33.110   2216500375.355
RECEIVE_FREQ_1 =   2022-11-28T22:43:43.133   2216500373.455
RECEIVE_FREQ_1 =   2022-11-28T22:43:53.155   2216500372.855
RECEIVE_FREQ_1 =   2022-11-28T22:44:03.091   2216500371.855
RECEIVE_FREQ_1 =   2022-11-28T22:44:13.114   2216500370.555
RECEIVE_FREQ_1 =   2022-11-28T22:44:23.136   2216500369.255
RECEIVE_FREQ_1 =   2022-11-28T22:44:33.158   2216500368.355
RECEIVE_FREQ_1 =   2022-11-28T22:44:43.094   2216500367.155
RECEIVE_FREQ_1 =   2022-11-28T22:44:53.117   2216500366.455
RECEIVE_FREQ_1 =   2022-11-28T22:45:03.139   2216500365.055
RECEIVE_FREQ_1 =   2022-11-28T22:45:13.162   2216500363.755
RECEIVE_FREQ_1 =   2022-11-28T22:45:23.098   2216500362.655
RECEIVE_FREQ_1 =   2022-11-28T22:45:33.120   2216500361.655
RECEIVE_FREQ_1 =   2022-11-28T22:45:43.142   2216500360.755
RECEIVE_FREQ_1 =   2022-11-28T22:45:53.078   2216500359.255
RECEIVE_FREQ_1 =   2022-11-28T22:46:03.101   2216500358.255
RECEIVE_FREQ_1 =   2022-11-28T22:46:13.123   2216500356.855
RECEIVE_FREQ_1 =   2022-11-28T22:46:23.146   2216500355.955
RECEIVE_FREQ_1 =   2022-11-28T22:46:33.082   2216500354.555
RECEIVE_FREQ_1 =   2022-11-28T22:46:43.104   2216500353.855
RECEIVE_FREQ_1 =   2022-11-28T22:46:53.126   2216500352.555
RECEIVE_FREQ_1 =   2022-11-28T22:47:03.149   2216500351.655
RECEIVE_FREQ_1 =   2022-11-28T22:47:13.085   2216500350.155
RECEIVE_FREQ_1 =   2022-11-28T22:47:23.107   2216500349.255
RECEIVE_FREQ_1 =   2022-11-28T22:47:33.130   2216500348.255
RECEIVE_FREQ_1 =   2022-11-28T22:47:43.152   2216500346.755
RECEIVE_FREQ_1 =   2022-11-28T22:47:53.088   2216500345.855
RECEIVE_FREQ_1 =   2022-11-28T22:48:03.110   2216500344.555
RECEIVE_FREQ_1 =   2022-11-28T22:48:13.133   2216500343.855
RECEIVE_FREQ_1 =   2022-11-28T22:48:23.155   2216500342.255
RECEIVE_FREQ_1 =   2022-11-28T22:48:33.091   2216500341.455
RECEIVE_FREQ_1 =   2022-11-28T22:48:43.114   2216500340.055
RECEIVE_FREQ_1 =   2022-11-28T22:48:53.136   2216500338.955
RECEIVE_FREQ_1 =   2022-11-28T22:49:03.158   2216500337.655
RECEIVE_FREQ_1 =   2022-11-28T22:49:13.094   2216500336.655
RECEIVE_FREQ_1 =   2022-11-28T22:49:23.117   2216500335.555
RECEIVE_FREQ_1 =   2022-11-28T22:49:33.139   2216500334.555
RECEIVE_FREQ_1 =   2022-11-28T22:49:53.098   2216500332.255
RECEIVE_FREQ_1 =   2022-11-28T22:50:03.120   2216500331.455
RECEIVE_FREQ_1 =   2022-11-28T22:50:13.142   2216500330.055
RECEIVE_FREQ_1 =   2022-11-28T22:50:23.165   2216500329.055
RECEIVE_FREQ_1 =   2022-11-28T22:50:33.101   2216500328.355
RECEIVE_FREQ_1 =   2022-11-28T22:50:43.123   2216500326.955
RECEIVE_FREQ_1 =   2022-11-28T22:51:03.082   2216500324.855
RECEIVE_FREQ_1 =   2022-11-28T22:51:03.082   2216500324.855
RECEIVE_FREQ_1 =   2022-11-28T22:51:13.104   2216500323.755
RECEIVE_FREQ_1 =   2022-11-28T22:51:23.126   2216500323.055
RECEIVE_FREQ_1 =   2022-11-28T22:51:33.149   2216500322.155
RECEIVE_FREQ_1 =   2022-11-28T22:51:43.085   2216500320.955
RECEIVE_FREQ_1 =   2022-11-28T22:51:53.107   2216500319.655
RECEIVE_FREQ_1 =   2022-11-28T22:52:03.130   2216500318.755
RECEIVE_FREQ_1 =   2022-11-28T22:52:13.152   2216500317.855
RECEIVE_FREQ_1 =   2022-11-28T22:52:23.088   2216500316.355
RECEIVE_FREQ_1 =   2022-11-28T22:52:33.110   2216500315.455
RECEIVE_FREQ_1 =   2022-11-28T22:52:43.133   2216500314.555
RECEIVE_FREQ_1 =   2022-11-28T22:52:53.155   2216500313.355
RECEIVE_FREQ_1 =   2022-11-28T22:53:03.091   2216500312.155
RECEIVE_FREQ_1 =   2022-11-28T22:53:13.114   2216500311.055
RECEIVE_FREQ_1 =   2022-11-28T22:53:23.136   2216500310.155
RECEIVE_FREQ_1 =   2022-11-28T22:53:33.158   2216500308.855
RECEIVE_FREQ_1 =   2022-11-28T22:53:43.094   2216500307.755
RECEIVE_FREQ_1 =   2022-11-28T22:53:53.117   2216500306.855
RECEIVE_FREQ_1 =   2022-11-28T22:54:03.139   2216500305.855
RECEIVE_FREQ_1 =   2022-11-28T22:54:13.075   2216500304.755
RECEIVE_FREQ_1 =   2022-11-28T22:54:23.098   2216500303.755
RECEIVE_FREQ_1 =   2022-11-28T22:54:33.120   2216500302.455
RECEIVE_FREQ_1 =   2022-11-28T22:54:43.142   2216500301.655
RECEIVE_FREQ_1 =   2022-11-28T22:54:53.078   2216500300.355
RECEIVE_FREQ_1 =   2022-11-28T22:55:03.101   2216500299.155
RECEIVE_FREQ_1 =   2022-11-28T22:55:13.123   2216500298.255
RECEIVE_FREQ_1 =   2022-11-28T22:55:23.146   2216500297.155
RECEIVE_FREQ_1 =   2022-11-28T22:55:33.082   2216500296.155
RECEIVE_FREQ_1 =   2022-11-28T22:55:43.104   2216500294.955
RECEIVE_FREQ_1 =   2022-11-28T22:55:53.126   2216500293.855
RECEIVE_FREQ_1 =   2022-11-28T22:56:03.149   2216500292.755
RECEIVE_FREQ_1 =   2022-11-28T22:56:13.085   2216500291.755
RECEIVE_FREQ_1 =   2022-11-28T22:56:23.107   2216500290.655
RECEIVE_FREQ_1 =   2022-11-28T22:56:33.130   2216500289.355
RECEIVE_FREQ_1 =   2022-11-28T22:56:43.152   2216500288.255
RECEIVE_FREQ_1 =   2022-11-28T22:56:53.088   2216500286.855
RECEIVE_FREQ_1 =   2022-11-28T22:57:03.110   2216500286.255
RECEIVE_FREQ_1 =   2022-11-28T22:57:13.133   2216500285.155
RECEIVE_FREQ_1 =   2022-11-28T22:57:23.155   2216500283.955
RECEIVE_FREQ_1 =   2022-11-28T22:57:33.091   2216500282.855
RECEIVE_FREQ_1 =   2022-11-28T22:57:43.114   2216500281.755
RECEIVE_FREQ_1 =   2022-11-28T22:57:53.136   2216500280.555
RECEIVE_FREQ_1 =   2022-11-28T22:58:03.158   2216500279.255
RECEIVE_FREQ_1 =   2022-11-28T22:58:13.094   2216500278.755
RECEIVE_FREQ_1 =   2022-11-28T22:58:23.117   2216500277.355
RECEIVE_FREQ_1 =   2022-11-28T22:58:33.139   2216500276.155
RECEIVE_FREQ_1 =   2022-11-28T22:58:43.162   2216500275.455
RECEIVE_FREQ_1 =   2022-11-28T22:58:53.098   2216500273.855
RECEIVE_FREQ_1 =   2022-11-28T22:59:03.120   2216500273.055
RECEIVE_FREQ_1 =   2022-11-28T22:59:13.142   2216500272.055
RECEIVE_FREQ_1 =   2022-11-28T22:59:23.165   2216500270.855
RECEIVE_FREQ_1 =   2022-11-28T22:59:33.101   2216500269.555
RECEIVE_FREQ_1 =   2022-11-28T22:59:43.123   2216500268.855
RECEIVE_FREQ_1 =   2022-11-28T22:59:53.146   2216500267.655
RECEIVE_FREQ_1 =   2022-11-28T23:00:03.082   2216500266.055
RECEIVE_FREQ_1 =   2022-11-28T23:00:13.104   2216500264.855
RECEIVE_FREQ_1 =   2022-11-28T23:00:23.126   2216500264.055
RECEIVE_FREQ_1 =   2022-11-28T23:00:33.149   2216500262.855
RECEIVE_FREQ_1 =   2022-11-28T23:00:43.085   2216500261.655
RECEIVE_FREQ_1 =   2022-11-28T23:00:53.107   2216500260.655
RECEIVE_FREQ_1 =   2022-11-28T23:01:03.130   2216500259.455
RECEIVE_FREQ_1 =   2022-11-28T23:01:13.152   2216500258.155
RECEIVE_FREQ_1 =   2022-11-28T23:01:23.088   2216500257.155
RECEIVE_FREQ_1 =   2022-11-28T23:01:33.110   2216500256.255
RECEIVE_FREQ_1 =   2022-11-28T23:01:43.133   2216500254.955
RECEIVE_FREQ_1 =   2022-11-28T23:01:53.069   2216500253.855
RECEIVE_FREQ_1 =   2022-11-28T23:02:03.091   2216500252.855
RECEIVE_FREQ_1 =   2022-11-28T23:02:13.114   2216500251.555
RECEIVE_FREQ_1 =   2022-11-28T23:02:23.136   2216500250.055
RECEIVE_FREQ_1 =   2022-11-28T23:02:33.072   2216500249.355
RECEIVE_FREQ_1 =   2022-11-28T23:02:43.094   2216500248.355
RECEIVE_FREQ_1 =   2022-11-28T23:02:53.117   2216500247.155
RECEIVE_FREQ_1 =   2022-11-28T23:03:03.139   2216500245.755
RECEIVE_FREQ_1 =   2022-11-28T23:03:13.162   2216500244.655
RECEIVE_FREQ_1 =   2022-11-28T23:03:23.098   2216500243.755
RECEIVE_FREQ_1 =   2022-11-28T23:03:33.120   2216500242.155
RECEIVE_FREQ_1 =   2022-11-28T23:03:43.142   2216500241.655
RECEIVE_FREQ_1 =   2022-11-28T23:03:53.078   2216500240.355
RECEIVE_FREQ_1 =   2022-11-28T23:04:03.101   2216500239.055
RECEIVE_FREQ_1 =   2022-11-28T23:04:13.123   2216500237.855
RECEIVE_FREQ_1 =   2022-11-28T23:04:23.146   2216500236.755
RECEIVE_FREQ_1 =   2022-11-28T23:04:33.082   2216500235.855
RECEIVE_FREQ_1 =   2022-11-28T23:04:43.104   2216500234.055
RECEIVE_FREQ_1 =   2022-11-28T23:04:53.126   2216500233.555
RECEIVE_FREQ_1 =   2022-11-28T23:05:03.149   2216500232.355
RECEIVE_FREQ_1 =   2022-11-28T23:05:13.085   2216500231.055
RECEIVE_FREQ_1 =   2022-11-28T23:05:23.107   2216500230.055
RECEIVE_FREQ_1 =   2022-11-28T23:05:33.130   2216500228.655
RECEIVE_FREQ_1 =   2022-11-28T23:05:43.152   2216500227.355
RECEIVE_FREQ_1 =   2022-11-28T23:05:53.088   2216500226.355
RECEIVE_FREQ_1 =   2022-11-28T23:06:03.110   2216500225.555
RECEIVE_FREQ_1 =   2022-11-28T23:06:13.133   2216500223.955
RECEIVE_FREQ_1 =   2022-11-28T23:06:23.155   2216500222.855
RECEIVE_FREQ_1 =   2022-11-28T23:06:33.091   2216500221.955
RECEIVE_FREQ_1 =   2022-11-28T23:06:43.114   2216500220.555
RECEIVE_FREQ_1 =   2022-11-28T23:06:53.136   2216500219.355
RECEIVE_FREQ_1 =   2022-11-28T23:07:03.072   2216500218.455
RECEIVE_FREQ_1 =   2022-11-28T23:07:13.094   2216500217.255
RECEIVE_FREQ_1 =   2022-11-28T23:07:23.117   2216500215.855
RECEIVE_FREQ_1 =   2022-11-28T23:07:33.139   2216500214.655
RECEIVE_FREQ_1 =   2022-11-28T23:07:43.075   2216500213.855
RECEIVE_FREQ_1 =   2022-11-28T23:07:53.098   2216500212.855
RECEIVE_FREQ_1 =   2022-11-28T23:08:03.120   2216500211.255
