nasa/2022-11-22_2022-156A_ScottTilley.tdm

CCSDS_TDM_VERS = 2.0
COMMENT TDM ARTEMIS 1 Doppler data by Scott Tilley for 2022-11-22 UTC
COMMENT Signal not demodulated, to low of SNR, centre carrier integrated in 10s by 0.1Hz bin and extracted for peak value.
CREATION_DATE = 2022-11-30T06:48:06Z
ORIGINATOR = SCOTT TILLEY

META_START
COMMENT 
COMMENT 
SYSTEM TIME = UTC
PARTICIPANT_1 = COSPAR 8049
PARTICIPANT_2 = 2022-156A
MODE = SEQUENTIAL
PATH = 2,1
INTEGRATION_INTERVAL = 10
INTEGRATION_REF = MIDDLE
FREQ_OFFSET = 0
TRANSMIT_DELAY_1 = 0
RECEIVE_DELAY_1 = 0
DATA_QUALITY = RAW
META_STOP

DATA_START
RECEIVE_FREQ_1 =   2022-11-22T16:35:55.968   2216500750.7
RECEIVE_FREQ_1 =   2022-11-22T16:36:48.586   2216500744.1
RECEIVE_FREQ_1 =   2022-11-22T16:36:59.040   2216500742.9
RECEIVE_FREQ_1 =   2022-11-22T16:37:51.658   2216500736.5
RECEIVE_FREQ_1 =   2022-11-22T16:38:02.198   2216500735.0
RECEIVE_FREQ_1 =   2022-11-22T16:38:12.653   2216500733.8
RECEIVE_FREQ_1 =   2022-11-22T16:38:23.194   2216500732.6
RECEIVE_FREQ_1 =   2022-11-22T16:38:33.648   2216500731.2
RECEIVE_FREQ_1 =   2022-11-22T16:38:44.189   2216500730.0
RECEIVE_FREQ_1 =   2022-11-22T16:38:54.730   2216500728.5
RECEIVE_FREQ_1 =   2022-11-22T16:39:05.184   2216500727.3
RECEIVE_FREQ_1 =   2022-11-22T16:39:15.725   2216500726.0
RECEIVE_FREQ_1 =   2022-11-22T16:39:36.720   2216500723.2
RECEIVE_FREQ_1 =   2022-11-22T16:39:47.261   2216500722.1
RECEIVE_FREQ_1 =   2022-11-22T16:39:57.802   2216500721.0
RECEIVE_FREQ_1 =   2022-11-22T16:40:08.342   2216500719.4
RECEIVE_FREQ_1 =   2022-11-22T16:41:00.787   2216500712.7
RECEIVE_FREQ_1 =   2022-11-22T16:41:11.328   2216500711.6
RECEIVE_FREQ_1 =   2022-11-22T16:46:21.590   2216500671.9
RECEIVE_FREQ_1 =   2022-11-22T16:46:31.958   2216500670.4
RECEIVE_FREQ_1 =   2022-11-22T16:46:42.326   2216500668.8
RECEIVE_FREQ_1 =   2022-11-22T16:46:52.781   2216500667.7
RECEIVE_FREQ_1 =   2022-11-22T16:47:23.971   2216500663.8
RECEIVE_FREQ_1 =   2022-11-22T16:47:34.426   2216500661.9
RECEIVE_FREQ_1 =   2022-11-22T16:47:55.162   2216500659.3
RECEIVE_FREQ_1 =   2022-11-22T16:48:05.443   2216500657.5
RECEIVE_FREQ_1 =   2022-11-22T16:48:15.811   2216500656.7
RECEIVE_FREQ_1 =   2022-11-22T16:48:36.547   2216500653.7
RECEIVE_FREQ_1 =   2022-11-22T16:48:47.002   2216500652.3
RECEIVE_FREQ_1 =   2022-11-22T16:49:07.910   2216500649.6
RECEIVE_FREQ_1 =   2022-11-22T16:49:18.365   2216500647.8
RECEIVE_FREQ_1 =   2022-11-22T16:49:39.274   2216500645.5
RECEIVE_FREQ_1 =   2022-11-22T16:50:00.269   2216500642.6
RECEIVE_FREQ_1 =   2022-11-22T16:50:10.723   2216500640.8
RECEIVE_FREQ_1 =   2022-11-22T16:50:21.178   2216500639.7
RECEIVE_FREQ_1 =   2022-11-22T16:50:42.086   2216500637.2
RECEIVE_FREQ_1 =   2022-11-22T16:50:52.627   2216500635.3
RECEIVE_FREQ_1 =   2022-11-22T16:51:03.082   2216500634.2
RECEIVE_FREQ_1 =   2022-11-22T16:52:05.981   2216500626.0
RECEIVE_FREQ_1 =   2022-11-22T16:52:16.435   2216500624.8
RECEIVE_FREQ_1 =   2022-11-22T16:52:37.430   2216500621.9
RECEIVE_FREQ_1 =   2022-11-22T16:52:47.885   2216500620.2
RECEIVE_FREQ_1 =   2022-11-22T16:52:58.339   2216500618.9
RECEIVE_FREQ_1 =   2022-11-22T16:53:08.794   2216500617.7
RECEIVE_FREQ_1 =   2022-11-22T16:53:19.334   2216500616.4
RECEIVE_FREQ_1 =   2022-11-22T16:53:40.330   2216500613.1
RECEIVE_FREQ_1 =   2022-11-22T16:53:50.870   2216500611.6
RECEIVE_FREQ_1 =   2022-11-22T16:54:01.325   2216500610.2
RECEIVE_FREQ_1 =   2022-11-22T16:54:11.779   2216500609.0
RECEIVE_FREQ_1 =   2022-11-22T16:54:22.320   2216500607.1
RECEIVE_FREQ_1 =   2022-11-22T16:54:43.229   2216500604.6
RECEIVE_FREQ_1 =   2022-11-22T16:54:53.683   2216500603.5
RECEIVE_FREQ_1 =   2022-11-22T16:55:04.138   2216500601.7
RECEIVE_FREQ_1 =   2022-11-22T16:55:04.138   2216500601.7
RECEIVE_FREQ_1 =   2022-11-22T16:55:14.592   2216500600.5
RECEIVE_FREQ_1 =   2022-11-22T16:55:25.046   2216500598.9
RECEIVE_FREQ_1 =   2022-11-22T16:55:35.501   2216500597.5
RECEIVE_FREQ_1 =   2022-11-22T16:55:45.955   2216500596.3
RECEIVE_FREQ_1 =   2022-11-22T16:55:56.410   2216500595.0
RECEIVE_FREQ_1 =   2022-11-22T16:56:06.950   2216500593.4
RECEIVE_FREQ_1 =   2022-11-22T16:56:17.405   2216500591.7
RECEIVE_FREQ_1 =   2022-11-22T16:56:27.859   2216500590.7
RECEIVE_FREQ_1 =   2022-11-22T16:56:38.314   2216500589.4
RECEIVE_FREQ_1 =   2022-11-22T16:56:48.854   2216500587.9
RECEIVE_FREQ_1 =   2022-11-22T16:56:59.309   2216500586.1
RECEIVE_FREQ_1 =   2022-11-22T16:57:09.850   2216500584.7
RECEIVE_FREQ_1 =   2022-11-22T16:57:20.304   2216500583.3
RECEIVE_FREQ_1 =   2022-11-22T16:57:30.758   2216500582.1
RECEIVE_FREQ_1 =   2022-11-22T16:57:41.299   2216500580.7
RECEIVE_FREQ_1 =   2022-11-22T16:57:51.754   2216500579.3
RECEIVE_FREQ_1 =   2022-11-22T16:58:02.208   2216500577.3
RECEIVE_FREQ_1 =   2022-11-22T16:58:12.662   2216500576.0
RECEIVE_FREQ_1 =   2022-11-22T16:58:23.117   2216500574.5
RECEIVE_FREQ_1 =   2022-11-22T16:58:33.571   2216500573.1
RECEIVE_FREQ_1 =   2022-11-22T16:58:44.026   2216500571.6
RECEIVE_FREQ_1 =   2022-11-22T16:58:54.480   2216500570.3
RECEIVE_FREQ_1 =   2022-11-22T16:59:04.934   2216500569.0
RECEIVE_FREQ_1 =   2022-11-22T16:59:15.389   2216500567.8
RECEIVE_FREQ_1 =   2022-11-22T16:59:36.384   2216500564.7
RECEIVE_FREQ_1 =   2022-11-22T16:59:46.838   2216500562.6
RECEIVE_FREQ_1 =   2022-11-22T16:59:57.293   2216500561.3
RECEIVE_FREQ_1 =   2022-11-22T17:00:07.747   2216500560.3
RECEIVE_FREQ_1 =   2022-11-22T17:00:18.288   2216500558.4
RECEIVE_FREQ_1 =   2022-11-22T17:00:28.742   2216500557.1
RECEIVE_FREQ_1 =   2022-11-22T17:00:39.283   2216500555.6
RECEIVE_FREQ_1 =   2022-11-22T17:00:49.738   2216500554.3
RECEIVE_FREQ_1 =   2022-11-22T17:01:00.192   2216500552.8
RECEIVE_FREQ_1 =   2022-11-22T17:01:10.733   2216500551.0
RECEIVE_FREQ_1 =   2022-11-22T17:01:21.187   2216500549.9
RECEIVE_FREQ_1 =   2022-11-22T17:01:31.642   2216500548.4
RECEIVE_FREQ_1 =   2022-11-22T17:01:42.096   2216500546.7
RECEIVE_FREQ_1 =   2022-11-22T17:01:52.550   2216500545.3
RECEIVE_FREQ_1 =   2022-11-22T17:02:03.091   2216500544.2
RECEIVE_FREQ_1 =   2022-11-22T17:02:13.546   2216500542.1
RECEIVE_FREQ_1 =   2022-11-22T17:02:24.173   2216500541.2
RECEIVE_FREQ_1 =   2022-11-22T17:02:34.714   2216500539.3
RECEIVE_FREQ_1 =   2022-11-22T17:02:45.168   2216500538.4
RECEIVE_FREQ_1 =   2022-11-22T17:02:55.622   2216500537.4
RECEIVE_FREQ_1 =   2022-11-22T17:03:06.163   2216500535.4
RECEIVE_FREQ_1 =   2022-11-22T17:03:16.618   2216500533.7
RECEIVE_FREQ_1 =   2022-11-22T17:03:27.072   2216500532.9
RECEIVE_FREQ_1 =   2022-11-22T17:03:37.613   2216500531.1
RECEIVE_FREQ_1 =   2022-11-22T17:03:48.067   2216500529.9
RECEIVE_FREQ_1 =   2022-11-22T17:03:58.522   2216500528.5
RECEIVE_FREQ_1 =   2022-11-22T17:04:09.062   2216500527.1
RECEIVE_FREQ_1 =   2022-11-22T17:04:19.517   2216500525.5
RECEIVE_FREQ_1 =   2022-11-22T17:04:29.971   2216500524.0
RECEIVE_FREQ_1 =   2022-11-22T17:04:40.512   2216500522.6
RECEIVE_FREQ_1 =   2022-11-22T17:04:51.053   2216500521.7
RECEIVE_FREQ_1 =   2022-11-22T17:05:01.507   2216500520.2
RECEIVE_FREQ_1 =   2022-11-22T17:05:12.048   2216500519.1
RECEIVE_FREQ_1 =   2022-11-22T17:05:22.502   2216500517.5
RECEIVE_FREQ_1 =   2022-11-22T17:05:33.043   2216500515.8
RECEIVE_FREQ_1 =   2022-11-22T17:05:43.584   2216500514.7
RECEIVE_FREQ_1 =   2022-11-22T17:05:54.038   2216500513.0
RECEIVE_FREQ_1 =   2022-11-22T17:06:04.579   2216500511.6
RECEIVE_FREQ_1 =   2022-11-22T17:06:15.034   2216500510.2
RECEIVE_FREQ_1 =   2022-11-22T17:06:25.488   2216500508.8
RECEIVE_FREQ_1 =   2022-11-22T17:06:36.029   2216500507.6
RECEIVE_FREQ_1 =   2022-11-22T17:06:46.483   2216500506.2
RECEIVE_FREQ_1 =   2022-11-22T17:06:57.024   2216500504.8
RECEIVE_FREQ_1 =   2022-11-22T17:07:07.478   2216500503.2
RECEIVE_FREQ_1 =   2022-11-22T17:15:09.936   2216500437.3
RECEIVE_FREQ_1 =   2022-11-22T17:15:20.477   2216500435.7
RECEIVE_FREQ_1 =   2022-11-22T17:15:41.472   2216500432.9
RECEIVE_FREQ_1 =   2022-11-22T17:16:44.458   2216500424.2
RECEIVE_FREQ_1 =   2022-11-22T17:17:05.453   2216500421.2
RECEIVE_FREQ_1 =   2022-11-22T17:17:15.907   2216500419.4
RECEIVE_FREQ_1 =   2022-11-22T17:17:26.448   2216500418.0
RECEIVE_FREQ_1 =   2022-11-22T17:17:36.902   2216500416.3
RECEIVE_FREQ_1 =   2022-11-22T17:17:47.357   2216500415.3
RECEIVE_FREQ_1 =   2022-11-22T17:17:57.898   2216500413.6
RECEIVE_FREQ_1 =   2022-11-22T17:17:57.898   2216500413.6
RECEIVE_FREQ_1 =   2022-11-22T17:18:08.352   2216500412.7
RECEIVE_FREQ_1 =   2022-11-22T17:18:29.347   2216500409.0
RECEIVE_FREQ_1 =   2022-11-22T17:18:50.429   2216500406.3
RECEIVE_FREQ_1 =   2022-11-22T17:19:00.883   2216500404.9
RECEIVE_FREQ_1 =   2022-11-22T17:19:11.424   2216500403.3
RECEIVE_FREQ_1 =   2022-11-22T17:19:53.328   2216500397.6
RECEIVE_FREQ_1 =   2022-11-22T17:20:03.782   2216500395.8
RECEIVE_FREQ_1 =   2022-11-22T17:22:20.122   2216500376.5
RECEIVE_FREQ_1 =   2022-11-22T17:22:41.030   2216500373.1
RECEIVE_FREQ_1 =   2022-11-22T17:22:51.571   2216500372.1
RECEIVE_FREQ_1 =   2022-11-22T17:23:12.566   2216500368.8
RECEIVE_FREQ_1 =   2022-11-22T17:23:33.475   2216500365.6
RECEIVE_FREQ_1 =   2022-11-22T17:39:57.917   2216500222.9
RECEIVE_FREQ_1 =   2022-11-22T17:40:08.371   2216500221.5
RECEIVE_FREQ_1 =   2022-11-22T17:40:50.275   2216500215.5
RECEIVE_FREQ_1 =   2022-11-22T17:41:11.184   2216500212.4
RECEIVE_FREQ_1 =   2022-11-22T17:41:21.638   2216500210.9
RECEIVE_FREQ_1 =   2022-11-22T17:41:42.547   2216500207.4
RECEIVE_FREQ_1 =   2022-11-22T17:41:53.002   2216500206.5
RECEIVE_FREQ_1 =   2022-11-22T17:42:45.274   2216500198.4
RECEIVE_FREQ_1 =   2022-11-22T17:42:55.728   2216500197.0
RECEIVE_FREQ_1 =   2022-11-22T17:43:16.637   2216500194.3
RECEIVE_FREQ_1 =   2022-11-22T17:43:27.091   2216500192.6
RECEIVE_FREQ_1 =   2022-11-22T17:43:58.368   2216500188.2
RECEIVE_FREQ_1 =   2022-11-22T17:44:08.822   2216500186.8
RECEIVE_FREQ_1 =   2022-11-22T17:44:19.277   2216500184.9
RECEIVE_FREQ_1 =   2022-11-22T17:44:29.731   2216500183.7
RECEIVE_FREQ_1 =   2022-11-22T17:45:01.094   2216500179.0
RECEIVE_FREQ_1 =   2022-11-22T17:45:22.003   2216500175.8
RECEIVE_FREQ_1 =   2022-11-22T17:45:32.458   2216500175.4
RECEIVE_FREQ_1 =   2022-11-22T17:45:42.912   2216500173.3
RECEIVE_FREQ_1 =   2022-11-22T17:46:24.816   2216500167.0
RECEIVE_FREQ_1 =   2022-11-22T18:24:56.707   2216499814.8
RECEIVE_FREQ_1 =   2022-11-22T18:25:07.075   2216499813.0
RECEIVE_FREQ_1 =   2022-11-22T18:25:17.530   2216499811.7
RECEIVE_FREQ_1 =   2022-11-22T18:25:27.984   2216499810.6
RECEIVE_FREQ_1 =   2022-11-22T18:25:48.979   2216499806.6
RECEIVE_FREQ_1 =   2022-11-22T18:26:30.883   2216499800.2
RECEIVE_FREQ_1 =   2022-11-22T18:27:02.246   2216499795.7
RECEIVE_FREQ_1 =   2022-11-22T18:27:02.246   2216499795.7
RECEIVE_FREQ_1 =   2022-11-22T18:27:12.787   2216499794.1
RECEIVE_FREQ_1 =   2022-11-22T18:27:33.696   2216499790.3
RECEIVE_FREQ_1 =   2022-11-22T18:27:54.605   2216499787.1
RECEIVE_FREQ_1 =   2022-11-22T18:28:05.059   2216499785.6
RECEIVE_FREQ_1 =   2022-11-22T18:28:15.514   2216499784.5
RECEIVE_FREQ_1 =   2022-11-22T18:28:36.336   2216499781.1
RECEIVE_FREQ_1 =   2022-11-22T18:29:07.786   2216499775.7
RECEIVE_FREQ_1 =   2022-11-22T18:29:18.240   2216499774.8
RECEIVE_FREQ_1 =   2022-11-22T18:29:28.694   2216499772.7
RECEIVE_FREQ_1 =   2022-11-22T18:29:39.149   2216499771.3
RECEIVE_FREQ_1 =   2022-11-22T18:29:49.603   2216499769.4
RECEIVE_FREQ_1 =   2022-11-22T18:30:00.144   2216499767.9
RECEIVE_FREQ_1 =   2022-11-22T18:30:10.598   2216499766.4
RECEIVE_FREQ_1 =   2022-11-22T18:30:41.962   2216499761.3
RECEIVE_FREQ_1 =   2022-11-22T18:31:02.957   2216499758.4
RECEIVE_FREQ_1 =   2022-11-22T18:31:13.411   2216499756.4
RECEIVE_FREQ_1 =   2022-11-22T18:31:23.866   2216499754.9
RECEIVE_FREQ_1 =   2022-11-22T18:31:34.320   2216499753.3
RECEIVE_FREQ_1 =   2022-11-22T18:31:44.774   2216499751.4
RECEIVE_FREQ_1 =   2022-11-22T18:32:05.770   2216499748.0
RECEIVE_FREQ_1 =   2022-11-22T18:32:16.224   2216499746.8
RECEIVE_FREQ_1 =   2022-11-22T18:32:26.678   2216499745.1
RECEIVE_FREQ_1 =   2022-11-22T18:32:37.133   2216499743.4
RECEIVE_FREQ_1 =   2022-11-22T18:32:47.587   2216499741.9
RECEIVE_FREQ_1 =   2022-11-22T18:32:58.042   2216499740.1
RECEIVE_FREQ_1 =   2022-11-22T18:33:08.582   2216499738.6
RECEIVE_FREQ_1 =   2022-11-22T18:35:03.667   2216499720.6
RECEIVE_FREQ_1 =   2022-11-22T18:35:14.122   2216499719.0
RECEIVE_FREQ_1 =   2022-11-22T18:35:45.485   2216499714.2
RECEIVE_FREQ_1 =   2022-11-22T18:36:27.302   2216499707.3
RECEIVE_FREQ_1 =   2022-11-22T18:36:58.579   2216499702.7
RECEIVE_FREQ_1 =   2022-11-22T18:37:19.488   2216499699.5
RECEIVE_FREQ_1 =   2022-11-22T18:39:25.114   2216499679.8
RECEIVE_FREQ_1 =   2022-11-22T18:40:27.840   2216499669.4
RECEIVE_FREQ_1 =   2022-11-22T18:40:59.290   2216499664.6
RECEIVE_FREQ_1 =   2022-11-22T18:41:20.198   2216499661.7
RECEIVE_FREQ_1 =   2022-11-22T18:42:02.102   2216499655.5
RECEIVE_FREQ_1 =   2022-11-22T18:42:23.011   2216499651.7
RECEIVE_FREQ_1 =   2022-11-22T18:42:23.011   2216499651.7
RECEIVE_FREQ_1 =   2022-11-22T18:43:15.370   2216499644.6
RECEIVE_FREQ_1 =   2022-11-22T18:44:07.642   2216499635.1
RECEIVE_FREQ_1 =   2022-11-22T18:45:10.368   2216499625.4
RECEIVE_FREQ_1 =   2022-11-22T18:45:31.277   2216499622.0
RECEIVE_FREQ_1 =   2022-11-22T18:45:52.272   2216499618.6
RECEIVE_FREQ_1 =   2022-11-22T18:46:13.181   2216499615.6
RECEIVE_FREQ_1 =   2022-11-22T18:46:23.635   2216499613.9
RECEIVE_FREQ_1 =   2022-11-22T18:46:34.176   2216499612.4
RECEIVE_FREQ_1 =   2022-11-22T18:46:44.630   2216499610.0
RECEIVE_FREQ_1 =   2022-11-22T18:46:55.085   2216499608.9
RECEIVE_FREQ_1 =   2022-11-22T18:47:15.994   2216499605.2
RECEIVE_FREQ_1 =   2022-11-22T18:47:26.448   2216499604.3
RECEIVE_FREQ_1 =   2022-11-22T18:47:47.357   2216499600.4
RECEIVE_FREQ_1 =   2022-11-22T18:47:57.811   2216499598.8
RECEIVE_FREQ_1 =   2022-11-22T18:48:08.352   2216499596.9
RECEIVE_FREQ_1 =   2022-11-22T18:48:39.802   2216499592.4
RECEIVE_FREQ_1 =   2022-11-22T18:49:21.619   2216499585.7
RECEIVE_FREQ_1 =   2022-11-22T18:49:32.074   2216499583.6
RECEIVE_FREQ_1 =   2022-11-22T18:49:52.982   2216499580.9
RECEIVE_FREQ_1 =   2022-11-22T18:50:03.437   2216499578.9
RECEIVE_FREQ_1 =   2022-11-22T18:50:24.346   2216499575.8
RECEIVE_FREQ_1 =   2022-11-22T18:50:34.800   2216499574.2
RECEIVE_FREQ_1 =   2022-11-22T18:50:45.341   2216499572.7
RECEIVE_FREQ_1 =   2022-11-22T18:51:16.704   2216499567.9
RECEIVE_FREQ_1 =   2022-11-22T18:51:37.613   2216499564.3
RECEIVE_FREQ_1 =   2022-11-22T18:51:48.067   2216499562.6
RECEIVE_FREQ_1 =   2022-11-22T18:51:58.522   2216499561.0
RECEIVE_FREQ_1 =   2022-11-22T18:52:09.062   2216499559.4
RECEIVE_FREQ_1 =   2022-11-22T18:52:19.517   2216499557.9
RECEIVE_FREQ_1 =   2022-11-22T18:52:29.971   2216499555.8
RECEIVE_FREQ_1 =   2022-11-22T18:52:50.966   2216499551.3
RECEIVE_FREQ_1 =   2022-11-22T18:53:01.421   2216499550.9
RECEIVE_FREQ_1 =   2022-11-22T18:53:11.875   2216499549.3
RECEIVE_FREQ_1 =   2022-11-22T18:53:32.784   2216499546.2
RECEIVE_FREQ_1 =   2022-11-22T18:54:35.597   2216499535.8
RECEIVE_FREQ_1 =   2022-11-22T18:54:46.051   2216499534.3
RECEIVE_FREQ_1 =   2022-11-22T18:55:06.874   2216499530.7
RECEIVE_FREQ_1 =   2022-11-22T18:56:30.509   2216499517.6
RECEIVE_FREQ_1 =   2022-11-22T18:56:41.050   2216499516.2
RECEIVE_FREQ_1 =   2022-11-22T18:57:01.958   2216499513.3
RECEIVE_FREQ_1 =   2022-11-22T18:57:12.413   2216499510.8
RECEIVE_FREQ_1 =   2022-11-22T18:58:04.771   2216499503.0
RECEIVE_FREQ_1 =   2022-11-22T18:58:25.680   2216499499.6
RECEIVE_FREQ_1 =   2022-11-22T18:58:57.043   2216499494.5
RECEIVE_FREQ_1 =   2022-11-22T18:59:07.498   2216499492.3
RECEIVE_FREQ_1 =   2022-11-22T18:59:49.315   2216499486.9
RECEIVE_FREQ_1 =   2022-11-22T18:59:59.770   2216499484.2
RECEIVE_FREQ_1 =   2022-11-22T19:00:10.224   2216499483.0
RECEIVE_FREQ_1 =   2022-11-22T19:01:23.405   2216499471.3
RECEIVE_FREQ_1 =   2022-11-22T19:01:33.859   2216499469.7
RECEIVE_FREQ_1 =   2022-11-22T19:02:26.218   2216499461.4
RECEIVE_FREQ_1 =   2022-11-22T19:02:36.672   2216499459.5
RECEIVE_FREQ_1 =   2022-11-22T19:02:47.126   2216499458.2
RECEIVE_FREQ_1 =   2022-11-22T19:03:08.035   2216499455.3
RECEIVE_FREQ_1 =   2022-11-22T19:03:28.944   2216499452.1
RECEIVE_FREQ_1 =   2022-11-22T19:03:39.398   2216499450.3
RECEIVE_FREQ_1 =   2022-11-22T19:04:10.848   2216499445.0
RECEIVE_FREQ_1 =   2022-11-22T19:04:31.757   2216499441.7
RECEIVE_FREQ_1 =   2022-11-22T19:04:42.298   2216499439.9
RECEIVE_FREQ_1 =   2022-11-22T19:05:24.115   2216499433.2
RECEIVE_FREQ_1 =   2022-11-22T19:05:34.570   2216499431.6
RECEIVE_FREQ_1 =   2022-11-22T19:05:55.478   2216499428.0
RECEIVE_FREQ_1 =   2022-11-22T19:06:05.933   2216499426.4
RECEIVE_FREQ_1 =   2022-11-22T19:06:16.474   2216499425.1
RECEIVE_FREQ_1 =   2022-11-22T19:06:26.928   2216499423.1
RECEIVE_FREQ_1 =   2022-11-22T19:06:37.382   2216499421.4
RECEIVE_FREQ_1 =   2022-11-22T19:06:47.837   2216499419.5
RECEIVE_FREQ_1 =   2022-11-22T19:06:58.291   2216499418.3
RECEIVE_FREQ_1 =   2022-11-22T19:07:08.746   2216499416.2
RECEIVE_FREQ_1 =   2022-11-22T19:07:19.200   2216499414.8
RECEIVE_FREQ_1 =   2022-11-22T19:07:29.654   2216499413.5
RECEIVE_FREQ_1 =   2022-11-22T19:07:40.195   2216499411.5
RECEIVE_FREQ_1 =   2022-11-22T19:07:50.650   2216499409.8
RECEIVE_FREQ_1 =   2022-11-22T19:08:01.104   2216499408.3
RECEIVE_FREQ_1 =   2022-11-22T19:08:11.558   2216499407.0
RECEIVE_FREQ_1 =   2022-11-22T19:08:22.013   2216499405.2
RECEIVE_FREQ_1 =   2022-11-22T19:08:32.467   2216499403.3
RECEIVE_FREQ_1 =   2022-11-22T19:08:42.922   2216499401.6
RECEIVE_FREQ_1 =   2022-11-22T19:09:03.830   2216499398.5
RECEIVE_FREQ_1 =   2022-11-22T19:09:14.285   2216499396.6
RECEIVE_FREQ_1 =   2022-11-22T19:09:24.653   2216499395.1
RECEIVE_FREQ_1 =   2022-11-22T19:09:35.107   2216499393.6
RECEIVE_FREQ_1 =   2022-11-22T19:09:45.562   2216499391.4
RECEIVE_FREQ_1 =   2022-11-22T19:09:56.016   2216499389.9
RECEIVE_FREQ_1 =   2022-11-22T19:10:06.470   2216499388.3
RECEIVE_FREQ_1 =   2022-11-22T19:10:16.925   2216499386.6
RECEIVE_FREQ_1 =   2022-11-22T19:10:16.925   2216499386.6
RECEIVE_FREQ_1 =   2022-11-22T19:10:27.466   2216499384.9
RECEIVE_FREQ_1 =   2022-11-22T19:10:37.920   2216499383.4
RECEIVE_FREQ_1 =   2022-11-22T19:11:09.197   2216499378.3
RECEIVE_FREQ_1 =   2022-11-22T19:11:19.651   2216499376.9
RECEIVE_FREQ_1 =   2022-11-22T19:11:30.192   2216499375.3
RECEIVE_FREQ_1 =   2022-11-22T19:11:40.646   2216499373.7
RECEIVE_FREQ_1 =   2022-11-22T19:11:51.101   2216499372.2
RECEIVE_FREQ_1 =   2022-11-22T19:12:01.555   2216499370.7
RECEIVE_FREQ_1 =   2022-11-22T19:12:12.010   2216499368.6
RECEIVE_FREQ_1 =   2022-11-22T19:12:22.464   2216499366.8
RECEIVE_FREQ_1 =   2022-11-22T19:12:32.918   2216499364.9
RECEIVE_FREQ_1 =   2022-11-22T19:12:43.373   2216499363.7
RECEIVE_FREQ_1 =   2022-11-22T19:13:14.822   2216499358.2
RECEIVE_FREQ_1 =   2022-11-22T19:13:25.277   2216499357.0
RECEIVE_FREQ_1 =   2022-11-22T19:13:35.731   2216499355.5
RECEIVE_FREQ_1 =   2022-11-22T19:13:46.272   2216499353.7
RECEIVE_FREQ_1 =   2022-11-22T19:13:56.726   2216499351.6
RECEIVE_FREQ_1 =   2022-11-22T19:14:07.181   2216499350.6
RECEIVE_FREQ_1 =   2022-11-22T19:14:17.635   2216499348.9
RECEIVE_FREQ_1 =   2022-11-22T19:14:38.544   2216499345.4
RECEIVE_FREQ_1 =   2022-11-22T19:14:49.085   2216499343.7
RECEIVE_FREQ_1 =   2022-11-22T19:14:59.539   2216499341.7
RECEIVE_FREQ_1 =   2022-11-22T19:15:30.902   2216499337.0
RECEIVE_FREQ_1 =   2022-11-22T19:15:41.357   2216499335.3
RECEIVE_FREQ_1 =   2022-11-22T19:15:51.811   2216499333.6
RECEIVE_FREQ_1 =   2022-11-22T19:16:23.261   2216499328.8
RECEIVE_FREQ_1 =   2022-11-22T19:16:33.715   2216499327.2
RECEIVE_FREQ_1 =   2022-11-22T19:16:54.624   2216499323.8
RECEIVE_FREQ_1 =   2022-11-22T19:17:05.078   2216499321.8
RECEIVE_FREQ_1 =   2022-11-22T19:17:25.987   2216499318.5
RECEIVE_FREQ_1 =   2022-11-22T19:17:36.442   2216499317.3
RECEIVE_FREQ_1 =   2022-11-22T19:17:46.896   2216499315.2
RECEIVE_FREQ_1 =   2022-11-22T19:17:57.350   2216499313.7
RECEIVE_FREQ_1 =   2022-11-22T19:18:18.259   2216499310.6
RECEIVE_FREQ_1 =   2022-11-22T19:18:28.800   2216499308.6
RECEIVE_FREQ_1 =   2022-11-22T19:18:39.254   2216499307.3
RECEIVE_FREQ_1 =   2022-11-22T19:18:49.709   2216499305.7
RECEIVE_FREQ_1 =   2022-11-22T19:19:00.163   2216499304.3
RECEIVE_FREQ_1 =   2022-11-22T19:19:10.618   2216499302.4
RECEIVE_FREQ_1 =   2022-11-22T19:19:21.072   2216499300.6
RECEIVE_FREQ_1 =   2022-11-22T19:19:31.526   2216499299.1
RECEIVE_FREQ_1 =   2022-11-22T19:19:41.981   2216499297.2
RECEIVE_FREQ_1 =   2022-11-22T19:20:02.890   2216499293.7
RECEIVE_FREQ_1 =   2022-11-22T19:20:13.344   2216499292.3
RECEIVE_FREQ_1 =   2022-11-22T19:20:23.798   2216499290.6
RECEIVE_FREQ_1 =   2022-11-22T19:20:34.253   2216499289.1
RECEIVE_FREQ_1 =   2022-11-22T19:20:44.707   2216499287.4
RECEIVE_FREQ_1 =   2022-11-22T19:20:55.162   2216499286.5
RECEIVE_FREQ_1 =   2022-11-22T19:21:16.070   2216499282.3
RECEIVE_FREQ_1 =   2022-11-22T19:21:26.525   2216499280.8
RECEIVE_FREQ_1 =   2022-11-22T19:21:37.066   2216499279.3
RECEIVE_FREQ_1 =   2022-11-22T19:22:08.429   2216499274.4
RECEIVE_FREQ_1 =   2022-11-22T19:22:18.883   2216499273.0
RECEIVE_FREQ_1 =   2022-11-22T19:22:29.424   2216499270.9
RECEIVE_FREQ_1 =   2022-11-22T19:22:50.333   2216499267.9
RECEIVE_FREQ_1 =   2022-11-22T19:23:00.787   2216499266.2
RECEIVE_FREQ_1 =   2022-11-22T19:23:11.242   2216499264.4
RECEIVE_FREQ_1 =   2022-11-22T19:23:21.696   2216499262.9
RECEIVE_FREQ_1 =   2022-11-22T19:53:42.662   2216498974.7
RECEIVE_FREQ_1 =   2022-11-22T19:53:53.117   2216498973.2
RECEIVE_FREQ_1 =   2022-11-22T19:54:14.026   2216498969.6
RECEIVE_FREQ_1 =   2022-11-22T19:54:24.480   2216498968.3
RECEIVE_FREQ_1 =   2022-11-22T19:54:34.934   2216498966.4
RECEIVE_FREQ_1 =   2022-11-22T19:54:45.389   2216498965.0
RECEIVE_FREQ_1 =   2022-11-22T19:54:55.843   2216498963.6
RECEIVE_FREQ_1 =   2022-11-22T19:55:06.298   2216498961.6
RECEIVE_FREQ_1 =   2022-11-22T19:55:16.752   2216498959.6
RECEIVE_FREQ_1 =   2022-11-22T19:55:27.206   2216498958.5
RECEIVE_FREQ_1 =   2022-11-22T19:55:37.661   2216498956.6
RECEIVE_FREQ_1 =   2022-11-22T19:55:48.202   2216498955.4
RECEIVE_FREQ_1 =   2022-11-22T19:56:09.110   2216498951.9
RECEIVE_FREQ_1 =   2022-11-22T19:56:19.565   2216498950.1
RECEIVE_FREQ_1 =   2022-11-22T19:56:30.019   2216498948.4
RECEIVE_FREQ_1 =   2022-11-22T19:56:50.928   2216498945.6
RECEIVE_FREQ_1 =   2022-11-22T19:57:11.837   2216498941.8
RECEIVE_FREQ_1 =   2022-11-22T19:57:22.291   2216498939.8
RECEIVE_FREQ_1 =   2022-11-22T19:57:32.746   2216498938.9
RECEIVE_FREQ_1 =   2022-11-22T19:57:43.200   2216498936.9
RECEIVE_FREQ_1 =   2022-11-22T19:57:53.654   2216498935.3
RECEIVE_FREQ_1 =   2022-11-22T19:58:04.195   2216498933.4
RECEIVE_FREQ_1 =   2022-11-22T19:58:14.650   2216498932.0
RECEIVE_FREQ_1 =   2022-11-22T19:58:25.104   2216498930.5
RECEIVE_FREQ_1 =   2022-11-22T19:58:35.558   2216498928.4
RECEIVE_FREQ_1 =   2022-11-22T19:58:46.013   2216498926.9
RECEIVE_FREQ_1 =   2022-11-22T19:59:17.376   2216498922.2
RECEIVE_FREQ_1 =   2022-11-22T19:59:27.830   2216498920.3
RECEIVE_FREQ_1 =   2022-11-22T19:59:38.285   2216498919.0
RECEIVE_FREQ_1 =   2022-11-22T19:59:59.194   2216498915.4
RECEIVE_FREQ_1 =   2022-11-22T20:00:09.648   2216498913.9
RECEIVE_FREQ_1 =   2022-11-22T20:00:20.102   2216498912.1
RECEIVE_FREQ_1 =   2022-11-22T20:00:30.557   2216498910.8
RECEIVE_FREQ_1 =   2022-11-22T20:00:41.011   2216498908.9
RECEIVE_FREQ_1 =   2022-11-22T20:00:51.466   2216498907.3
RECEIVE_FREQ_1 =   2022-11-22T20:01:12.374   2216498904.0
RECEIVE_FREQ_1 =   2022-11-22T20:01:22.829   2216498902.3
RECEIVE_FREQ_1 =   2022-11-22T20:01:33.283   2216498900.8
RECEIVE_FREQ_1 =   2022-11-22T20:01:43.824   2216498899.5
RECEIVE_FREQ_1 =   2022-11-22T20:01:54.278   2216498897.4
RECEIVE_FREQ_1 =   2022-11-22T20:02:04.733   2216498895.6
RECEIVE_FREQ_1 =   2022-11-22T20:02:15.187   2216498894.1
RECEIVE_FREQ_1 =   2022-11-22T20:02:25.728   2216498892.3
RECEIVE_FREQ_1 =   2022-11-22T20:02:36.182   2216498891.3
RECEIVE_FREQ_1 =   2022-11-22T20:02:46.637   2216498888.0
RECEIVE_FREQ_1 =   2022-11-22T20:02:57.091   2216498887.4
RECEIVE_FREQ_1 =   2022-11-22T20:03:28.454   2216498882.9
RECEIVE_FREQ_1 =   2022-11-22T20:04:52.176   2216498869.1
RECEIVE_FREQ_1 =   2022-11-22T20:05:54.989   2216498860.3
RECEIVE_FREQ_1 =   2022-11-22T20:06:05.443   2216498858.4
RECEIVE_FREQ_1 =   2022-11-22T20:06:15.898   2216498856.8
RECEIVE_FREQ_1 =   2022-11-22T20:06:26.352   2216498855.2
RECEIVE_FREQ_1 =   2022-11-22T20:06:36.806   2216498853.8
RECEIVE_FREQ_1 =   2022-11-22T20:06:57.715   2216498850.7
RECEIVE_FREQ_1 =   2022-11-22T20:07:29.078   2216498845.8
RECEIVE_FREQ_1 =   2022-11-22T20:07:49.987   2216498842.7
RECEIVE_FREQ_1 =   2022-11-22T20:08:10.810   2216498838.8
RECEIVE_FREQ_1 =   2022-11-22T20:08:21.264   2216498837.8
RECEIVE_FREQ_1 =   2022-11-22T20:08:31.718   2216498835.8
RECEIVE_FREQ_1 =   2022-11-22T20:08:42.173   2216498834.2
RECEIVE_FREQ_1 =   2022-11-22T20:08:52.627   2216498833.2
RECEIVE_FREQ_1 =   2022-11-22T20:09:03.082   2216498831.4
RECEIVE_FREQ_1 =   2022-11-22T20:09:13.536   2216498829.4
RECEIVE_FREQ_1 =   2022-11-22T20:09:23.990   2216498827.9
RECEIVE_FREQ_1 =   2022-11-22T20:09:34.445   2216498826.4
RECEIVE_FREQ_1 =   2022-11-22T20:09:55.354   2216498823.0
RECEIVE_FREQ_1 =   2022-11-22T20:10:05.894   2216498821.8
RECEIVE_FREQ_1 =   2022-11-22T20:10:16.349   2216498819.9
RECEIVE_FREQ_1 =   2022-11-22T20:11:08.707   2216498811.7
RECEIVE_FREQ_1 =   2022-11-22T20:11:19.162   2216498810.6
RECEIVE_FREQ_1 =   2022-11-22T20:11:40.070   2216498807.0
RECEIVE_FREQ_1 =   2022-11-22T20:12:21.974   2216498800.7
RECEIVE_FREQ_1 =   2022-11-22T20:12:42.883   2216498797.7
RECEIVE_FREQ_1 =   2022-11-22T20:12:53.338   2216498795.9
RECEIVE_FREQ_1 =   2022-11-22T20:13:03.878   2216498794.9
RECEIVE_FREQ_1 =   2022-11-22T20:13:14.333   2216498792.3
RECEIVE_FREQ_1 =   2022-11-22T20:13:24.787   2216498791.5
RECEIVE_FREQ_1 =   2022-11-22T20:13:45.782   2216498789.3
RECEIVE_FREQ_1 =   2022-11-22T20:13:56.237   2216498786.4
RECEIVE_FREQ_1 =   2022-11-22T20:14:06.691   2216498784.9
RECEIVE_FREQ_1 =   2022-11-22T20:14:17.232   2216498782.8
RECEIVE_FREQ_1 =   2022-11-22T20:14:27.686   2216498781.9
RECEIVE_FREQ_1 =   2022-11-22T20:14:38.141   2216498779.5
RECEIVE_FREQ_1 =   2022-11-22T20:14:59.050   2216498776.9
RECEIVE_FREQ_1 =   2022-11-22T20:15:19.958   2216498773.9
RECEIVE_FREQ_1 =   2022-11-22T20:15:30.413   2216498772.2
RECEIVE_FREQ_1 =   2022-11-22T20:15:40.954   2216498770.2
RECEIVE_FREQ_1 =   2022-11-22T20:15:51.408   2216498768.9
RECEIVE_FREQ_1 =   2022-11-22T20:16:01.862   2216498767.4
RECEIVE_FREQ_1 =   2022-11-22T20:16:12.317   2216498766.2
RECEIVE_FREQ_1 =   2022-11-22T20:16:43.680   2216498760.6
RECEIVE_FREQ_1 =   2022-11-22T20:17:04.675   2216498757.8
RECEIVE_FREQ_1 =   2022-11-22T20:17:15.043   2216498756.6
RECEIVE_FREQ_1 =   2022-11-22T20:17:46.406   2216498751.1
RECEIVE_FREQ_1 =   2022-11-22T20:18:07.402   2216498747.7
RECEIVE_FREQ_1 =   2022-11-22T20:18:17.856   2216498746.5
RECEIVE_FREQ_1 =   2022-11-22T20:18:38.765   2216498743.0
RECEIVE_FREQ_1 =   2022-11-22T20:18:49.306   2216498741.4
RECEIVE_FREQ_1 =   2022-11-22T20:18:59.760   2216498739.3
RECEIVE_FREQ_1 =   2022-11-22T20:19:20.669   2216498736.4
RECEIVE_FREQ_1 =   2022-11-22T20:20:44.218   2216498723.3
RECEIVE_FREQ_1 =   2022-11-22T20:21:05.213   2216498719.6
RECEIVE_FREQ_1 =   2022-11-22T20:21:57.571   2216498711.2
RECEIVE_FREQ_1 =   2022-11-22T20:22:49.843   2216498703.8
RECEIVE_FREQ_1 =   2022-11-22T20:23:10.838   2216498700.4
RECEIVE_FREQ_1 =   2022-11-22T20:23:21.293   2216498698.8
RECEIVE_FREQ_1 =   2022-11-22T20:24:24.106   2216498689.1
RECEIVE_FREQ_1 =   2022-11-22T20:25:16.464   2216498680.7
RECEIVE_FREQ_1 =   2022-11-22T20:27:11.635   2216498664.1
RECEIVE_FREQ_1 =   2022-11-22T20:27:42.998   2216498658.5
RECEIVE_FREQ_1 =   2022-11-22T20:27:53.453   2216498657.3
RECEIVE_FREQ_1 =   2022-11-22T16:31:33.398   2216500783.727
RECEIVE_FREQ_1 =   2022-11-22T16:31:54.394   2216500781.727
RECEIVE_FREQ_1 =   2022-11-22T16:32:04.848   2216500780.227
RECEIVE_FREQ_1 =   2022-11-22T16:32:15.302   2216500778.827
RECEIVE_FREQ_1 =   2022-11-22T16:32:36.211   2216500775.927
RECEIVE_FREQ_1 =   2022-11-22T16:32:46.752   2216500774.427
RECEIVE_FREQ_1 =   2022-11-22T16:32:57.206   2216500773.027
RECEIVE_FREQ_1 =   2022-11-22T16:33:07.661   2216500771.827
RECEIVE_FREQ_1 =   2022-11-22T16:33:18.202   2216500770.227
RECEIVE_FREQ_1 =   2022-11-22T16:33:28.656   2216500768.827
RECEIVE_FREQ_1 =   2022-11-22T16:33:39.197   2216500767.727
RECEIVE_FREQ_1 =   2022-11-22T16:33:49.651   2216500766.327
RECEIVE_FREQ_1 =   2022-11-22T16:34:00.192   2216500764.827
RECEIVE_FREQ_1 =   2022-11-22T16:34:10.733   2216500763.727
RECEIVE_FREQ_1 =   2022-11-22T16:34:21.274   2216500762.427
RECEIVE_FREQ_1 =   2022-11-22T16:34:31.814   2216500760.927
RECEIVE_FREQ_1 =   2022-11-22T16:34:42.355   2216500760.027
RECEIVE_FREQ_1 =   2022-11-22T16:34:52.896   2216500758.327
RECEIVE_FREQ_1 =   2022-11-22T16:35:03.350   2216500757.027
RECEIVE_FREQ_1 =   2022-11-22T16:35:13.891   2216500755.727
RECEIVE_FREQ_1 =   2022-11-22T16:35:24.432   2216500754.627
RECEIVE_FREQ_1 =   2022-11-22T16:35:34.886   2216500753.327
RECEIVE_FREQ_1 =   2022-11-22T16:35:45.427   2216500751.727
RECEIVE_FREQ_1 =   2022-11-22T16:35:55.968   2216500750.627
RECEIVE_FREQ_1 =   2022-11-22T16:36:06.422   2216500749.327
RECEIVE_FREQ_1 =   2022-11-22T16:36:16.963   2216500748.227
RECEIVE_FREQ_1 =   2022-11-22T16:36:27.504   2216500746.627
RECEIVE_FREQ_1 =   2022-11-22T16:36:38.045   2216500745.427
RECEIVE_FREQ_1 =   2022-11-22T16:36:48.586   2216500744.027
RECEIVE_FREQ_1 =   2022-11-22T16:36:59.040   2216500742.927
RECEIVE_FREQ_1 =   2022-11-22T16:37:09.581   2216500742.027
RECEIVE_FREQ_1 =   2022-11-22T16:37:20.122   2216500740.427
RECEIVE_FREQ_1 =   2022-11-22T16:37:30.662   2216500739.027
RECEIVE_FREQ_1 =   2022-11-22T16:37:41.203   2216500738.027
RECEIVE_FREQ_1 =   2022-11-22T16:37:51.658   2216500736.827
RECEIVE_FREQ_1 =   2022-11-22T16:38:02.198   2216500735.227
RECEIVE_FREQ_1 =   2022-11-22T16:38:12.653   2216500733.827
RECEIVE_FREQ_1 =   2022-11-22T16:38:23.194   2216500732.627
RECEIVE_FREQ_1 =   2022-11-22T16:38:33.648   2216500731.127
RECEIVE_FREQ_1 =   2022-11-22T16:38:44.189   2216500729.927
RECEIVE_FREQ_1 =   2022-11-22T16:38:54.730   2216500728.527
RECEIVE_FREQ_1 =   2022-11-22T16:39:05.184   2216500727.327
RECEIVE_FREQ_1 =   2022-11-22T16:39:15.725   2216500726.027
RECEIVE_FREQ_1 =   2022-11-22T16:39:26.179   2216500724.627
RECEIVE_FREQ_1 =   2022-11-22T16:39:36.720   2216500723.127
RECEIVE_FREQ_1 =   2022-11-22T16:39:47.261   2216500722.227
RECEIVE_FREQ_1 =   2022-11-22T16:39:57.802   2216500720.927
RECEIVE_FREQ_1 =   2022-11-22T16:40:08.342   2216500719.327
RECEIVE_FREQ_1 =   2022-11-22T16:40:18.797   2216500718.327
RECEIVE_FREQ_1 =   2022-11-22T16:40:29.338   2216500716.927
RECEIVE_FREQ_1 =   2022-11-22T16:40:39.792   2216500715.627
RECEIVE_FREQ_1 =   2022-11-22T16:40:50.333   2216500714.127
RECEIVE_FREQ_1 =   2022-11-22T16:41:00.787   2216500713.027
RECEIVE_FREQ_1 =   2022-11-22T16:41:11.328   2216500711.427
RECEIVE_FREQ_1 =   2022-11-22T16:41:21.869   2216500710.127
RECEIVE_FREQ_1 =   2022-11-22T16:46:11.309   2216500673.227
RECEIVE_FREQ_1 =   2022-11-22T16:46:21.590   2216500671.927
RECEIVE_FREQ_1 =   2022-11-22T16:46:31.958   2216500670.427
RECEIVE_FREQ_1 =   2022-11-22T16:46:42.326   2216500668.927
RECEIVE_FREQ_1 =   2022-11-22T16:46:52.781   2216500667.427
RECEIVE_FREQ_1 =   2022-11-22T16:47:03.235   2216500666.627
RECEIVE_FREQ_1 =   2022-11-22T16:47:13.603   2216500664.827
RECEIVE_FREQ_1 =   2022-11-22T16:47:23.971   2216500663.627
RECEIVE_FREQ_1 =   2022-11-22T16:47:34.426   2216500661.927
RECEIVE_FREQ_1 =   2022-11-22T16:47:44.794   2216500660.627
RECEIVE_FREQ_1 =   2022-11-22T16:47:55.162   2216500659.427
RECEIVE_FREQ_1 =   2022-11-22T16:48:05.443   2216500658.227
RECEIVE_FREQ_1 =   2022-11-22T16:48:15.811   2216500656.527
RECEIVE_FREQ_1 =   2022-11-22T16:48:26.179   2216500655.327
RECEIVE_FREQ_1 =   2022-11-22T16:48:36.547   2216500653.727
RECEIVE_FREQ_1 =   2022-11-22T16:48:47.002   2216500652.327
RECEIVE_FREQ_1 =   2022-11-22T16:48:57.456   2216500650.927
RECEIVE_FREQ_1 =   2022-11-22T16:49:07.910   2216500649.627
RECEIVE_FREQ_1 =   2022-11-22T16:49:18.365   2216500647.827
RECEIVE_FREQ_1 =   2022-11-22T16:49:28.819   2216500646.627
RECEIVE_FREQ_1 =   2022-11-22T16:49:39.274   2216500645.427
RECEIVE_FREQ_1 =   2022-11-22T16:49:49.814   2216500643.727
RECEIVE_FREQ_1 =   2022-11-22T16:50:00.269   2216500642.327
RECEIVE_FREQ_1 =   2022-11-22T16:50:10.723   2216500641.227
RECEIVE_FREQ_1 =   2022-11-22T16:50:21.178   2216500639.627
RECEIVE_FREQ_1 =   2022-11-22T16:50:31.632   2216500638.527
RECEIVE_FREQ_1 =   2022-11-22T16:50:42.086   2216500637.027
RECEIVE_FREQ_1 =   2022-11-22T16:50:52.627   2216500635.727
RECEIVE_FREQ_1 =   2022-11-22T16:51:03.082   2216500634.127
RECEIVE_FREQ_1 =   2022-11-22T16:51:34.531   2216500630.327
RECEIVE_FREQ_1 =   2022-11-22T16:51:45.072   2216500628.927
RECEIVE_FREQ_1 =   2022-11-22T16:51:55.526   2216500627.627
RECEIVE_FREQ_1 =   2022-11-22T16:52:05.981   2216500626.027
RECEIVE_FREQ_1 =   2022-11-22T16:52:16.435   2216500624.727
RECEIVE_FREQ_1 =   2022-11-22T16:52:26.890   2216500623.327
RECEIVE_FREQ_1 =   2022-11-22T16:52:37.430   2216500621.927
RECEIVE_FREQ_1 =   2022-11-22T16:52:47.885   2216500620.327
RECEIVE_FREQ_1 =   2022-11-22T16:52:58.339   2216500618.827
RECEIVE_FREQ_1 =   2022-11-22T16:53:08.794   2216500617.827
RECEIVE_FREQ_1 =   2022-11-22T16:53:19.334   2216500616.127
RECEIVE_FREQ_1 =   2022-11-22T16:53:29.875   2216500614.627
RECEIVE_FREQ_1 =   2022-11-22T16:53:40.330   2216500613.027
RECEIVE_FREQ_1 =   2022-11-22T16:53:50.870   2216500611.827
RECEIVE_FREQ_1 =   2022-11-22T16:54:01.325   2216500610.227
RECEIVE_FREQ_1 =   2022-11-22T16:54:11.779   2216500609.227
RECEIVE_FREQ_1 =   2022-11-22T16:54:22.320   2216500607.727
RECEIVE_FREQ_1 =   2022-11-22T16:54:32.774   2216500606.127
RECEIVE_FREQ_1 =   2022-11-22T16:54:43.229   2216500604.827
RECEIVE_FREQ_1 =   2022-11-22T16:54:53.683   2216500603.527
RECEIVE_FREQ_1 =   2022-11-22T16:55:04.138   2216500601.727
RECEIVE_FREQ_1 =   2022-11-22T16:55:14.592   2216500600.727
RECEIVE_FREQ_1 =   2022-11-22T16:55:25.046   2216500599.027
RECEIVE_FREQ_1 =   2022-11-22T16:55:35.501   2216500597.427
RECEIVE_FREQ_1 =   2022-11-22T16:55:45.955   2216500596.327
RECEIVE_FREQ_1 =   2022-11-22T16:55:56.410   2216500594.527
RECEIVE_FREQ_1 =   2022-11-22T16:56:06.950   2216500593.427
RECEIVE_FREQ_1 =   2022-11-22T16:56:17.405   2216500591.727
RECEIVE_FREQ_1 =   2022-11-22T16:56:27.859   2216500590.427
RECEIVE_FREQ_1 =   2022-11-22T16:56:38.314   2216500589.327
RECEIVE_FREQ_1 =   2022-11-22T16:56:48.854   2216500587.627
RECEIVE_FREQ_1 =   2022-11-22T16:56:59.309   2216500586.227
RECEIVE_FREQ_1 =   2022-11-22T16:57:09.850   2216500584.627
RECEIVE_FREQ_1 =   2022-11-22T16:57:20.304   2216500583.527
RECEIVE_FREQ_1 =   2022-11-22T16:57:30.758   2216500582.127
RECEIVE_FREQ_1 =   2022-11-22T16:57:41.299   2216500580.727
RECEIVE_FREQ_1 =   2022-11-22T16:57:51.754   2216500579.027
RECEIVE_FREQ_1 =   2022-11-22T16:58:02.208   2216500577.527
RECEIVE_FREQ_1 =   2022-11-22T16:58:12.662   2216500575.927
RECEIVE_FREQ_1 =   2022-11-22T16:58:23.117   2216500574.427
RECEIVE_FREQ_1 =   2022-11-22T16:58:33.571   2216500573.127
RECEIVE_FREQ_1 =   2022-11-22T16:58:44.026   2216500571.527
RECEIVE_FREQ_1 =   2022-11-22T16:58:54.480   2216500570.127
RECEIVE_FREQ_1 =   2022-11-22T16:59:04.934   2216500568.927
RECEIVE_FREQ_1 =   2022-11-22T16:59:15.389   2216500567.027
RECEIVE_FREQ_1 =   2022-11-22T16:59:25.843   2216500565.727
RECEIVE_FREQ_1 =   2022-11-22T16:59:36.384   2216500564.227
RECEIVE_FREQ_1 =   2022-11-22T16:59:46.838   2216500563.327
RECEIVE_FREQ_1 =   2022-11-22T16:59:57.293   2216500561.327
RECEIVE_FREQ_1 =   2022-11-22T17:00:07.747   2216500560.127
RECEIVE_FREQ_1 =   2022-11-22T17:00:18.288   2216500558.427
RECEIVE_FREQ_1 =   2022-11-22T17:00:28.742   2216500557.127
RECEIVE_FREQ_1 =   2022-11-22T17:00:39.283   2216500555.627
RECEIVE_FREQ_1 =   2022-11-22T17:00:49.738   2216500554.427
RECEIVE_FREQ_1 =   2022-11-22T17:01:00.192   2216500552.527
RECEIVE_FREQ_1 =   2022-11-22T17:01:10.733   2216500551.327
RECEIVE_FREQ_1 =   2022-11-22T17:01:21.187   2216500549.927
RECEIVE_FREQ_1 =   2022-11-22T17:01:31.642   2216500548.427
RECEIVE_FREQ_1 =   2022-11-22T17:01:42.096   2216500546.927
RECEIVE_FREQ_1 =   2022-11-22T17:01:52.550   2216500545.227
RECEIVE_FREQ_1 =   2022-11-22T17:02:03.091   2216500544.127
RECEIVE_FREQ_1 =   2022-11-22T17:02:13.546   2216500542.027
RECEIVE_FREQ_1 =   2022-11-22T17:02:24.173   2216500540.827
RECEIVE_FREQ_1 =   2022-11-22T17:02:34.714   2216500539.627
RECEIVE_FREQ_1 =   2022-11-22T17:02:45.168   2216500538.327
RECEIVE_FREQ_1 =   2022-11-22T17:02:55.622   2216500536.527
RECEIVE_FREQ_1 =   2022-11-22T17:03:06.163   2216500535.327
RECEIVE_FREQ_1 =   2022-11-22T17:03:16.618   2216500534.027
RECEIVE_FREQ_1 =   2022-11-22T17:03:27.072   2216500532.627
RECEIVE_FREQ_1 =   2022-11-22T17:03:37.613   2216500531.227
RECEIVE_FREQ_1 =   2022-11-22T17:03:48.067   2216500530.227
RECEIVE_FREQ_1 =   2022-11-22T17:03:58.522   2216500528.427
RECEIVE_FREQ_1 =   2022-11-22T17:04:09.062   2216500527.127
RECEIVE_FREQ_1 =   2022-11-22T17:04:19.517   2216500526.027
RECEIVE_FREQ_1 =   2022-11-22T17:04:29.971   2216500524.027
RECEIVE_FREQ_1 =   2022-11-22T17:04:40.512   2216500523.327
RECEIVE_FREQ_1 =   2022-11-22T17:04:51.053   2216500521.327
RECEIVE_FREQ_1 =   2022-11-22T17:05:01.507   2216500520.227
RECEIVE_FREQ_1 =   2022-11-22T17:05:12.048   2216500519.027
RECEIVE_FREQ_1 =   2022-11-22T17:05:22.502   2216500517.327
RECEIVE_FREQ_1 =   2022-11-22T17:05:33.043   2216500515.827
RECEIVE_FREQ_1 =   2022-11-22T17:05:43.584   2216500514.727
RECEIVE_FREQ_1 =   2022-11-22T17:05:54.038   2216500512.927
RECEIVE_FREQ_1 =   2022-11-22T17:06:04.579   2216500511.927
RECEIVE_FREQ_1 =   2022-11-22T17:06:15.034   2216500510.227
RECEIVE_FREQ_1 =   2022-11-22T17:06:25.488   2216500508.827
RECEIVE_FREQ_1 =   2022-11-22T17:06:36.029   2216500507.527
RECEIVE_FREQ_1 =   2022-11-22T17:06:36.029   2216500507.527
RECEIVE_FREQ_1 =   2022-11-22T17:06:46.483   2216500506.027
RECEIVE_FREQ_1 =   2022-11-22T17:06:57.024   2216500504.727
RECEIVE_FREQ_1 =   2022-11-22T17:07:07.478   2216500503.227
RECEIVE_FREQ_1 =   2022-11-22T17:07:17.933   2216500502.227
RECEIVE_FREQ_1 =   2022-11-22T17:07:28.474   2216500500.327
RECEIVE_FREQ_1 =   2022-11-22T17:07:38.928   2216500498.827
RECEIVE_FREQ_1 =   2022-11-22T17:07:49.382   2216500497.427
RECEIVE_FREQ_1 =   2022-11-22T17:07:59.837   2216500496.527
RECEIVE_FREQ_1 =   2022-11-22T17:08:10.291   2216500494.927
RECEIVE_FREQ_1 =   2022-11-22T17:08:20.832   2216500493.327
RECEIVE_FREQ_1 =   2022-11-22T17:08:31.373   2216500491.927
RECEIVE_FREQ_1 =   2022-11-22T17:08:41.827   2216500490.927
RECEIVE_FREQ_1 =   2022-11-22T17:08:52.282   2216500489.327
RECEIVE_FREQ_1 =   2022-11-22T17:09:02.736   2216500487.727
RECEIVE_FREQ_1 =   2022-11-22T17:09:13.277   2216500486.327
RECEIVE_FREQ_1 =   2022-11-22T17:09:23.731   2216500485.227
RECEIVE_FREQ_1 =   2022-11-22T17:09:34.186   2216500483.627
RECEIVE_FREQ_1 =   2022-11-22T17:09:44.640   2216500482.227
RECEIVE_FREQ_1 =   2022-11-22T17:09:55.181   2216500480.527
RECEIVE_FREQ_1 =   2022-11-22T17:10:05.635   2216500479.427
RECEIVE_FREQ_1 =   2022-11-22T17:10:16.090   2216500478.327
RECEIVE_FREQ_1 =   2022-11-22T17:10:26.544   2216500476.627
RECEIVE_FREQ_1 =   2022-11-22T17:10:57.994   2216500471.527
RECEIVE_FREQ_1 =   2022-11-22T17:11:08.448   2216500470.527
RECEIVE_FREQ_1 =   2022-11-22T17:11:18.989   2216500469.127
RECEIVE_FREQ_1 =   2022-11-22T17:11:29.443   2216500467.527
RECEIVE_FREQ_1 =   2022-11-22T17:11:50.438   2216500464.727
RECEIVE_FREQ_1 =   2022-11-22T17:12:11.520   2216500462.127
RECEIVE_FREQ_1 =   2022-11-22T17:12:21.974   2216500460.327
RECEIVE_FREQ_1 =   2022-11-22T17:12:32.515   2216500459.027
RECEIVE_FREQ_1 =   2022-11-22T17:12:42.970   2216500457.527
RECEIVE_FREQ_1 =   2022-11-22T17:12:53.510   2216500456.027
RECEIVE_FREQ_1 =   2022-11-22T17:13:04.051   2216500454.627
RECEIVE_FREQ_1 =   2022-11-22T17:13:14.506   2216500453.427
RECEIVE_FREQ_1 =   2022-11-22T17:13:25.046   2216500451.527
RECEIVE_FREQ_1 =   2022-11-22T17:13:35.587   2216500450.427
RECEIVE_FREQ_1 =   2022-11-22T17:13:46.042   2216500448.727
RECEIVE_FREQ_1 =   2022-11-22T17:13:56.496   2216500447.627
RECEIVE_FREQ_1 =   2022-11-22T17:14:07.037   2216500446.527
RECEIVE_FREQ_1 =   2022-11-22T17:14:17.491   2216500444.227
RECEIVE_FREQ_1 =   2022-11-22T17:14:27.946   2216500442.527
RECEIVE_FREQ_1 =   2022-11-22T17:14:38.486   2216500441.527
RECEIVE_FREQ_1 =   2022-11-22T17:14:59.482   2216500438.527
RECEIVE_FREQ_1 =   2022-11-22T17:15:09.936   2216500437.227
RECEIVE_FREQ_1 =   2022-11-22T17:15:20.477   2216500435.927
RECEIVE_FREQ_1 =   2022-11-22T17:15:30.931   2216500434.327
RECEIVE_FREQ_1 =   2022-11-22T17:15:41.472   2216500433.127
RECEIVE_FREQ_1 =   2022-11-22T17:16:02.467   2216500430.027
RECEIVE_FREQ_1 =   2022-11-22T17:16:34.003   2216500425.627
RECEIVE_FREQ_1 =   2022-11-22T17:16:44.458   2216500424.127
RECEIVE_FREQ_1 =   2022-11-22T17:16:54.998   2216500422.927
RECEIVE_FREQ_1 =   2022-11-22T17:17:05.453   2216500421.227
RECEIVE_FREQ_1 =   2022-11-22T17:17:15.907   2216500419.327
RECEIVE_FREQ_1 =   2022-11-22T17:17:26.448   2216500417.927
RECEIVE_FREQ_1 =   2022-11-22T17:17:36.902   2216500416.427
RECEIVE_FREQ_1 =   2022-11-22T17:17:47.357   2216500414.727
RECEIVE_FREQ_1 =   2022-11-22T17:17:57.898   2216500413.527
RECEIVE_FREQ_1 =   2022-11-22T17:18:08.352   2216500412.727
RECEIVE_FREQ_1 =   2022-11-22T17:18:18.893   2216500410.727
RECEIVE_FREQ_1 =   2022-11-22T17:18:29.347   2216500409.427
RECEIVE_FREQ_1 =   2022-11-22T17:18:39.888   2216500408.227
RECEIVE_FREQ_1 =   2022-11-22T17:18:50.429   2216500407.527
RECEIVE_FREQ_1 =   2022-11-22T17:19:00.883   2216500404.927
RECEIVE_FREQ_1 =   2022-11-22T17:19:11.424   2216500403.227
RECEIVE_FREQ_1 =   2022-11-22T17:19:21.878   2216500401.627
RECEIVE_FREQ_1 =   2022-11-22T17:19:42.787   2216500398.727
RECEIVE_FREQ_1 =   2022-11-22T17:19:53.328   2216500397.427
RECEIVE_FREQ_1 =   2022-11-22T17:20:03.782   2216500395.927
RECEIVE_FREQ_1 =   2022-11-22T17:20:14.237   2216500394.227
RECEIVE_FREQ_1 =   2022-11-22T17:20:24.691   2216500393.027
RECEIVE_FREQ_1 =   2022-11-22T17:20:35.232   2216500391.227
RECEIVE_FREQ_1 =   2022-11-22T17:20:56.141   2216500388.527
RECEIVE_FREQ_1 =   2022-11-22T17:21:06.682   2216500387.027
RECEIVE_FREQ_1 =   2022-11-22T17:21:17.136   2216500385.427
RECEIVE_FREQ_1 =   2022-11-22T17:21:27.590   2216500383.927
RECEIVE_FREQ_1 =   2022-11-22T17:21:48.586   2216500381.027
RECEIVE_FREQ_1 =   2022-11-22T17:21:59.126   2216500379.127
RECEIVE_FREQ_1 =   2022-11-22T17:22:09.581   2216500377.827
RECEIVE_FREQ_1 =   2022-11-22T17:22:20.122   2216500376.527
RECEIVE_FREQ_1 =   2022-11-22T17:22:30.576   2216500374.827
RECEIVE_FREQ_1 =   2022-11-22T17:22:41.030   2216500373.927
RECEIVE_FREQ_1 =   2022-11-22T17:23:02.026   2216500370.327
RECEIVE_FREQ_1 =   2022-11-22T17:23:12.566   2216500368.827
RECEIVE_FREQ_1 =   2022-11-22T17:23:23.021   2216500367.527
RECEIVE_FREQ_1 =   2022-11-22T17:23:43.930   2216500363.927
RECEIVE_FREQ_1 =   2022-11-22T17:24:05.011   2216500361.427
RECEIVE_FREQ_1 =   2022-11-22T17:24:15.552   2216500359.527
RECEIVE_FREQ_1 =   2022-11-22T17:24:57.542   2216500353.527
RECEIVE_FREQ_1 =   2022-11-22T17:26:00.614   2216500343.627
RECEIVE_FREQ_1 =   2022-11-22T17:27:13.968   2216500334.027
RECEIVE_FREQ_1 =   2022-11-22T17:27:24.422   2216500332.527
RECEIVE_FREQ_1 =   2022-11-22T17:27:45.418   2216500329.127
RECEIVE_FREQ_1 =   2022-11-22T17:27:55.872   2216500328.027
RECEIVE_FREQ_1 =   2022-11-22T17:28:06.326   2216500325.927
RECEIVE_FREQ_1 =   2022-11-22T17:28:16.781   2216500324.527
RECEIVE_FREQ_1 =   2022-11-22T17:29:51.302   2216500311.827
RECEIVE_FREQ_1 =   2022-11-22T17:30:12.298   2216500308.927
RECEIVE_FREQ_1 =   2022-11-22T17:30:33.206   2216500304.827
RECEIVE_FREQ_1 =   2022-11-22T17:30:43.747   2216500303.327
RECEIVE_FREQ_1 =   2022-11-22T17:30:54.202   2216500301.627
RECEIVE_FREQ_1 =   2022-11-22T17:31:36.019   2216500295.327
RECEIVE_FREQ_1 =   2022-11-22T17:31:46.474   2216500293.927
RECEIVE_FREQ_1 =   2022-11-22T17:32:17.923   2216500289.027
RECEIVE_FREQ_1 =   2022-11-22T17:32:38.832   2216500286.327
RECEIVE_FREQ_1 =   2022-11-22T17:32:49.373   2216500284.527
RECEIVE_FREQ_1 =   2022-11-22T17:33:52.186   2216500274.827
RECEIVE_FREQ_1 =   2022-11-22T17:34:02.640   2216500273.627
RECEIVE_FREQ_1 =   2022-11-22T17:35:36.557   2216500261.327
RECEIVE_FREQ_1 =   2022-11-22T17:36:07.920   2216500255.927
RECEIVE_FREQ_1 =   2022-11-22T17:36:39.283   2216500251.327
RECEIVE_FREQ_1 =   2022-11-22T17:37:31.555   2216500244.227
RECEIVE_FREQ_1 =   2022-11-22T17:37:31.555   2216500244.227
RECEIVE_FREQ_1 =   2022-11-22T17:37:42.096   2216500242.327
RECEIVE_FREQ_1 =   2022-11-22T17:37:52.550   2216500241.127
RECEIVE_FREQ_1 =   2022-11-22T17:38:03.005   2216500239.527
RECEIVE_FREQ_1 =   2022-11-22T17:38:13.459   2216500238.027
RECEIVE_FREQ_1 =   2022-11-22T17:38:23.914   2216500236.627
RECEIVE_FREQ_1 =   2022-11-22T17:38:34.368   2216500235.027
RECEIVE_FREQ_1 =   2022-11-22T17:38:44.736   2216500233.327
RECEIVE_FREQ_1 =   2022-11-22T17:38:55.277   2216500232.227
RECEIVE_FREQ_1 =   2022-11-22T17:39:05.731   2216500230.627
RECEIVE_FREQ_1 =   2022-11-22T17:39:16.186   2216500229.227
RECEIVE_FREQ_1 =   2022-11-22T17:39:26.554   2216500227.627
RECEIVE_FREQ_1 =   2022-11-22T17:39:37.008   2216500226.027
RECEIVE_FREQ_1 =   2022-11-22T17:39:47.462   2216500224.627
RECEIVE_FREQ_1 =   2022-11-22T17:39:57.917   2216500222.827
RECEIVE_FREQ_1 =   2022-11-22T17:40:08.371   2216500221.527
RECEIVE_FREQ_1 =   2022-11-22T17:40:18.826   2216500220.027
RECEIVE_FREQ_1 =   2022-11-22T17:40:29.280   2216500218.627
RECEIVE_FREQ_1 =   2022-11-22T17:40:39.734   2216500216.827
RECEIVE_FREQ_1 =   2022-11-22T17:40:50.275   2216500215.627
RECEIVE_FREQ_1 =   2022-11-22T17:41:00.730   2216500213.827
RECEIVE_FREQ_1 =   2022-11-22T17:41:11.184   2216500212.427
RECEIVE_FREQ_1 =   2022-11-22T17:41:21.638   2216500210.827
RECEIVE_FREQ_1 =   2022-11-22T17:41:32.093   2216500209.427
RECEIVE_FREQ_1 =   2022-11-22T17:41:42.547   2216500207.727
RECEIVE_FREQ_1 =   2022-11-22T17:41:53.002   2216500206.627
RECEIVE_FREQ_1 =   2022-11-22T17:42:03.456   2216500204.627
RECEIVE_FREQ_1 =   2022-11-22T17:42:13.910   2216500203.227
RECEIVE_FREQ_1 =   2022-11-22T17:42:24.365   2216500202.127
RECEIVE_FREQ_1 =   2022-11-22T17:42:34.819   2216500200.427
RECEIVE_FREQ_1 =   2022-11-22T17:42:45.274   2216500198.927
RECEIVE_FREQ_1 =   2022-11-22T17:42:55.728   2216500197.027
RECEIVE_FREQ_1 =   2022-11-22T17:43:06.182   2216500195.527
RECEIVE_FREQ_1 =   2022-11-22T17:43:16.637   2216500194.127
RECEIVE_FREQ_1 =   2022-11-22T17:43:27.091   2216500192.627
RECEIVE_FREQ_1 =   2022-11-22T17:43:37.546   2216500191.227
RECEIVE_FREQ_1 =   2022-11-22T17:43:47.914   2216500189.427
RECEIVE_FREQ_1 =   2022-11-22T17:43:58.368   2216500188.227
RECEIVE_FREQ_1 =   2022-11-22T17:44:08.822   2216500186.827
RECEIVE_FREQ_1 =   2022-11-22T17:44:19.277   2216500185.027
RECEIVE_FREQ_1 =   2022-11-22T17:44:29.731   2216500183.727
RECEIVE_FREQ_1 =   2022-11-22T17:44:40.186   2216500182.127
RECEIVE_FREQ_1 =   2022-11-22T17:44:50.640   2216500180.427
RECEIVE_FREQ_1 =   2022-11-22T17:45:01.094   2216500178.927
RECEIVE_FREQ_1 =   2022-11-22T17:45:11.549   2216500177.827
RECEIVE_FREQ_1 =   2022-11-22T17:45:22.003   2216500175.827
RECEIVE_FREQ_1 =   2022-11-22T17:45:32.458   2216500174.527
RECEIVE_FREQ_1 =   2022-11-22T17:45:42.912   2216500173.227
RECEIVE_FREQ_1 =   2022-11-22T17:45:53.366   2216500171.227
RECEIVE_FREQ_1 =   2022-11-22T17:46:03.821   2216500169.727
RECEIVE_FREQ_1 =   2022-11-22T17:46:14.362   2216500168.627
RECEIVE_FREQ_1 =   2022-11-22T17:46:24.816   2216500166.927
RECEIVE_FREQ_1 =   2022-11-22T17:46:35.270   2216500165.227
RECEIVE_FREQ_1 =   2022-11-22T17:46:45.725   2216500163.627
RECEIVE_FREQ_1 =   2022-11-22T17:46:56.179   2216500162.327
RECEIVE_FREQ_1 =   2022-11-22T17:47:06.634   2216500160.727
RECEIVE_FREQ_1 =   2022-11-22T17:47:17.088   2216500159.227
RECEIVE_FREQ_1 =   2022-11-22T17:47:27.542   2216500157.527
RECEIVE_FREQ_1 =   2022-11-22T17:47:37.997   2216500156.127
RECEIVE_FREQ_1 =   2022-11-22T17:47:48.451   2216500154.327
RECEIVE_FREQ_1 =   2022-11-22T17:47:58.906   2216500153.027
RECEIVE_FREQ_1 =   2022-11-22T17:48:09.360   2216500151.427
RECEIVE_FREQ_1 =   2022-11-22T17:48:19.901   2216500149.927
RECEIVE_FREQ_1 =   2022-11-22T17:48:30.355   2216500148.427
RECEIVE_FREQ_1 =   2022-11-22T17:48:40.810   2216500146.627
RECEIVE_FREQ_1 =   2022-11-22T17:48:51.264   2216500145.327
RECEIVE_FREQ_1 =   2022-11-22T17:49:01.718   2216500143.827
RECEIVE_FREQ_1 =   2022-11-22T17:49:12.173   2216500142.127
RECEIVE_FREQ_1 =   2022-11-22T17:49:22.627   2216500140.627
RECEIVE_FREQ_1 =   2022-11-22T17:49:33.082   2216500139.127
RECEIVE_FREQ_1 =   2022-11-22T17:49:43.536   2216500137.527
RECEIVE_FREQ_1 =   2022-11-22T17:49:53.990   2216500135.827
RECEIVE_FREQ_1 =   2022-11-22T17:50:04.445   2216500134.227
RECEIVE_FREQ_1 =   2022-11-22T17:50:14.899   2216500132.727
RECEIVE_FREQ_1 =   2022-11-22T17:50:25.354   2216500131.227
RECEIVE_FREQ_1 =   2022-11-22T17:50:35.808   2216500129.827
RECEIVE_FREQ_1 =   2022-11-22T17:50:46.262   2216500127.827
RECEIVE_FREQ_1 =   2022-11-22T17:50:56.717   2216500126.327
RECEIVE_FREQ_1 =   2022-11-22T17:51:07.171   2216500124.827
RECEIVE_FREQ_1 =   2022-11-22T17:51:17.626   2216500123.527
RECEIVE_FREQ_1 =   2022-11-22T17:51:28.080   2216500122.327
RECEIVE_FREQ_1 =   2022-11-22T17:51:38.534   2216500120.227
RECEIVE_FREQ_1 =   2022-11-22T17:51:48.989   2216500118.927
RECEIVE_FREQ_1 =   2022-11-22T17:51:59.443   2216500117.127
RECEIVE_FREQ_1 =   2022-11-22T17:52:09.811   2216500115.727
RECEIVE_FREQ_1 =   2022-11-22T17:52:20.352   2216500113.827
RECEIVE_FREQ_1 =   2022-11-22T17:52:30.806   2216500112.727
RECEIVE_FREQ_1 =   2022-11-22T17:52:41.174   2216500110.927
RECEIVE_FREQ_1 =   2022-11-22T17:52:51.715   2216500109.027
RECEIVE_FREQ_1 =   2022-11-22T17:53:02.170   2216500107.927
RECEIVE_FREQ_1 =   2022-11-22T17:53:12.624   2216500106.227
RECEIVE_FREQ_1 =   2022-11-22T17:53:23.078   2216500104.627
RECEIVE_FREQ_1 =   2022-11-22T17:53:33.533   2216500103.327
RECEIVE_FREQ_1 =   2022-11-22T17:53:43.987   2216500101.727
RECEIVE_FREQ_1 =   2022-11-22T17:53:54.442   2216500100.127
RECEIVE_FREQ_1 =   2022-11-22T17:54:04.896   2216500098.627
RECEIVE_FREQ_1 =   2022-11-22T17:54:15.350   2216500097.127
RECEIVE_FREQ_1 =   2022-11-22T17:54:25.805   2216500095.027
RECEIVE_FREQ_1 =   2022-11-22T17:54:36.346   2216500093.827
RECEIVE_FREQ_1 =   2022-11-22T17:54:46.800   2216500092.327
RECEIVE_FREQ_1 =   2022-11-22T17:54:57.254   2216500091.127
RECEIVE_FREQ_1 =   2022-11-22T17:55:18.163   2216500089.427
RECEIVE_FREQ_1 =   2022-11-22T17:56:31.344   2216500076.027
RECEIVE_FREQ_1 =   2022-11-22T17:56:41.885   2216500073.827
RECEIVE_FREQ_1 =   2022-11-22T17:57:02.794   2216500071.427
RECEIVE_FREQ_1 =   2022-11-22T17:57:44.611   2216500065.027
RECEIVE_FREQ_1 =   2022-11-22T17:58:05.606   2216500061.927
RECEIVE_FREQ_1 =   2022-11-22T17:58:16.061   2216500060.327
RECEIVE_FREQ_1 =   2022-11-22T17:58:36.970   2216500057.327
RECEIVE_FREQ_1 =   2022-11-22T17:58:47.424   2216500055.927
RECEIVE_FREQ_1 =   2022-11-22T17:58:47.424   2216500055.927
RECEIVE_FREQ_1 =   2022-11-22T17:59:08.419   2216500053.927
RECEIVE_FREQ_1 =   2022-11-22T18:13:15.830   2216499922.527
RECEIVE_FREQ_1 =   2022-11-22T18:13:36.739   2216499919.027
RECEIVE_FREQ_1 =   2022-11-22T18:13:57.734   2216499915.827
RECEIVE_FREQ_1 =   2022-11-22T18:14:18.643   2216499911.627
RECEIVE_FREQ_1 =   2022-11-22T18:16:34.637   2216499892.027
RECEIVE_FREQ_1 =   2022-11-22T18:17:26.995   2216499884.127
RECEIVE_FREQ_1 =   2022-11-22T18:17:37.450   2216499882.127
RECEIVE_FREQ_1 =   2022-11-22T18:17:47.904   2216499880.627
RECEIVE_FREQ_1 =   2022-11-22T18:18:19.354   2216499875.627
RECEIVE_FREQ_1 =   2022-11-22T18:18:50.803   2216499870.927
RECEIVE_FREQ_1 =   2022-11-22T18:19:32.621   2216499864.727
RECEIVE_FREQ_1 =   2022-11-22T18:19:42.989   2216499863.127
RECEIVE_FREQ_1 =   2022-11-22T18:20:35.261   2216499854.827
RECEIVE_FREQ_1 =   2022-11-22T18:21:06.624   2216499847.527
RECEIVE_FREQ_1 =   2022-11-22T18:21:37.987   2216499842.727
RECEIVE_FREQ_1 =   2022-11-22T18:22:40.800   2216499835.727
RECEIVE_FREQ_1 =   2022-11-22T18:22:51.254   2216499834.427
RECEIVE_FREQ_1 =   2022-11-22T18:23:01.709   2216499833.127
RECEIVE_FREQ_1 =   2022-11-22T18:23:12.163   2216499830.827
RECEIVE_FREQ_1 =   2022-11-22T18:23:43.526   2216499826.127
RECEIVE_FREQ_1 =   2022-11-22T18:23:53.981   2216499824.527
RECEIVE_FREQ_1 =   2022-11-22T18:24:56.707   2216499815.027
RECEIVE_FREQ_1 =   2022-11-22T18:25:07.075   2216499812.927
RECEIVE_FREQ_1 =   2022-11-22T18:25:17.530   2216499811.627
RECEIVE_FREQ_1 =   2022-11-22T18:25:27.984   2216499810.027
RECEIVE_FREQ_1 =   2022-11-22T18:25:38.438   2216499808.627
RECEIVE_FREQ_1 =   2022-11-22T18:25:48.979   2216499806.427
RECEIVE_FREQ_1 =   2022-11-22T18:25:59.434   2216499805.027
RECEIVE_FREQ_1 =   2022-11-22T18:26:09.888   2216499803.727
RECEIVE_FREQ_1 =   2022-11-22T18:26:20.429   2216499801.627
RECEIVE_FREQ_1 =   2022-11-22T18:26:30.883   2216499800.327
RECEIVE_FREQ_1 =   2022-11-22T18:26:41.338   2216499798.827
RECEIVE_FREQ_1 =   2022-11-22T18:26:51.792   2216499797.027
RECEIVE_FREQ_1 =   2022-11-22T18:27:02.246   2216499795.227
RECEIVE_FREQ_1 =   2022-11-22T18:27:12.787   2216499794.027
RECEIVE_FREQ_1 =   2022-11-22T18:27:23.242   2216499792.527
RECEIVE_FREQ_1 =   2022-11-22T18:27:33.696   2216499790.427
RECEIVE_FREQ_1 =   2022-11-22T18:27:44.150   2216499789.027
RECEIVE_FREQ_1 =   2022-11-22T18:27:54.605   2216499787.327
RECEIVE_FREQ_1 =   2022-11-22T18:28:05.059   2216499785.527
RECEIVE_FREQ_1 =   2022-11-22T18:28:15.514   2216499784.527
RECEIVE_FREQ_1 =   2022-11-22T18:28:25.882   2216499782.527
RECEIVE_FREQ_1 =   2022-11-22T18:28:36.336   2216499781.027
RECEIVE_FREQ_1 =   2022-11-22T18:28:46.790   2216499779.127
RECEIVE_FREQ_1 =   2022-11-22T18:28:57.331   2216499777.727
RECEIVE_FREQ_1 =   2022-11-22T18:29:07.786   2216499775.927
RECEIVE_FREQ_1 =   2022-11-22T18:29:18.240   2216499774.727
RECEIVE_FREQ_1 =   2022-11-22T18:29:28.694   2216499772.627
RECEIVE_FREQ_1 =   2022-11-22T18:29:39.149   2216499771.327
RECEIVE_FREQ_1 =   2022-11-22T18:29:49.603   2216499769.427
RECEIVE_FREQ_1 =   2022-11-22T18:30:00.144   2216499767.927
RECEIVE_FREQ_1 =   2022-11-22T18:30:10.598   2216499765.827
RECEIVE_FREQ_1 =   2022-11-22T18:30:21.053   2216499764.527
RECEIVE_FREQ_1 =   2022-11-22T18:30:31.507   2216499762.727
RECEIVE_FREQ_1 =   2022-11-22T18:30:41.962   2216499761.227
RECEIVE_FREQ_1 =   2022-11-22T18:30:52.416   2216499759.827
RECEIVE_FREQ_1 =   2022-11-22T18:31:02.957   2216499758.227
RECEIVE_FREQ_1 =   2022-11-22T18:31:13.411   2216499756.427
RECEIVE_FREQ_1 =   2022-11-22T18:31:23.866   2216499754.827
RECEIVE_FREQ_1 =   2022-11-22T18:31:34.320   2216499753.327
RECEIVE_FREQ_1 =   2022-11-22T18:31:44.774   2216499751.327
RECEIVE_FREQ_1 =   2022-11-22T18:31:55.229   2216499749.827
RECEIVE_FREQ_1 =   2022-11-22T18:32:05.770   2216499748.127
RECEIVE_FREQ_1 =   2022-11-22T18:32:16.224   2216499746.827
RECEIVE_FREQ_1 =   2022-11-22T18:32:26.678   2216499745.127
RECEIVE_FREQ_1 =   2022-11-22T18:32:37.133   2216499743.427
RECEIVE_FREQ_1 =   2022-11-22T18:32:47.587   2216499741.827
RECEIVE_FREQ_1 =   2022-11-22T18:32:58.042   2216499740.127
RECEIVE_FREQ_1 =   2022-11-22T18:33:08.582   2216499738.627
RECEIVE_FREQ_1 =   2022-11-22T18:40:17.386   2216499670.927
RECEIVE_FREQ_1 =   2022-11-22T18:40:27.840   2216499669.727
RECEIVE_FREQ_1 =   2022-11-22T18:40:38.381   2216499668.027
RECEIVE_FREQ_1 =   2022-11-22T18:40:48.835   2216499666.427
RECEIVE_FREQ_1 =   2022-11-22T18:40:59.290   2216499664.527
RECEIVE_FREQ_1 =   2022-11-22T18:41:09.744   2216499663.627
RECEIVE_FREQ_1 =   2022-11-22T18:41:20.198   2216499661.427
RECEIVE_FREQ_1 =   2022-11-22T18:41:30.739   2216499659.727
RECEIVE_FREQ_1 =   2022-11-22T18:41:41.194   2216499658.627
RECEIVE_FREQ_1 =   2022-11-22T18:41:51.648   2216499656.627
RECEIVE_FREQ_1 =   2022-11-22T18:42:02.102   2216499654.427
RECEIVE_FREQ_1 =   2022-11-22T18:42:12.557   2216499653.527
RECEIVE_FREQ_1 =   2022-11-22T18:42:23.011   2216499651.827
RECEIVE_FREQ_1 =   2022-11-22T18:42:33.552   2216499649.827
RECEIVE_FREQ_1 =   2022-11-22T18:42:44.006   2216499648.227
RECEIVE_FREQ_1 =   2022-11-22T18:42:54.461   2216499647.027
RECEIVE_FREQ_1 =   2022-11-22T18:43:04.915   2216499645.127
RECEIVE_FREQ_1 =   2022-11-22T18:43:15.370   2216499643.127
RECEIVE_FREQ_1 =   2022-11-22T18:43:25.824   2216499641.827
RECEIVE_FREQ_1 =   2022-11-22T18:43:36.278   2216499640.427
RECEIVE_FREQ_1 =   2022-11-22T18:43:46.733   2216499638.327
RECEIVE_FREQ_1 =   2022-11-22T18:43:57.187   2216499636.727
RECEIVE_FREQ_1 =   2022-11-22T18:44:07.642   2216499635.227
RECEIVE_FREQ_1 =   2022-11-22T18:44:18.096   2216499633.727
RECEIVE_FREQ_1 =   2022-11-22T18:44:28.550   2216499632.127
RECEIVE_FREQ_1 =   2022-11-22T18:44:38.918   2216499629.827
RECEIVE_FREQ_1 =   2022-11-22T18:44:49.373   2216499628.727
RECEIVE_FREQ_1 =   2022-11-22T18:44:59.827   2216499626.827
RECEIVE_FREQ_1 =   2022-11-22T18:45:10.368   2216499625.427
RECEIVE_FREQ_1 =   2022-11-22T18:45:20.822   2216499623.627
RECEIVE_FREQ_1 =   2022-11-22T18:45:31.277   2216499622.027
RECEIVE_FREQ_1 =   2022-11-22T18:45:41.731   2216499620.227
RECEIVE_FREQ_1 =   2022-11-22T18:45:52.272   2216499618.527
RECEIVE_FREQ_1 =   2022-11-22T18:46:02.726   2216499616.927
RECEIVE_FREQ_1 =   2022-11-22T18:46:13.181   2216499615.427
RECEIVE_FREQ_1 =   2022-11-22T18:46:23.635   2216499613.827
RECEIVE_FREQ_1 =   2022-11-22T18:46:34.176   2216499612.427
RECEIVE_FREQ_1 =   2022-11-22T18:46:44.630   2216499610.527
RECEIVE_FREQ_1 =   2022-11-22T18:46:55.085   2216499608.727
RECEIVE_FREQ_1 =   2022-11-22T18:47:05.539   2216499607.427
RECEIVE_FREQ_1 =   2022-11-22T18:47:15.994   2216499605.427
RECEIVE_FREQ_1 =   2022-11-22T18:47:26.448   2216499604.227
RECEIVE_FREQ_1 =   2022-11-22T18:47:36.902   2216499601.927
RECEIVE_FREQ_1 =   2022-11-22T18:47:47.357   2216499600.427
RECEIVE_FREQ_1 =   2022-11-22T18:47:57.811   2216499599.027
RECEIVE_FREQ_1 =   2022-11-22T18:48:08.352   2216499597.027
RECEIVE_FREQ_1 =   2022-11-22T18:48:18.806   2216499595.827
RECEIVE_FREQ_1 =   2022-11-22T18:48:29.261   2216499594.127
RECEIVE_FREQ_1 =   2022-11-22T18:48:39.802   2216499592.227
RECEIVE_FREQ_1 =   2022-11-22T18:48:50.256   2216499590.627
RECEIVE_FREQ_1 =   2022-11-22T18:49:00.710   2216499589.227
RECEIVE_FREQ_1 =   2022-11-22T18:49:11.165   2216499587.427
RECEIVE_FREQ_1 =   2022-11-22T18:49:21.619   2216499585.727
RECEIVE_FREQ_1 =   2022-11-22T18:49:32.074   2216499583.927
RECEIVE_FREQ_1 =   2022-11-22T18:49:42.528   2216499582.327
RECEIVE_FREQ_1 =   2022-11-22T18:49:52.982   2216499580.927
RECEIVE_FREQ_1 =   2022-11-22T18:50:03.437   2216499579.227
RECEIVE_FREQ_1 =   2022-11-22T18:50:03.437   2216499579.227
RECEIVE_FREQ_1 =   2022-11-22T18:50:13.891   2216499577.127
RECEIVE_FREQ_1 =   2022-11-22T18:50:24.346   2216499575.727
RECEIVE_FREQ_1 =   2022-11-22T18:50:34.800   2216499573.827
RECEIVE_FREQ_1 =   2022-11-22T18:50:45.341   2216499572.127
RECEIVE_FREQ_1 =   2022-11-22T18:50:55.795   2216499571.127
RECEIVE_FREQ_1 =   2022-11-22T18:51:06.250   2216499569.127
RECEIVE_FREQ_1 =   2022-11-22T18:51:16.704   2216499567.427
RECEIVE_FREQ_1 =   2022-11-22T18:51:27.158   2216499566.027
RECEIVE_FREQ_1 =   2022-11-22T18:51:37.613   2216499564.327
RECEIVE_FREQ_1 =   2022-11-22T18:51:48.067   2216499562.627
RECEIVE_FREQ_1 =   2022-11-22T18:51:58.522   2216499561.027
RECEIVE_FREQ_1 =   2022-11-22T18:52:09.062   2216499559.127
RECEIVE_FREQ_1 =   2022-11-22T18:52:19.517   2216499557.427
RECEIVE_FREQ_1 =   2022-11-22T18:52:29.971   2216499555.727
RECEIVE_FREQ_1 =   2022-11-22T18:52:40.512   2216499554.327
RECEIVE_FREQ_1 =   2022-11-22T18:52:50.966   2216499552.627
