nasa/2022-11-17_2022-156A_ScottTilley.tdm

CCSDS_TDM_VERS = 2.0
COMMENT TDM ARTEMIS 1 Doppler data by Scott Tilley for 2022-11-17 UTC
COMMENT Signal not demodulated, to low of SNR, centre carrier integrated in 10s by 0.1Hz bin and extracted for peak value.
CREATION_DATE = 2022-11-20T02:53:37Z
ORIGINATOR = SCOTT TILLEY

META_START
COMMENT 
COMMENT 
SYSTEM TIME = UTC
PARTICIPANT_1 = COSPAR 8049
PARTICIPANT_2 = 2022-156A
MODE = SEQUENTIAL
PATH = 2,1
INTEGRATION_INTERVAL = 10
INTEGRATION_REF = MIDDLE
FREQ_OFFSET = 0
TRANSMIT_DELAY_1 = 0
RECEIVE_DELAY_1 = 0
DATA_QUALITY = RAW
META_STOP

DATA_START
COMMENT TRANSMIT_FREQ_2 is spacecraft downlink provided by NASA
TRANSMIT_FREQ_2 = 2216500000.000
RECEIVE_FREQ_1 =   2022-11-17T14:23:26.995   2216492158.1
RECEIVE_FREQ_1 =   2022-11-17T14:23:37.018   2216492157.7
RECEIVE_FREQ_1 =   2022-11-17T14:23:47.040   2216492157.1
RECEIVE_FREQ_1 =   2022-11-17T14:23:56.976   2216492156.4
RECEIVE_FREQ_1 =   2022-11-17T14:24:06.998   2216492155.9
RECEIVE_FREQ_1 =   2022-11-17T14:24:17.021   2216492155.3
RECEIVE_FREQ_1 =   2022-11-17T14:24:27.043   2216492154.7
RECEIVE_FREQ_1 =   2022-11-17T14:24:36.979   2216492154.3
RECEIVE_FREQ_1 =   2022-11-17T14:24:47.002   2216492153.5
RECEIVE_FREQ_1 =   2022-11-17T14:24:57.024   2216492152.9
RECEIVE_FREQ_1 =   2022-11-17T14:25:07.046   2216492152.5
RECEIVE_FREQ_1 =   2022-11-17T14:25:16.982   2216492151.8
RECEIVE_FREQ_1 =   2022-11-17T14:25:27.005   2216492151.2
RECEIVE_FREQ_1 =   2022-11-17T14:25:37.027   2216492150.7
RECEIVE_FREQ_1 =   2022-11-17T14:25:47.050   2216492150.1
RECEIVE_FREQ_1 =   2022-11-17T14:25:56.986   2216492149.5
RECEIVE_FREQ_1 =   2022-11-17T14:26:07.008   2216492149.3
RECEIVE_FREQ_1 =   2022-11-17T14:26:17.030   2216492148.8
RECEIVE_FREQ_1 =   2022-11-17T14:26:27.053   2216492148.5
RECEIVE_FREQ_1 =   2022-11-17T14:26:37.075   2216492147.9
RECEIVE_FREQ_1 =   2022-11-17T14:26:47.011   2216492147.4
RECEIVE_FREQ_1 =   2022-11-17T14:26:57.034   2216492147.1
RECEIVE_FREQ_1 =   2022-11-17T14:27:07.056   2216492146.3
RECEIVE_FREQ_1 =   2022-11-17T14:27:16.992   2216492146.0
RECEIVE_FREQ_1 =   2022-11-17T14:27:27.014   2216492145.5
RECEIVE_FREQ_1 =   2022-11-17T14:27:37.037   2216492144.9
RECEIVE_FREQ_1 =   2022-11-17T14:27:47.059   2216492144.6
RECEIVE_FREQ_1 =   2022-11-17T14:27:56.995   2216492144.2
RECEIVE_FREQ_1 =   2022-11-17T14:28:17.040   2216492143.1
RECEIVE_FREQ_1 =   2022-11-17T14:28:27.062   2216492142.6
RECEIVE_FREQ_1 =   2022-11-17T14:28:36.998   2216492142.3
RECEIVE_FREQ_1 =   2022-11-17T14:28:47.021   2216492141.7
RECEIVE_FREQ_1 =   2022-11-17T14:28:57.043   2216492141.0
RECEIVE_FREQ_1 =   2022-11-17T14:29:07.066   2216492140.6
RECEIVE_FREQ_1 =   2022-11-17T14:29:17.002   2216492140.2
RECEIVE_FREQ_1 =   2022-11-17T14:29:27.024   2216492139.7
RECEIVE_FREQ_1 =   2022-11-17T14:29:37.046   2216492139.2
RECEIVE_FREQ_1 =   2022-11-17T14:29:46.982   2216492138.7
RECEIVE_FREQ_1 =   2022-11-17T14:29:57.005   2216492138.2
RECEIVE_FREQ_1 =   2022-11-17T14:30:07.027   2216492137.4
RECEIVE_FREQ_1 =   2022-11-17T14:30:17.050   2216492137.2
RECEIVE_FREQ_1 =   2022-11-17T14:30:26.986   2216492136.6
RECEIVE_FREQ_1 =   2022-11-17T14:30:37.008   2216492135.9
RECEIVE_FREQ_1 =   2022-11-17T14:30:47.030   2216492135.7
RECEIVE_FREQ_1 =   2022-11-17T14:30:57.053   2216492134.9
RECEIVE_FREQ_1 =   2022-11-17T14:31:06.989   2216492134.6
RECEIVE_FREQ_1 =   2022-11-17T14:31:17.011   2216492134.2
RECEIVE_FREQ_1 =   2022-11-17T14:31:27.034   2216492133.3
RECEIVE_FREQ_1 =   2022-11-17T14:31:37.056   2216492133.1
RECEIVE_FREQ_1 =   2022-11-17T14:31:46.992   2216492132.4
RECEIVE_FREQ_1 =   2022-11-17T14:31:57.014   2216492131.9
RECEIVE_FREQ_1 =   2022-11-17T14:32:07.037   2216492131.5
RECEIVE_FREQ_1 =   2022-11-17T14:32:16.973   2216492131.0
RECEIVE_FREQ_1 =   2022-11-17T14:32:26.995   2216492130.3
RECEIVE_FREQ_1 =   2022-11-17T14:33:47.002   2216492125.7
RECEIVE_FREQ_1 =   2022-11-17T14:33:57.024   2216492125.5
RECEIVE_FREQ_1 =   2022-11-17T14:34:57.072   2216492122.0
RECEIVE_FREQ_1 =   2022-11-17T14:35:36.989   2216492119.8
RECEIVE_FREQ_1 =   2022-11-17T14:36:47.059   2216492116.1
RECEIVE_FREQ_1 =   2022-11-17T14:37:07.018   2216492114.7
RECEIVE_FREQ_1 =   2022-11-17T14:37:17.040   2216492114.1
RECEIVE_FREQ_1 =   2022-11-17T14:37:47.021   2216492112.3
RECEIVE_FREQ_1 =   2022-11-17T14:37:57.043   2216492111.7
RECEIVE_FREQ_1 =   2022-11-17T14:38:07.066   2216492110.9
RECEIVE_FREQ_1 =   2022-11-17T14:38:27.024   2216492109.9
RECEIVE_FREQ_1 =   2022-11-17T14:38:37.046   2216492109.3
RECEIVE_FREQ_1 =   2022-11-17T14:38:57.005   2216492108.1
RECEIVE_FREQ_1 =   2022-11-17T14:39:07.027   2216492107.6
RECEIVE_FREQ_1 =   2022-11-17T14:39:37.008   2216492105.8
RECEIVE_FREQ_1 =   2022-11-17T14:39:47.030   2216492105.2
RECEIVE_FREQ_1 =   2022-11-17T14:39:47.030   2216492105.2
RECEIVE_FREQ_1 =   2022-11-17T14:40:17.011   2216492103.1
RECEIVE_FREQ_1 =   2022-11-17T14:40:46.992   2216492101.2
RECEIVE_FREQ_1 =   2022-11-17T14:41:26.995   2216492098.9
RECEIVE_FREQ_1 =   2022-11-17T14:41:57.062   2216492096.7
RECEIVE_FREQ_1 =   2022-11-17T14:42:06.998   2216492096.1
RECEIVE_FREQ_1 =   2022-11-17T14:42:27.043   2216492094.9
RECEIVE_FREQ_1 =   2022-11-17T14:42:37.066   2216492094.2
RECEIVE_FREQ_1 =   2022-11-17T14:42:47.002   2216492093.6
RECEIVE_FREQ_1 =   2022-11-17T14:42:57.024   2216492093.0
RECEIVE_FREQ_1 =   2022-11-17T14:43:07.046   2216492092.2
RECEIVE_FREQ_1 =   2022-11-17T14:43:27.005   2216492091.1
RECEIVE_FREQ_1 =   2022-11-17T14:43:37.027   2216492090.1
RECEIVE_FREQ_1 =   2022-11-17T14:43:47.050   2216492089.6
RECEIVE_FREQ_1 =   2022-11-17T14:43:57.072   2216492089.1
RECEIVE_FREQ_1 =   2022-11-17T14:44:07.008   2216492088.1
RECEIVE_FREQ_1 =   2022-11-17T14:44:17.030   2216492087.8
RECEIVE_FREQ_1 =   2022-11-17T14:44:27.053   2216492087.2
RECEIVE_FREQ_1 =   2022-11-17T14:44:57.034   2216492085.2
RECEIVE_FREQ_1 =   2022-11-17T14:45:16.992   2216492083.7
RECEIVE_FREQ_1 =   2022-11-17T14:45:27.014   2216492082.8
RECEIVE_FREQ_1 =   2022-11-17T14:45:37.037   2216492082.3
RECEIVE_FREQ_1 =   2022-11-17T14:45:47.059   2216492081.4
RECEIVE_FREQ_1 =   2022-11-17T14:46:07.018   2216492080.3
RECEIVE_FREQ_1 =   2022-11-17T14:47:47.069   2216492073.5
RECEIVE_FREQ_1 =   2022-11-17T14:47:57.005   2216492073.0
RECEIVE_FREQ_1 =   2022-11-17T14:48:07.027   2216492072.7
RECEIVE_FREQ_1 =   2022-11-17T14:48:27.072   2216492071.1
RECEIVE_FREQ_1 =   2022-11-17T14:48:37.008   2216492070.8
RECEIVE_FREQ_1 =   2022-11-17T14:48:57.053   2216492069.3
RECEIVE_FREQ_1 =   2022-11-17T14:49:06.989   2216492069.1
RECEIVE_FREQ_1 =   2022-11-17T14:49:17.011   2216492068.2
RECEIVE_FREQ_1 =   2022-11-17T14:49:27.034   2216492067.6
RECEIVE_FREQ_1 =   2022-11-17T14:49:37.056   2216492067.1
RECEIVE_FREQ_1 =   2022-11-17T14:49:57.014   2216492065.8
RECEIVE_FREQ_1 =   2022-11-17T14:50:07.037   2216492065.3
RECEIVE_FREQ_1 =   2022-11-17T14:50:17.059   2216492064.6
RECEIVE_FREQ_1 =   2022-11-17T14:50:26.995   2216492064.1
RECEIVE_FREQ_1 =   2022-11-17T14:50:37.018   2216492063.6
RECEIVE_FREQ_1 =   2022-11-17T14:50:47.040   2216492062.8
RECEIVE_FREQ_1 =   2022-11-17T14:50:57.062   2216492062.3
RECEIVE_FREQ_1 =   2022-11-17T14:51:06.998   2216492061.6
RECEIVE_FREQ_1 =   2022-11-17T14:51:17.021   2216492060.6
RECEIVE_FREQ_1 =   2022-11-17T14:51:27.043   2216492060.3
RECEIVE_FREQ_1 =   2022-11-17T14:51:47.002   2216492059.5
RECEIVE_FREQ_1 =   2022-11-17T14:51:57.024   2216492058.3
RECEIVE_FREQ_1 =   2022-11-17T14:52:37.027   2216492055.9
RECEIVE_FREQ_1 =   2022-11-17T14:53:07.008   2216492054.5
RECEIVE_FREQ_1 =   2022-11-17T14:53:36.989   2216492052.1
RECEIVE_FREQ_1 =   2022-11-17T14:53:47.011   2216492051.5
RECEIVE_FREQ_1 =   2022-11-17T14:54:16.992   2216492049.7
RECEIVE_FREQ_1 =   2022-11-17T14:54:56.995   2216492047.2
RECEIVE_FREQ_1 =   2022-11-17T14:55:07.018   2216492046.2
RECEIVE_FREQ_1 =   2022-11-17T14:55:17.040   2216492045.7
RECEIVE_FREQ_1 =   2022-11-17T14:55:27.062   2216492045.1
RECEIVE_FREQ_1 =   2022-11-17T14:55:36.998   2216492044.2
RECEIVE_FREQ_1 =   2022-11-17T14:55:47.021   2216492043.7
RECEIVE_FREQ_1 =   2022-11-17T14:55:57.043   2216492043.0
RECEIVE_FREQ_1 =   2022-11-17T14:56:06.979   2216492042.4
RECEIVE_FREQ_1 =   2022-11-17T14:56:17.002   2216492041.5
RECEIVE_FREQ_1 =   2022-11-17T14:56:27.024   2216492041.1
RECEIVE_FREQ_1 =   2022-11-17T14:56:37.046   2216492040.3
RECEIVE_FREQ_1 =   2022-11-17T14:56:46.982   2216492039.4
RECEIVE_FREQ_1 =   2022-11-17T14:56:57.005   2216492038.7
RECEIVE_FREQ_1 =   2022-11-17T14:57:07.027   2216492038.3
RECEIVE_FREQ_1 =   2022-11-17T14:57:17.050   2216492037.7
RECEIVE_FREQ_1 =   2022-11-17T14:57:26.986   2216492036.9
RECEIVE_FREQ_1 =   2022-11-17T14:57:37.008   2216492036.3
RECEIVE_FREQ_1 =   2022-11-17T14:57:47.030   2216492035.4
RECEIVE_FREQ_1 =   2022-11-17T14:57:57.053   2216492034.9
RECEIVE_FREQ_1 =   2022-11-17T14:58:06.989   2216492034.2
RECEIVE_FREQ_1 =   2022-11-17T14:58:17.011   2216492033.5
RECEIVE_FREQ_1 =   2022-11-17T14:58:27.034   2216492033.0
RECEIVE_FREQ_1 =   2022-11-17T14:58:37.056   2216492032.0
RECEIVE_FREQ_1 =   2022-11-17T14:58:46.992   2216492031.6
RECEIVE_FREQ_1 =   2022-11-17T14:58:57.014   2216492030.6
RECEIVE_FREQ_1 =   2022-11-17T14:59:07.037   2216492030.1
RECEIVE_FREQ_1 =   2022-11-17T14:59:17.059   2216492029.5
RECEIVE_FREQ_1 =   2022-11-17T14:59:26.995   2216492028.7
RECEIVE_FREQ_1 =   2022-11-17T14:59:37.018   2216492028.0
RECEIVE_FREQ_1 =   2022-11-17T14:59:47.040   2216492027.3
RECEIVE_FREQ_1 =   2022-11-17T14:59:57.062   2216492026.5
RECEIVE_FREQ_1 =   2022-11-17T15:00:06.998   2216492025.8
RECEIVE_FREQ_1 =   2022-11-17T15:00:17.021   2216492025.2
RECEIVE_FREQ_1 =   2022-11-17T15:00:27.043   2216492024.6
RECEIVE_FREQ_1 =   2022-11-17T15:00:27.043   2216492024.6
RECEIVE_FREQ_1 =   2022-11-17T15:00:37.066   2216492023.6
RECEIVE_FREQ_1 =   2022-11-17T15:00:47.002   2216492023.1
RECEIVE_FREQ_1 =   2022-11-17T15:00:57.024   2216492022.3
RECEIVE_FREQ_1 =   2022-11-17T15:01:07.046   2216492021.7
RECEIVE_FREQ_1 =   2022-11-17T15:01:17.069   2216492020.9
RECEIVE_FREQ_1 =   2022-11-17T15:01:27.005   2216492019.9
RECEIVE_FREQ_1 =   2022-11-17T15:01:37.027   2216492019.4
RECEIVE_FREQ_1 =   2022-11-17T15:01:47.050   2216492018.6
RECEIVE_FREQ_1 =   2022-11-17T15:01:57.072   2216492017.9
RECEIVE_FREQ_1 =   2022-11-17T15:02:07.008   2216492017.6
RECEIVE_FREQ_1 =   2022-11-17T15:02:17.030   2216492016.8
RECEIVE_FREQ_1 =   2022-11-17T15:02:27.053   2216492016.0
RECEIVE_FREQ_1 =   2022-11-17T15:02:36.989   2216492015.0
RECEIVE_FREQ_1 =   2022-11-17T15:02:47.011   2216492014.2
RECEIVE_FREQ_1 =   2022-11-17T15:02:57.034   2216492013.5
RECEIVE_FREQ_1 =   2022-11-17T15:03:07.056   2216492012.9
RECEIVE_FREQ_1 =   2022-11-17T15:03:16.992   2216492012.0
RECEIVE_FREQ_1 =   2022-11-17T15:03:27.014   2216492011.2
RECEIVE_FREQ_1 =   2022-11-17T15:03:37.037   2216492010.5
RECEIVE_FREQ_1 =   2022-11-17T15:03:47.059   2216492009.7
RECEIVE_FREQ_1 =   2022-11-17T15:03:56.995   2216492009.3
RECEIVE_FREQ_1 =   2022-11-17T15:04:07.018   2216492008.4
RECEIVE_FREQ_1 =   2022-11-17T15:04:17.040   2216492007.7
RECEIVE_FREQ_1 =   2022-11-17T15:04:27.062   2216492006.9
RECEIVE_FREQ_1 =   2022-11-17T15:04:36.998   2216492006.2
RECEIVE_FREQ_1 =   2022-11-17T15:04:47.021   2216492005.5
RECEIVE_FREQ_1 =   2022-11-17T15:04:57.043   2216492004.8
RECEIVE_FREQ_1 =   2022-11-17T15:05:07.066   2216492003.9
RECEIVE_FREQ_1 =   2022-11-17T15:05:17.002   2216492003.2
RECEIVE_FREQ_1 =   2022-11-17T15:05:27.024   2216492002.3
RECEIVE_FREQ_1 =   2022-11-17T15:05:37.046   2216492001.5
RECEIVE_FREQ_1 =   2022-11-17T15:05:46.982   2216492000.7
RECEIVE_FREQ_1 =   2022-11-17T15:05:57.005   2216492000.1
RECEIVE_FREQ_1 =   2022-11-17T15:06:07.027   2216491999.5
RECEIVE_FREQ_1 =   2022-11-17T15:06:17.050   2216491998.8
RECEIVE_FREQ_1 =   2022-11-17T15:06:26.986   2216491997.7
RECEIVE_FREQ_1 =   2022-11-17T15:06:37.008   2216491996.9
RECEIVE_FREQ_1 =   2022-11-17T15:06:47.030   2216491996.2
RECEIVE_FREQ_1 =   2022-11-17T15:06:57.053   2216491995.5
RECEIVE_FREQ_1 =   2022-11-17T15:07:06.989   2216491994.7
RECEIVE_FREQ_1 =   2022-11-17T15:07:17.011   2216491994.0
RECEIVE_FREQ_1 =   2022-11-17T15:07:27.034   2216491993.3
RECEIVE_FREQ_1 =   2022-11-17T15:07:37.056   2216491992.2
RECEIVE_FREQ_1 =   2022-11-17T15:07:47.078   2216491991.8
RECEIVE_FREQ_1 =   2022-11-17T15:07:57.014   2216491990.9
RECEIVE_FREQ_1 =   2022-11-17T15:08:07.037   2216491990.1
RECEIVE_FREQ_1 =   2022-11-17T15:08:17.059   2216491989.1
RECEIVE_FREQ_1 =   2022-11-17T15:08:26.995   2216491988.5
RECEIVE_FREQ_1 =   2022-11-17T15:08:37.018   2216491987.6
RECEIVE_FREQ_1 =   2022-11-17T15:08:47.040   2216491986.8
RECEIVE_FREQ_1 =   2022-11-17T15:08:57.062   2216491986.1
RECEIVE_FREQ_1 =   2022-11-17T15:09:06.998   2216491985.2
RECEIVE_FREQ_1 =   2022-11-17T15:09:17.021   2216491984.4
RECEIVE_FREQ_1 =   2022-11-17T15:09:27.043   2216491983.7
RECEIVE_FREQ_1 =   2022-11-17T15:09:36.979   2216491983.1
RECEIVE_FREQ_1 =   2022-11-17T15:09:47.002   2216491982.0
RECEIVE_FREQ_1 =   2022-11-17T15:09:57.024   2216491981.3
RECEIVE_FREQ_1 =   2022-11-17T15:10:07.046   2216491980.3
RECEIVE_FREQ_1 =   2022-11-17T15:10:17.069   2216491979.8
RECEIVE_FREQ_1 =   2022-11-17T15:10:27.005   2216491979.0
RECEIVE_FREQ_1 =   2022-11-17T15:10:37.027   2216491978.1
RECEIVE_FREQ_1 =   2022-11-17T15:10:47.050   2216491977.5
RECEIVE_FREQ_1 =   2022-11-17T15:10:56.986   2216491976.8
RECEIVE_FREQ_1 =   2022-11-17T15:11:07.008   2216491975.7
RECEIVE_FREQ_1 =   2022-11-17T15:11:17.030   2216491975.3
RECEIVE_FREQ_1 =   2022-11-17T15:11:27.053   2216491974.4
RECEIVE_FREQ_1 =   2022-11-17T15:11:36.989   2216491973.7
RECEIVE_FREQ_1 =   2022-11-17T15:11:47.011   2216491973.1
RECEIVE_FREQ_1 =   2022-11-17T15:11:57.034   2216491972.4
RECEIVE_FREQ_1 =   2022-11-17T15:12:07.056   2216491971.7
RECEIVE_FREQ_1 =   2022-11-17T15:12:16.992   2216491971.2
RECEIVE_FREQ_1 =   2022-11-17T15:12:27.014   2216491970.1
RECEIVE_FREQ_1 =   2022-11-17T15:12:37.037   2216491969.4
RECEIVE_FREQ_1 =   2022-11-17T15:12:47.059   2216491968.9
RECEIVE_FREQ_1 =   2022-11-17T15:12:56.995   2216491967.9
RECEIVE_FREQ_1 =   2022-11-17T15:13:07.018   2216491967.3
RECEIVE_FREQ_1 =   2022-11-17T15:13:17.040   2216491966.7
RECEIVE_FREQ_1 =   2022-11-17T15:13:26.976   2216491965.9
RECEIVE_FREQ_1 =   2022-11-17T15:13:36.998   2216491965.3
RECEIVE_FREQ_1 =   2022-11-17T15:13:47.021   2216491964.4
RECEIVE_FREQ_1 =   2022-11-17T15:13:57.043   2216491963.8
RECEIVE_FREQ_1 =   2022-11-17T15:14:06.979   2216491963.0
RECEIVE_FREQ_1 =   2022-11-17T15:14:17.002   2216491962.4
RECEIVE_FREQ_1 =   2022-11-17T15:14:27.024   2216491961.7
RECEIVE_FREQ_1 =   2022-11-17T15:14:37.046   2216491960.8
RECEIVE_FREQ_1 =   2022-11-17T15:15:47.030   2216491955.9
RECEIVE_FREQ_1 =   2022-11-17T15:16:57.014   2216491950.6
RECEIVE_FREQ_1 =   2022-11-17T15:17:37.018   2216491947.6
RECEIVE_FREQ_1 =   2022-11-17T15:18:06.998   2216491945.5
RECEIVE_FREQ_1 =   2022-11-17T15:18:57.024   2216491942.0
RECEIVE_FREQ_1 =   2022-11-17T15:19:17.069   2216491939.6
RECEIVE_FREQ_1 =   2022-11-17T15:19:37.027   2216491938.4
RECEIVE_FREQ_1 =   2022-11-17T15:19:57.072   2216491936.9
RECEIVE_FREQ_1 =   2022-11-17T15:20:07.008   2216491936.1
RECEIVE_FREQ_1 =   2022-11-17T15:20:36.989   2216491933.6
RECEIVE_FREQ_1 =   2022-11-17T15:20:47.011   2216491932.9
RECEIVE_FREQ_1 =   2022-11-17T15:21:16.992   2216491930.3
RECEIVE_FREQ_1 =   2022-11-17T15:21:37.037   2216491928.2
RECEIVE_FREQ_1 =   2022-11-17T15:21:56.995   2216491927.3
RECEIVE_FREQ_1 =   2022-11-17T15:22:27.062   2216491924.8
RECEIVE_FREQ_1 =   2022-11-17T15:22:36.998   2216491924.1
RECEIVE_FREQ_1 =   2022-11-17T15:22:47.021   2216491923.2
RECEIVE_FREQ_1 =   2022-11-17T15:22:57.043   2216491922.3
RECEIVE_FREQ_1 =   2022-11-17T15:23:07.066   2216491921.9
RECEIVE_FREQ_1 =   2022-11-17T15:23:17.002   2216491921.3
RECEIVE_FREQ_1 =   2022-11-17T15:23:37.046   2216491919.3
RECEIVE_FREQ_1 =   2022-11-17T15:23:46.982   2216491918.3
RECEIVE_FREQ_1 =   2022-11-17T15:23:57.005   2216491917.8
RECEIVE_FREQ_1 =   2022-11-17T15:24:17.050   2216491916.4
RECEIVE_FREQ_1 =   2022-11-17T15:24:26.986   2216491915.2
RECEIVE_FREQ_1 =   2022-11-17T15:24:47.030   2216491913.4
RECEIVE_FREQ_1 =   2022-11-17T15:24:57.053   2216491912.9
RECEIVE_FREQ_1 =   2022-11-17T15:25:06.989   2216491912.1
RECEIVE_FREQ_1 =   2022-11-17T15:26:37.018   2216491904.1
RECEIVE_FREQ_1 =   2022-11-17T15:26:47.040   2216491903.7
RECEIVE_FREQ_1 =   2022-11-17T15:26:56.976   2216491902.7
RECEIVE_FREQ_1 =   2022-11-17T15:27:06.998   2216491902.0
RECEIVE_FREQ_1 =   2022-11-17T15:27:17.021   2216491901.1
RECEIVE_FREQ_1 =   2022-11-17T15:27:27.043   2216491900.0
RECEIVE_FREQ_1 =   2022-11-17T15:27:36.979   2216491899.6
RECEIVE_FREQ_1 =   2022-11-17T15:27:47.002   2216491898.8
RECEIVE_FREQ_1 =   2022-11-17T15:27:57.024   2216491897.9
RECEIVE_FREQ_1 =   2022-11-17T15:28:07.046   2216491897.0
RECEIVE_FREQ_1 =   2022-11-17T15:28:16.982   2216491896.1
RECEIVE_FREQ_1 =   2022-11-17T15:28:27.005   2216491895.1
RECEIVE_FREQ_1 =   2022-11-17T15:28:37.027   2216491894.3
RECEIVE_FREQ_1 =   2022-11-17T15:28:47.050   2216491893.3
RECEIVE_FREQ_1 =   2022-11-17T15:28:56.986   2216491892.5
RECEIVE_FREQ_1 =   2022-11-17T15:29:07.008   2216491892.0
RECEIVE_FREQ_1 =   2022-11-17T15:29:17.030   2216491891.0
RECEIVE_FREQ_1 =   2022-11-17T15:29:27.053   2216491890.3
RECEIVE_FREQ_1 =   2022-11-17T15:29:36.989   2216491889.0
RECEIVE_FREQ_1 =   2022-11-17T15:29:47.011   2216491888.3
RECEIVE_FREQ_1 =   2022-11-17T15:29:57.034   2216491887.3
RECEIVE_FREQ_1 =   2022-11-17T15:30:07.056   2216491886.7
RECEIVE_FREQ_1 =   2022-11-17T15:30:16.992   2216491885.6
RECEIVE_FREQ_1 =   2022-11-17T15:30:27.014   2216491884.9
RECEIVE_FREQ_1 =   2022-11-17T15:30:37.037   2216491884.1
RECEIVE_FREQ_1 =   2022-11-17T15:30:47.059   2216491883.2
RECEIVE_FREQ_1 =   2022-11-17T15:30:56.995   2216491882.3
RECEIVE_FREQ_1 =   2022-11-17T15:31:07.018   2216491881.4
RECEIVE_FREQ_1 =   2022-11-17T15:31:17.040   2216491880.4
RECEIVE_FREQ_1 =   2022-11-17T15:31:26.976   2216491879.6
RECEIVE_FREQ_1 =   2022-11-17T15:31:36.998   2216491878.7
RECEIVE_FREQ_1 =   2022-11-17T15:31:47.021   2216491877.8
RECEIVE_FREQ_1 =   2022-11-17T15:31:57.043   2216491877.0
RECEIVE_FREQ_1 =   2022-11-17T15:32:06.979   2216491876.1
RECEIVE_FREQ_1 =   2022-11-17T15:32:17.002   2216491875.2
RECEIVE_FREQ_1 =   2022-11-17T15:32:27.024   2216491874.4
RECEIVE_FREQ_1 =   2022-11-17T15:32:37.046   2216491873.3
RECEIVE_FREQ_1 =   2022-11-17T15:32:46.982   2216491872.5
RECEIVE_FREQ_1 =   2022-11-17T15:32:57.005   2216491871.6
RECEIVE_FREQ_1 =   2022-11-17T15:33:07.027   2216491870.7
RECEIVE_FREQ_1 =   2022-11-17T15:33:17.050   2216491869.7
RECEIVE_FREQ_1 =   2022-11-17T15:33:26.986   2216491868.9
RECEIVE_FREQ_1 =   2022-11-17T15:33:37.008   2216491867.9
RECEIVE_FREQ_1 =   2022-11-17T15:33:47.030   2216491867.1
RECEIVE_FREQ_1 =   2022-11-17T15:33:57.053   2216491866.3
RECEIVE_FREQ_1 =   2022-11-17T15:34:06.989   2216491865.3
RECEIVE_FREQ_1 =   2022-11-17T15:34:17.011   2216491864.5
RECEIVE_FREQ_1 =   2022-11-17T15:34:27.034   2216491863.8
RECEIVE_FREQ_1 =   2022-11-17T15:34:37.056   2216491862.7
RECEIVE_FREQ_1 =   2022-11-17T15:34:46.992   2216491861.7
RECEIVE_FREQ_1 =   2022-11-17T15:34:57.014   2216491860.9
RECEIVE_FREQ_1 =   2022-11-17T15:35:07.037   2216491860.2
RECEIVE_FREQ_1 =   2022-11-17T15:35:17.059   2216491859.0
RECEIVE_FREQ_1 =   2022-11-17T15:35:26.995   2216491858.2
RECEIVE_FREQ_1 =   2022-11-17T15:35:37.018   2216491857.3
RECEIVE_FREQ_1 =   2022-11-17T15:35:47.040   2216491856.6
RECEIVE_FREQ_1 =   2022-11-17T15:35:56.976   2216491855.2
RECEIVE_FREQ_1 =   2022-11-17T15:36:06.998   2216491854.5
RECEIVE_FREQ_1 =   2022-11-17T15:36:17.021   2216491853.6
RECEIVE_FREQ_1 =   2022-11-17T15:36:27.043   2216491853.1
RECEIVE_FREQ_1 =   2022-11-17T15:36:36.979   2216491852.4
RECEIVE_FREQ_1 =   2022-11-17T15:36:47.002   2216491851.3
RECEIVE_FREQ_1 =   2022-11-17T15:36:57.024   2216491850.6
RECEIVE_FREQ_1 =   2022-11-17T15:37:07.046   2216491849.7
RECEIVE_FREQ_1 =   2022-11-17T15:37:16.982   2216491848.9
RECEIVE_FREQ_1 =   2022-11-17T15:37:27.005   2216491848.4
RECEIVE_FREQ_1 =   2022-11-17T15:37:37.027   2216491847.2
RECEIVE_FREQ_1 =   2022-11-17T15:37:47.050   2216491846.5
RECEIVE_FREQ_1 =   2022-11-17T15:37:56.986   2216491845.7
RECEIVE_FREQ_1 =   2022-11-17T15:38:07.008   2216491844.8
RECEIVE_FREQ_1 =   2022-11-17T15:38:17.030   2216491843.9
RECEIVE_FREQ_1 =   2022-11-17T15:38:27.053   2216491843.2
RECEIVE_FREQ_1 =   2022-11-17T15:38:36.989   2216491842.3
RECEIVE_FREQ_1 =   2022-11-17T15:38:47.011   2216491841.2
RECEIVE_FREQ_1 =   2022-11-17T15:38:57.034   2216491840.5
RECEIVE_FREQ_1 =   2022-11-17T15:39:07.056   2216491840.0
RECEIVE_FREQ_1 =   2022-11-17T15:39:16.992   2216491839.1
RECEIVE_FREQ_1 =   2022-11-17T15:39:27.014   2216491838.1
RECEIVE_FREQ_1 =   2022-11-17T15:39:37.037   2216491837.4
RECEIVE_FREQ_1 =   2022-11-17T15:39:47.059   2216491836.7
RECEIVE_FREQ_1 =   2022-11-17T15:39:56.995   2216491835.7
RECEIVE_FREQ_1 =   2022-11-17T15:40:07.018   2216491834.7
RECEIVE_FREQ_1 =   2022-11-17T15:40:17.040   2216491833.9
RECEIVE_FREQ_1 =   2022-11-17T15:40:27.062   2216491833.2
RECEIVE_FREQ_1 =   2022-11-17T15:40:36.998   2216491832.1
RECEIVE_FREQ_1 =   2022-11-17T15:40:47.021   2216491831.5
RECEIVE_FREQ_1 =   2022-11-17T15:40:57.043   2216491830.6
RECEIVE_FREQ_1 =   2022-11-17T15:41:06.979   2216491829.6
RECEIVE_FREQ_1 =   2022-11-17T15:41:17.002   2216491828.9
RECEIVE_FREQ_1 =   2022-11-17T15:41:27.024   2216491828.0
RECEIVE_FREQ_1 =   2022-11-17T15:41:37.046   2216491827.0
RECEIVE_FREQ_1 =   2022-11-17T15:41:47.069   2216491826.4
RECEIVE_FREQ_1 =   2022-11-17T15:41:57.005   2216491825.5
RECEIVE_FREQ_1 =   2022-11-17T15:42:07.027   2216491824.7
RECEIVE_FREQ_1 =   2022-11-17T15:42:17.050   2216491823.6
RECEIVE_FREQ_1 =   2022-11-17T15:42:26.986   2216491823.2
RECEIVE_FREQ_1 =   2022-11-17T15:42:37.008   2216491822.0
RECEIVE_FREQ_1 =   2022-11-17T15:42:47.030   2216491821.1
RECEIVE_FREQ_1 =   2022-11-17T15:42:57.053   2216491820.3
RECEIVE_FREQ_1 =   2022-11-17T15:43:06.989   2216491819.5
RECEIVE_FREQ_1 =   2022-11-17T15:43:17.011   2216491818.6
RECEIVE_FREQ_1 =   2022-11-17T15:43:27.034   2216491817.7
RECEIVE_FREQ_1 =   2022-11-17T15:43:37.056   2216491816.9
RECEIVE_FREQ_1 =   2022-11-17T15:43:46.992   2216491815.7
RECEIVE_FREQ_1 =   2022-11-17T15:43:57.014   2216491815.0
RECEIVE_FREQ_1 =   2022-11-17T15:44:07.037   2216491814.6
RECEIVE_FREQ_1 =   2022-11-17T15:44:17.059   2216491813.5
RECEIVE_FREQ_1 =   2022-11-17T15:44:26.995   2216491812.7
RECEIVE_FREQ_1 =   2022-11-17T15:44:37.018   2216491811.9
RECEIVE_FREQ_1 =   2022-11-17T15:44:56.976   2216491809.8
RECEIVE_FREQ_1 =   2022-11-17T15:45:17.021   2216491808.2
RECEIVE_FREQ_1 =   2022-11-17T15:45:36.979   2216491806.3
RECEIVE_FREQ_1 =   2022-11-17T15:45:57.024   2216491804.6
RECEIVE_FREQ_1 =   2022-11-17T15:46:07.046   2216491803.8
RECEIVE_FREQ_1 =   2022-11-17T15:46:16.982   2216491802.6
RECEIVE_FREQ_1 =   2022-11-17T15:46:27.005   2216491802.0
RECEIVE_FREQ_1 =   2022-11-17T15:46:37.027   2216491800.2
RECEIVE_FREQ_1 =   2022-11-17T15:46:47.050   2216491800.4
RECEIVE_FREQ_1 =   2022-11-17T15:46:56.986   2216491799.1
RECEIVE_FREQ_1 =   2022-11-17T15:47:27.053   2216491796.7
RECEIVE_FREQ_1 =   2022-11-17T15:47:36.989   2216491795.7
RECEIVE_FREQ_1 =   2022-11-17T15:47:57.034   2216491793.9
RECEIVE_FREQ_1 =   2022-11-17T15:48:27.014   2216491791.3
RECEIVE_FREQ_1 =   2022-11-17T15:48:37.037   2216491790.4
RECEIVE_FREQ_1 =   2022-11-17T15:48:56.995   2216491788.6
RECEIVE_FREQ_1 =   2022-11-17T15:49:07.018   2216491788.0
RECEIVE_FREQ_1 =   2022-11-17T15:49:26.976   2216491785.9
RECEIVE_FREQ_1 =   2022-11-17T15:49:36.998   2216491784.9
RECEIVE_FREQ_1 =   2022-11-17T15:49:47.021   2216491784.2
RECEIVE_FREQ_1 =   2022-11-17T15:50:27.024   2216491780.1
RECEIVE_FREQ_1 =   2022-11-17T15:50:37.046   2216491779.4
RECEIVE_FREQ_1 =   2022-11-17T15:50:47.069   2216491778.7
RECEIVE_FREQ_1 =   2022-11-17T15:51:17.050   2216491775.9
RECEIVE_FREQ_1 =   2022-11-17T15:51:37.008   2216491773.8
RECEIVE_FREQ_1 =   2022-11-17T15:51:57.053   2216491772.0
RECEIVE_FREQ_1 =   2022-11-17T15:52:06.989   2216491771.2
RECEIVE_FREQ_1 =   2022-11-17T15:52:17.011   2216491770.5
RECEIVE_FREQ_1 =   2022-11-17T15:53:17.059   2216491764.6
RECEIVE_FREQ_1 =   2022-11-17T15:53:47.040   2216491761.9
RECEIVE_FREQ_1 =   2022-11-17T15:54:06.998   2216491759.8
RECEIVE_FREQ_1 =   2022-11-17T15:54:37.066   2216491757.2
RECEIVE_FREQ_1 =   2022-11-17T15:54:47.002   2216491756.3
RECEIVE_FREQ_1 =   2022-11-17T15:55:16.982   2216491753.2
RECEIVE_FREQ_1 =   2022-11-17T15:55:37.027   2216491751.6
RECEIVE_FREQ_1 =   2022-11-17T15:56:07.008   2216491748.3
RECEIVE_FREQ_1 =   2022-11-17T15:56:17.030   2216491747.5
RECEIVE_FREQ_1 =   2022-11-17T15:56:27.053   2216491746.5
RECEIVE_FREQ_1 =   2022-11-17T15:56:36.989   2216491745.7
RECEIVE_FREQ_1 =   2022-11-17T15:56:47.011   2216491745.0
RECEIVE_FREQ_1 =   2022-11-17T15:56:47.011   2216491745.0
RECEIVE_FREQ_1 =   2022-11-17T15:56:57.034   2216491744.0
RECEIVE_FREQ_1 =   2022-11-17T15:57:07.056   2216491742.7
RECEIVE_FREQ_1 =   2022-11-17T15:57:16.992   2216491741.6
RECEIVE_FREQ_1 =   2022-11-17T15:57:37.037   2216491739.7
RECEIVE_FREQ_1 =   2022-11-17T15:57:46.973   2216491738.9
RECEIVE_FREQ_1 =   2022-11-17T15:57:56.995   2216491738.1
RECEIVE_FREQ_1 =   2022-11-17T15:58:07.018   2216491737.1
RECEIVE_FREQ_1 =   2022-11-17T15:58:17.040   2216491736.2
RECEIVE_FREQ_1 =   2022-11-17T15:58:36.998   2216491734.1
RECEIVE_FREQ_1 =   2022-11-17T15:58:47.021   2216491733.2
RECEIVE_FREQ_1 =   2022-11-17T15:58:57.043   2216491732.3
RECEIVE_FREQ_1 =   2022-11-17T15:59:06.979   2216491731.3
RECEIVE_FREQ_1 =   2022-11-17T15:59:17.002   2216491730.5
RECEIVE_FREQ_1 =   2022-11-17T15:59:27.024   2216491729.2
RECEIVE_FREQ_1 =   2022-11-17T15:59:37.046   2216491728.3
RECEIVE_FREQ_1 =   2022-11-17T15:59:46.982   2216491727.2
RECEIVE_FREQ_1 =   2022-11-17T15:59:57.005   2216491726.4
RECEIVE_FREQ_1 =   2022-11-17T16:00:07.027   2216491725.0
RECEIVE_FREQ_1 =   2022-11-17T16:00:17.050   2216491724.4
RECEIVE_FREQ_1 =   2022-11-17T16:00:26.986   2216491723.5
RECEIVE_FREQ_1 =   2022-11-17T16:00:37.008   2216491722.3
RECEIVE_FREQ_1 =   2022-11-17T16:00:47.030   2216491721.3
RECEIVE_FREQ_1 =   2022-11-17T16:00:57.053   2216491720.5
RECEIVE_FREQ_1 =   2022-11-17T16:01:06.989   2216491719.3
RECEIVE_FREQ_1 =   2022-11-17T16:01:17.011   2216491718.3
RECEIVE_FREQ_1 =   2022-11-17T16:01:27.034   2216491717.6
RECEIVE_FREQ_1 =   2022-11-17T16:01:37.056   2216491716.2
RECEIVE_FREQ_1 =   2022-11-17T16:01:46.992   2216491715.0
RECEIVE_FREQ_1 =   2022-11-17T16:01:57.014   2216491714.6
RECEIVE_FREQ_1 =   2022-11-17T16:02:07.037   2216491713.8
RECEIVE_FREQ_1 =   2022-11-17T16:02:17.059   2216491712.7
RECEIVE_FREQ_1 =   2022-11-17T16:02:26.995   2216491711.8
RECEIVE_FREQ_1 =   2022-11-17T16:02:37.018   2216491710.5
RECEIVE_FREQ_1 =   2022-11-17T16:02:47.040   2216491709.6
RECEIVE_FREQ_1 =   2022-11-17T16:02:56.976   2216491708.7
RECEIVE_FREQ_1 =   2022-11-17T16:03:06.998   2216491707.9
RECEIVE_FREQ_1 =   2022-11-17T16:03:17.021   2216491706.4
RECEIVE_FREQ_1 =   2022-11-17T16:03:27.043   2216491705.5
RECEIVE_FREQ_1 =   2022-11-17T16:03:37.066   2216491704.7
RECEIVE_FREQ_1 =   2022-11-17T16:03:47.002   2216491703.6
RECEIVE_FREQ_1 =   2022-11-17T16:03:57.024   2216491702.7
RECEIVE_FREQ_1 =   2022-11-17T16:04:07.046   2216491701.5
RECEIVE_FREQ_1 =   2022-11-17T16:04:16.982   2216491700.6
RECEIVE_FREQ_1 =   2022-11-17T16:04:27.005   2216491699.4
RECEIVE_FREQ_1 =   2022-11-17T16:04:47.050   2216491697.4
RECEIVE_FREQ_1 =   2022-11-17T16:05:07.008   2216491696.2
RECEIVE_FREQ_1 =   2022-11-17T16:05:37.075   2216491693.2
RECEIVE_FREQ_1 =   2022-11-17T16:05:47.011   2216491692.4
RECEIVE_FREQ_1 =   2022-11-17T16:05:57.034   2216491690.9
RECEIVE_FREQ_1 =   2022-11-17T16:06:27.014   2216491688.7
RECEIVE_FREQ_1 =   2022-11-17T16:06:47.059   2216491686.6
RECEIVE_FREQ_1 =   2022-11-17T16:06:56.995   2216491685.6
RECEIVE_FREQ_1 =   2022-11-17T16:07:07.018   2216491684.9
RECEIVE_FREQ_1 =   2022-11-17T16:07:36.998   2216491681.0
RECEIVE_FREQ_1 =   2022-11-17T16:07:57.043   2216491680.0
RECEIVE_FREQ_1 =   2022-11-17T16:08:07.066   2216491679.3
RECEIVE_FREQ_1 =   2022-11-17T16:08:27.024   2216491677.2
RECEIVE_FREQ_1 =   2022-11-17T16:08:46.982   2216491675.4
RECEIVE_FREQ_1 =   2022-11-17T16:08:57.005   2216491674.4
RECEIVE_FREQ_1 =   2022-11-17T16:09:17.050   2216491672.3
RECEIVE_FREQ_1 =   2022-11-17T16:09:37.008   2216491670.5
RECEIVE_FREQ_1 =   2022-11-17T16:10:17.011   2216491666.7
RECEIVE_FREQ_1 =   2022-11-17T16:10:37.056   2216491664.7
RECEIVE_FREQ_1 =   2022-11-17T16:10:57.014   2216491663.0
RECEIVE_FREQ_1 =   2022-11-17T16:11:26.995   2216491659.0
RECEIVE_FREQ_1 =   2022-11-17T16:11:57.062   2216491657.2
RECEIVE_FREQ_1 =   2022-11-17T16:13:07.046   2216491650.5
RECEIVE_FREQ_1 =   2022-11-17T16:13:47.050   2216491646.6
RECEIVE_FREQ_1 =   2022-11-17T16:14:36.989   2216491641.8
RECEIVE_FREQ_1 =   2022-11-17T16:14:47.011   2216491640.8
RECEIVE_FREQ_1 =   2022-11-17T16:15:07.056   2216491639.3
RECEIVE_FREQ_1 =   2022-11-17T16:15:37.037   2216491635.8
RECEIVE_FREQ_1 =   2022-11-17T16:16:17.040   2216491631.1
RECEIVE_FREQ_1 =   2022-11-17T16:16:36.998   2216491630.1
RECEIVE_FREQ_1 =   2022-11-17T16:16:57.043   2216491628.3
RECEIVE_FREQ_1 =   2022-11-17T16:17:17.002   2216491626.1
RECEIVE_FREQ_1 =   2022-11-17T16:17:37.046   2216491623.7
RECEIVE_FREQ_1 =   2022-11-17T16:17:47.069   2216491622.8
RECEIVE_FREQ_1 =   2022-11-17T16:17:57.005   2216491622.3
RECEIVE_FREQ_1 =   2022-11-17T16:18:26.986   2216491619.1
RECEIVE_FREQ_1 =   2022-11-17T16:18:47.030   2216491617.2
RECEIVE_FREQ_1 =   2022-11-17T16:19:37.056   2216491612.3
RECEIVE_FREQ_1 =   2022-11-17T16:19:46.992   2216491611.3
RECEIVE_FREQ_1 =   2022-11-17T16:19:57.014   2216491610.3
RECEIVE_FREQ_1 =   2022-11-17T16:20:07.037   2216491608.9
RECEIVE_FREQ_1 =   2022-11-17T16:20:17.059   2216491608.0
RECEIVE_FREQ_1 =   2022-11-17T16:20:26.995   2216491606.8
RECEIVE_FREQ_1 =   2022-11-17T16:20:37.018   2216491606.2
RECEIVE_FREQ_1 =   2022-11-17T16:20:47.040   2216491605.3
RECEIVE_FREQ_1 =   2022-11-17T16:21:06.998   2216491602.7
RECEIVE_FREQ_1 =   2022-11-17T16:21:17.021   2216491602.0
RECEIVE_FREQ_1 =   2022-11-17T16:21:27.043   2216491601.1
RECEIVE_FREQ_1 =   2022-11-17T16:21:37.066   2216491600.1
RECEIVE_FREQ_1 =   2022-11-17T16:22:16.982   2216491597.7
RECEIVE_FREQ_1 =   2022-11-17T16:22:27.005   2216491595.2
RECEIVE_FREQ_1 =   2022-11-17T16:23:17.030   2216491589.4
RECEIVE_FREQ_1 =   2022-11-17T16:23:27.053   2216491588.7
RECEIVE_FREQ_1 =   2022-11-17T16:23:36.989   2216491588.1
RECEIVE_FREQ_1 =   2022-11-17T16:24:16.992   2216491583.4
RECEIVE_FREQ_1 =   2022-11-17T16:24:27.014   2216491582.6
RECEIVE_FREQ_1 =   2022-11-17T16:24:37.037   2216491581.7
RECEIVE_FREQ_1 =   2022-11-17T16:25:17.040   2216491577.5
RECEIVE_FREQ_1 =   2022-11-17T16:25:57.043   2216491573.3
RECEIVE_FREQ_1 =   2022-11-17T16:26:17.002   2216491572.2
RECEIVE_FREQ_1 =   2022-11-17T16:26:27.024   2216491570.4
RECEIVE_FREQ_1 =   2022-11-17T16:26:37.046   2216491569.1
RECEIVE_FREQ_1 =   2022-11-17T16:26:57.005   2216491566.1
RECEIVE_FREQ_1 =   2022-11-17T16:27:26.986   2216491563.6
RECEIVE_FREQ_1 =   2022-11-17T16:27:57.053   2216491560.7
RECEIVE_FREQ_1 =   2022-11-17T16:28:06.989   2216491559.0
RECEIVE_FREQ_1 =   2022-11-17T16:28:27.034   2216491556.9
RECEIVE_FREQ_1 =   2022-11-17T16:28:57.014   2216491553.7
RECEIVE_FREQ_1 =   2022-11-17T16:29:17.059   2216491552.8
RECEIVE_FREQ_1 =   2022-11-17T16:29:26.995   2216491552.6
RECEIVE_FREQ_1 =   2022-11-17T16:29:47.040   2216491549.8
RECEIVE_FREQ_1 =   2022-11-17T16:29:57.062   2216491547.5
RECEIVE_FREQ_1 =   2022-11-17T16:30:27.043   2216491545.4
RECEIVE_FREQ_1 =   2022-11-17T16:30:37.066   2216491544.2
RECEIVE_FREQ_1 =   2022-11-17T16:31:16.982   2216491540.4
RECEIVE_FREQ_1 =   2022-11-17T16:32:27.053   2216491530.9
RECEIVE_FREQ_1 =   2022-11-17T16:34:07.018   2216491522.6
RECEIVE_FREQ_1 =   2022-11-17T16:34:36.998   2216491518.8
RECEIVE_FREQ_1 =   2022-11-17T16:34:47.021   2216491517.9
RECEIVE_FREQ_1 =   2022-11-17T16:36:17.050   2216491509.8
RECEIVE_FREQ_1 =   2022-11-17T16:37:36.970   2216491499.2
RECEIVE_FREQ_1 =   2022-11-17T16:40:56.986   2216491478.3
RECEIVE_FREQ_1 =   2022-11-17T16:41:36.989   2216491473.8
RECEIVE_FREQ_1 =   2022-11-17T16:41:57.034   2216491471.9
RECEIVE_FREQ_1 =   2022-11-17T16:42:27.014   2216491468.6
RECEIVE_FREQ_1 =   2022-11-17T16:42:37.037   2216491467.5
RECEIVE_FREQ_1 =   2022-11-17T16:42:56.995   2216491466.1
RECEIVE_FREQ_1 =   2022-11-17T16:43:17.040   2216491463.4
RECEIVE_FREQ_1 =   2022-11-17T16:43:27.062   2216491462.4
RECEIVE_FREQ_1 =   2022-11-17T16:43:47.021   2216491460.2
RECEIVE_FREQ_1 =   2022-11-17T16:44:06.979   2216491457.8
RECEIVE_FREQ_1 =   2022-11-17T16:44:37.046   2216491455.0
RECEIVE_FREQ_1 =   2022-11-17T16:44:57.005   2216491453.4
RECEIVE_FREQ_1 =   2022-11-17T16:45:26.986   2216491449.2
RECEIVE_FREQ_1 =   2022-11-17T16:45:37.008   2216491448.9
RECEIVE_FREQ_1 =   2022-11-17T16:46:17.011   2216491444.7
RECEIVE_FREQ_1 =   2022-11-17T16:46:37.056   2216491442.5
RECEIVE_FREQ_1 =   2022-11-17T16:47:07.037   2216491439.3
RECEIVE_FREQ_1 =   2022-11-17T16:47:47.040   2216491434.9
RECEIVE_FREQ_1 =   2022-11-17T16:47:57.062   2216491434.1
RECEIVE_FREQ_1 =   2022-11-17T16:48:06.998   2216491432.9
RECEIVE_FREQ_1 =   2022-11-17T16:48:27.043   2216491430.8
RECEIVE_FREQ_1 =   2022-11-17T16:48:57.024   2216491427.5
RECEIVE_FREQ_1 =   2022-11-17T16:49:17.069   2216491425.1
RECEIVE_FREQ_1 =   2022-11-17T16:51:56.995   2216491408.6
RECEIVE_FREQ_1 =   2022-11-17T16:52:07.018   2216491407.5
RECEIVE_FREQ_1 =   2022-11-17T16:52:17.040   2216491405.7
RECEIVE_FREQ_1 =   2022-11-17T16:52:26.976   2216491405.2
RECEIVE_FREQ_1 =   2022-11-17T16:52:36.998   2216491403.9
RECEIVE_FREQ_1 =   2022-11-17T16:53:06.979   2216491399.2
RECEIVE_FREQ_1 =   2022-11-17T16:53:46.982   2216491395.4
RECEIVE_FREQ_1 =   2022-11-17T16:54:47.030   2216491390.4
RECEIVE_FREQ_1 =   2022-11-17T16:55:57.014   2216491380.7
RECEIVE_FREQ_1 =   2022-11-17T16:57:06.998   2216491374.8
RECEIVE_FREQ_1 =   2022-11-17T16:57:17.021   2216491374.1
RECEIVE_FREQ_1 =   2022-11-17T16:57:27.043   2216491372.9
RECEIVE_FREQ_1 =   2022-11-17T16:57:36.979   2216491371.8
RECEIVE_FREQ_1 =   2022-11-17T16:57:47.002   2216491370.6
RECEIVE_FREQ_1 =   2022-11-17T16:57:57.024   2216491369.3
RECEIVE_FREQ_1 =   2022-11-17T16:58:07.046   2216491368.5
RECEIVE_FREQ_1 =   2022-11-17T16:58:16.982   2216491367.6
RECEIVE_FREQ_1 =   2022-11-17T16:58:27.005   2216491366.6
RECEIVE_FREQ_1 =   2022-11-17T16:58:37.027   2216491365.1
RECEIVE_FREQ_1 =   2022-11-17T16:58:47.050   2216491364.3
RECEIVE_FREQ_1 =   2022-11-17T16:58:56.986   2216491363.1
RECEIVE_FREQ_1 =   2022-11-17T16:59:07.008   2216491361.7
RECEIVE_FREQ_1 =   2022-11-17T16:59:17.030   2216491360.9
RECEIVE_FREQ_1 =   2022-11-17T16:59:27.053   2216491359.7
RECEIVE_FREQ_1 =   2022-11-17T16:59:36.989   2216491358.7
RECEIVE_FREQ_1 =   2022-11-17T16:59:47.011   2216491357.4
RECEIVE_FREQ_1 =   2022-11-17T16:59:57.034   2216491356.5
RECEIVE_FREQ_1 =   2022-11-17T17:00:07.056   2216491355.5
RECEIVE_FREQ_1 =   2022-11-17T17:00:16.992   2216491354.3
RECEIVE_FREQ_1 =   2022-11-17T17:00:27.014   2216491353.3
RECEIVE_FREQ_1 =   2022-11-17T17:00:37.037   2216491352.2
RECEIVE_FREQ_1 =   2022-11-17T17:00:56.995   2216491350.0
RECEIVE_FREQ_1 =   2022-11-17T17:01:07.018   2216491348.9
RECEIVE_FREQ_1 =   2022-11-17T17:01:27.062   2216491347.0
RECEIVE_FREQ_1 =   2022-11-17T17:01:36.998   2216491345.5
RECEIVE_FREQ_1 =   2022-11-17T17:01:47.021   2216491344.6
RECEIVE_FREQ_1 =   2022-11-17T17:01:57.043   2216491343.0
RECEIVE_FREQ_1 =   2022-11-17T17:02:06.979   2216491342.5
RECEIVE_FREQ_1 =   2022-11-17T17:02:17.002   2216491341.3
RECEIVE_FREQ_1 =   2022-11-17T17:02:27.024   2216491340.2
RECEIVE_FREQ_1 =   2022-11-17T17:02:37.046   2216491339.2
RECEIVE_FREQ_1 =   2022-11-17T17:02:47.069   2216491338.4
RECEIVE_FREQ_1 =   2022-11-17T17:02:57.005   2216491336.6
RECEIVE_FREQ_1 =   2022-11-17T17:03:07.027   2216491335.8
RECEIVE_FREQ_1 =   2022-11-17T17:03:26.986   2216491333.4
RECEIVE_FREQ_1 =   2022-11-17T17:03:37.008   2216491332.4
RECEIVE_FREQ_1 =   2022-11-17T17:03:47.030   2216491331.2
RECEIVE_FREQ_1 =   2022-11-17T17:03:57.053   2216491330.2
RECEIVE_FREQ_1 =   2022-11-17T17:04:06.989   2216491328.8
RECEIVE_FREQ_1 =   2022-11-17T17:04:17.011   2216491328.4
RECEIVE_FREQ_1 =   2022-11-17T17:04:27.034   2216491326.8
RECEIVE_FREQ_1 =   2022-11-17T17:04:36.970   2216491326.0
RECEIVE_FREQ_1 =   2022-11-17T17:04:46.992   2216491324.9
RECEIVE_FREQ_1 =   2022-11-17T17:04:57.014   2216491323.4
RECEIVE_FREQ_1 =   2022-11-17T17:05:07.037   2216491322.9
RECEIVE_FREQ_1 =   2022-11-17T17:05:17.059   2216491321.7
RECEIVE_FREQ_1 =   2022-11-17T17:05:26.995   2216491320.3
RECEIVE_FREQ_1 =   2022-11-17T17:05:37.018   2216491319.2
RECEIVE_FREQ_1 =   2022-11-17T17:05:47.040   2216491318.3
RECEIVE_FREQ_1 =   2022-11-17T17:05:56.976   2216491316.9
RECEIVE_FREQ_1 =   2022-11-17T17:06:06.998   2216491315.9
RECEIVE_FREQ_1 =   2022-11-17T17:06:17.021   2216491314.8
RECEIVE_FREQ_1 =   2022-11-17T17:06:27.043   2216491313.6
RECEIVE_FREQ_1 =   2022-11-17T17:06:36.979   2216491312.7
RECEIVE_FREQ_1 =   2022-11-17T17:06:47.002   2216491311.8
RECEIVE_FREQ_1 =   2022-11-17T17:06:57.024   2216491310.6
RECEIVE_FREQ_1 =   2022-11-17T17:07:07.046   2216491309.4
RECEIVE_FREQ_1 =   2022-11-17T17:07:16.982   2216491308.3
RECEIVE_FREQ_1 =   2022-11-17T17:07:27.005   2216491307.3
RECEIVE_FREQ_1 =   2022-11-17T17:07:37.027   2216491305.8
RECEIVE_FREQ_1 =   2022-11-17T17:07:47.050   2216491305.0
RECEIVE_FREQ_1 =   2022-11-17T17:07:56.986   2216491303.7
RECEIVE_FREQ_1 =   2022-11-17T17:08:07.008   2216491302.5
RECEIVE_FREQ_1 =   2022-11-17T17:08:17.030   2216491301.4
RECEIVE_FREQ_1 =   2022-11-17T17:08:27.053   2216491300.5
RECEIVE_FREQ_1 =   2022-11-17T17:08:36.989   2216491299.6
RECEIVE_FREQ_1 =   2022-11-17T17:08:47.011   2216491298.1
RECEIVE_FREQ_1 =   2022-11-17T17:08:57.034   2216491297.1
RECEIVE_FREQ_1 =   2022-11-17T17:09:07.056   2216491296.0
RECEIVE_FREQ_1 =   2022-11-17T17:09:27.014   2216491293.7
RECEIVE_FREQ_1 =   2022-11-17T17:09:56.995   2216491290.8
RECEIVE_FREQ_1 =   2022-11-17T17:10:07.018   2216491289.5
RECEIVE_FREQ_1 =   2022-11-17T17:10:17.040   2216491288.3
RECEIVE_FREQ_1 =   2022-11-17T17:10:26.976   2216491287.2
RECEIVE_FREQ_1 =   2022-11-17T17:10:36.998   2216491286.2
RECEIVE_FREQ_1 =   2022-11-17T17:10:47.021   2216491284.9
RECEIVE_FREQ_1 =   2022-11-17T17:10:47.021   2216491284.9
RECEIVE_FREQ_1 =   2022-11-17T17:10:57.043   2216491283.9
RECEIVE_FREQ_1 =   2022-11-17T17:11:06.979   2216491282.9
RECEIVE_FREQ_1 =   2022-11-17T17:11:17.002   2216491281.5
RECEIVE_FREQ_1 =   2022-11-17T17:11:27.024   2216491280.7
RECEIVE_FREQ_1 =   2022-11-17T17:11:37.046   2216491279.7
RECEIVE_FREQ_1 =   2022-11-17T17:11:46.982   2216491278.3
RECEIVE_FREQ_1 =   2022-11-17T17:11:57.005   2216491277.2
RECEIVE_FREQ_1 =   2022-11-17T17:12:07.027   2216491276.1
RECEIVE_FREQ_1 =   2022-11-17T17:12:17.050   2216491274.8
RECEIVE_FREQ_1 =   2022-11-17T17:12:26.986   2216491273.9
RECEIVE_FREQ_1 =   2022-11-17T17:12:37.008   2216491272.5
RECEIVE_FREQ_1 =   2022-11-17T17:12:47.030   2216491271.6
RECEIVE_FREQ_1 =   2022-11-17T17:13:27.034   2216491267.1
RECEIVE_FREQ_1 =   2022-11-17T17:13:37.056   2216491266.1
RECEIVE_FREQ_1 =   2022-11-17T17:13:57.014   2216491263.7
RECEIVE_FREQ_1 =   2022-11-17T17:14:16.973   2216491261.6
RECEIVE_FREQ_1 =   2022-11-17T17:14:26.995   2216491260.5
RECEIVE_FREQ_1 =   2022-11-17T17:14:56.976   2216491257.3
RECEIVE_FREQ_1 =   2022-11-17T17:15:06.998   2216491255.8
RECEIVE_FREQ_1 =   2022-11-17T17:15:17.021   2216491254.9
RECEIVE_FREQ_1 =   2022-11-17T17:15:27.043   2216491253.7
RECEIVE_FREQ_1 =   2022-11-17T17:15:57.024   2216491250.8
RECEIVE_FREQ_1 =   2022-11-17T17:16:07.046   2216491249.1
RECEIVE_FREQ_1 =   2022-11-17T17:16:16.982   2216491248.4
RECEIVE_FREQ_1 =   2022-11-17T17:16:27.005   2216491247.1
RECEIVE_FREQ_1 =   2022-11-17T17:16:37.027   2216491246.0
RECEIVE_FREQ_1 =   2022-11-17T17:16:47.050   2216491245.0
RECEIVE_FREQ_1 =   2022-11-17T17:16:56.986   2216491243.7
RECEIVE_FREQ_1 =   2022-11-17T17:17:17.030   2216491242.3
RECEIVE_FREQ_1 =   2022-11-17T17:17:27.053   2216491240.3
RECEIVE_FREQ_1 =   2022-11-17T17:17:36.989   2216491239.4
RECEIVE_FREQ_1 =   2022-11-17T17:17:47.011   2216491238.4
RECEIVE_FREQ_1 =   2022-11-17T17:17:57.034   2216491236.9
RECEIVE_FREQ_1 =   2022-11-17T17:18:16.992   2216491234.9
RECEIVE_FREQ_1 =   2022-11-17T17:18:27.014   2216491233.5
RECEIVE_FREQ_1 =   2022-11-17T17:18:37.037   2216491232.8
RECEIVE_FREQ_1 =   2022-11-17T17:19:47.021   2216491224.8
RECEIVE_FREQ_1 =   2022-11-17T17:20:17.002   2216491221.4
RECEIVE_FREQ_1 =   2022-11-17T17:20:27.024   2216491221.0
RECEIVE_FREQ_1 =   2022-11-17T17:20:57.005   2216491217.1
RECEIVE_FREQ_1 =   2022-11-17T17:21:17.050   2216491214.5
RECEIVE_FREQ_1 =   2022-11-17T17:21:47.030   2216491211.4
RECEIVE_FREQ_1 =   2022-11-17T17:22:27.034   2216491207.1
RECEIVE_FREQ_1 =   2022-11-17T17:22:57.014   2216491203.6
RECEIVE_FREQ_1 =   2022-11-17T17:23:07.037   2216491202.1
RECEIVE_FREQ_1 =   2022-11-17T17:23:17.059   2216491201.2
RECEIVE_FREQ_1 =   2022-11-17T17:23:26.995   2216491199.3
RECEIVE_FREQ_1 =   2022-11-17T17:23:37.018   2216491198.4
RECEIVE_FREQ_1 =   2022-11-17T17:23:47.040   2216491198.0
RECEIVE_FREQ_1 =   2022-11-17T17:24:06.998   2216491195.5
RECEIVE_FREQ_1 =   2022-11-17T17:24:27.043   2216491193.2
RECEIVE_FREQ_1 =   2022-11-17T17:24:36.979   2216491191.8
RECEIVE_FREQ_1 =   2022-11-17T17:24:47.002   2216491191.1
RECEIVE_FREQ_1 =   2022-11-17T17:25:16.982   2216491187.6
RECEIVE_FREQ_1 =   2022-11-17T17:25:27.005   2216491186.4
RECEIVE_FREQ_1 =   2022-11-17T17:26:07.008   2216491183.3
RECEIVE_FREQ_1 =   2022-11-17T17:27:07.056   2216491175.5
RECEIVE_FREQ_1 =   2022-11-17T17:27:47.059   2216491170.7
RECEIVE_FREQ_1 =   2022-11-17T17:27:56.995   2216491169.7
RECEIVE_FREQ_1 =   2022-11-17T17:28:17.040   2216491167.7
RECEIVE_FREQ_1 =   2022-11-17T17:28:27.062   2216491166.4
RECEIVE_FREQ_1 =   2022-11-17T17:28:47.021   2216491164.1
RECEIVE_FREQ_1 =   2022-11-17T17:28:57.043   2216491163.0
RECEIVE_FREQ_1 =   2022-11-17T17:29:06.979   2216491162.3
RECEIVE_FREQ_1 =   2022-11-17T17:29:27.024   2216491159.8
RECEIVE_FREQ_1 =   2022-11-17T17:29:37.046   2216491158.8
RECEIVE_FREQ_1 =   2022-11-17T17:29:57.005   2216491156.0
RECEIVE_FREQ_1 =   2022-11-17T17:30:26.986   2216491152.9
RECEIVE_FREQ_1 =   2022-11-17T17:30:37.008   2216491151.7
RECEIVE_FREQ_1 =   2022-11-17T17:30:47.030   2216491150.9
RECEIVE_FREQ_1 =   2022-11-17T17:30:57.053   2216491149.4
RECEIVE_FREQ_1 =   2022-11-17T17:31:06.989   2216491148.5
RECEIVE_FREQ_1 =   2022-11-17T17:31:17.011   2216491147.4
RECEIVE_FREQ_1 =   2022-11-17T17:31:27.034   2216491146.2
RECEIVE_FREQ_1 =   2022-11-17T17:31:36.970   2216491144.7
RECEIVE_FREQ_1 =   2022-11-17T17:31:46.992   2216491143.8
RECEIVE_FREQ_1 =   2022-11-17T17:31:57.014   2216491142.6
RECEIVE_FREQ_1 =   2022-11-17T17:32:17.059   2216491140.7
RECEIVE_FREQ_1 =   2022-11-17T17:32:37.018   2216491138.4
RECEIVE_FREQ_1 =   2022-11-17T17:32:47.040   2216491137.4
RECEIVE_FREQ_1 =   2022-11-17T17:32:57.062   2216491136.0
RECEIVE_FREQ_1 =   2022-11-17T17:33:06.998   2216491135.2
RECEIVE_FREQ_1 =   2022-11-17T17:33:17.021   2216491133.8
RECEIVE_FREQ_1 =   2022-11-17T17:33:47.002   2216491130.5
RECEIVE_FREQ_1 =   2022-11-17T17:33:57.024   2216491129.4
RECEIVE_FREQ_1 =   2022-11-17T17:34:07.046   2216491128.2
RECEIVE_FREQ_1 =   2022-11-17T17:34:16.982   2216491127.1
RECEIVE_FREQ_1 =   2022-11-17T17:34:27.005   2216491126.1
RECEIVE_FREQ_1 =   2022-11-17T17:34:37.027   2216491124.7
RECEIVE_FREQ_1 =   2022-11-17T17:34:47.050   2216491123.8
RECEIVE_FREQ_1 =   2022-11-17T17:34:57.072   2216491122.8
RECEIVE_FREQ_1 =   2022-11-17T17:35:07.008   2216491121.6
RECEIVE_FREQ_1 =   2022-11-17T17:35:17.030   2216491120.4
RECEIVE_FREQ_1 =   2022-11-17T17:35:26.966   2216491119.2
RECEIVE_FREQ_1 =   2022-11-17T17:35:36.989   2216491118.1
RECEIVE_FREQ_1 =   2022-11-17T17:35:47.011   2216491116.9
RECEIVE_FREQ_1 =   2022-11-17T17:36:16.992   2216491114.0
RECEIVE_FREQ_1 =   2022-11-17T17:36:37.037   2216491111.3
RECEIVE_FREQ_1 =   2022-11-17T17:36:47.059   2216491110.1
RECEIVE_FREQ_1 =   2022-11-17T17:36:56.995   2216491109.4
RECEIVE_FREQ_1 =   2022-11-17T17:37:07.018   2216491108.1
RECEIVE_FREQ_1 =   2022-11-17T17:37:17.040   2216491107.0
RECEIVE_FREQ_1 =   2022-11-17T17:37:26.976   2216491105.7
RECEIVE_FREQ_1 =   2022-11-17T17:37:36.998   2216491104.7
RECEIVE_FREQ_1 =   2022-11-17T17:37:47.021   2216491103.5
RECEIVE_FREQ_1 =   2022-11-17T17:37:57.043   2216491102.2
RECEIVE_FREQ_1 =   2022-11-17T17:38:06.979   2216491101.3
RECEIVE_FREQ_1 =   2022-11-17T17:38:17.002   2216491100.2
RECEIVE_FREQ_1 =   2022-11-17T17:38:27.024   2216491098.9
RECEIVE_FREQ_1 =   2022-11-17T17:38:37.046   2216491097.8
RECEIVE_FREQ_1 =   2022-11-17T17:38:46.982   2216491096.8
RECEIVE_FREQ_1 =   2022-11-17T17:38:57.005   2216491095.7
RECEIVE_FREQ_1 =   2022-11-17T17:39:07.027   2216491094.7
RECEIVE_FREQ_1 =   2022-11-17T17:39:17.050   2216491093.4
RECEIVE_FREQ_1 =   2022-11-17T17:39:26.986   2216491092.4
RECEIVE_FREQ_1 =   2022-11-17T17:39:37.008   2216491091.3
RECEIVE_FREQ_1 =   2022-11-17T17:39:47.030   2216491090.0
RECEIVE_FREQ_1 =   2022-11-17T17:39:57.053   2216491089.2
RECEIVE_FREQ_1 =   2022-11-17T17:40:06.989   2216491087.9
RECEIVE_FREQ_1 =   2022-11-17T17:40:17.011   2216491086.6
RECEIVE_FREQ_1 =   2022-11-17T17:40:27.034   2216491085.8
RECEIVE_FREQ_1 =   2022-11-17T17:40:37.056   2216491084.4
RECEIVE_FREQ_1 =   2022-11-17T17:40:37.056   2216491084.4
RECEIVE_FREQ_1 =   2022-11-17T17:40:46.992   2216491083.5
RECEIVE_FREQ_1 =   2022-11-17T17:40:57.014   2216491082.3
RECEIVE_FREQ_1 =   2022-11-17T17:41:07.037   2216491081.0
RECEIVE_FREQ_1 =   2022-11-17T17:41:17.059   2216491079.8
RECEIVE_FREQ_1 =   2022-11-17T17:41:26.995   2216491079.1
RECEIVE_FREQ_1 =   2022-11-17T17:41:37.018   2216491077.7
RECEIVE_FREQ_1 =   2022-11-17T17:41:47.040   2216491076.5
RECEIVE_FREQ_1 =   2022-11-17T17:41:56.976   2216491075.6
RECEIVE_FREQ_1 =   2022-11-17T17:42:06.998   2216491074.8
RECEIVE_FREQ_1 =   2022-11-17T17:42:17.021   2216491073.5
RECEIVE_FREQ_1 =   2022-11-17T17:42:27.043   2216491072.5
RECEIVE_FREQ_1 =   2022-11-17T17:42:36.979   2216491071.0
RECEIVE_FREQ_1 =   2022-11-17T17:42:47.002   2216491070.0
RECEIVE_FREQ_1 =   2022-11-17T17:42:57.024   2216491068.8
RECEIVE_FREQ_1 =   2022-11-17T17:43:07.046   2216491067.9
RECEIVE_FREQ_1 =   2022-11-17T17:43:17.069   2216491066.8
RECEIVE_FREQ_1 =   2022-11-17T17:43:27.005   2216491065.8
RECEIVE_FREQ_1 =   2022-11-17T17:43:37.027   2216491064.4
RECEIVE_FREQ_1 =   2022-11-17T17:43:47.050   2216491063.3
RECEIVE_FREQ_1 =   2022-11-17T17:43:56.986   2216491062.6
RECEIVE_FREQ_1 =   2022-11-17T17:44:07.008   2216491061.0
RECEIVE_FREQ_1 =   2022-11-17T17:44:17.030   2216491060.1
RECEIVE_FREQ_1 =   2022-11-17T17:44:27.053   2216491058.9
RECEIVE_FREQ_1 =   2022-11-17T17:44:36.989   2216491057.8
RECEIVE_FREQ_1 =   2022-11-17T17:44:47.011   2216491056.8
RECEIVE_FREQ_1 =   2022-11-17T17:44:57.034   2216491055.5
RECEIVE_FREQ_1 =   2022-11-17T17:45:07.056   2216491054.5
RECEIVE_FREQ_1 =   2022-11-17T17:45:16.992   2216491053.1
RECEIVE_FREQ_1 =   2022-11-17T17:45:27.014   2216491052.1
RECEIVE_FREQ_1 =   2022-11-17T17:45:56.995   2216491049.0
RECEIVE_FREQ_1 =   2022-11-17T17:46:26.976   2216491045.4
RECEIVE_FREQ_1 =   2022-11-17T17:46:36.998   2216491045.6
RECEIVE_FREQ_1 =   2022-11-17T17:46:57.043   2216491042.2
RECEIVE_FREQ_1 =   2022-11-17T17:47:07.066   2216491040.9
RECEIVE_FREQ_1 =   2022-11-17T17:47:17.002   2216491040.0
RECEIVE_FREQ_1 =   2022-11-17T17:47:47.069   2216491036.5
RECEIVE_FREQ_1 =   2022-11-17T17:48:17.050   2216491032.6
RECEIVE_FREQ_1 =   2022-11-17T17:48:26.986   2216491031.9
RECEIVE_FREQ_1 =   2022-11-17T17:48:47.030   2216491029.3
RECEIVE_FREQ_1 =   2022-11-17T17:48:57.053   2216491029.0
RECEIVE_FREQ_1 =   2022-11-17T17:49:06.989   2216491027.5
RECEIVE_FREQ_1 =   2022-11-17T17:49:27.034   2216491025.9
RECEIVE_FREQ_1 =   2022-11-17T17:49:36.970   2216491024.3
RECEIVE_FREQ_1 =   2022-11-17T17:49:57.014   2216491021.9
RECEIVE_FREQ_1 =   2022-11-17T17:50:07.037   2216491021.1
RECEIVE_FREQ_1 =   2022-11-17T17:50:16.973   2216491020.0
RECEIVE_FREQ_1 =   2022-11-17T17:50:26.995   2216491019.0
RECEIVE_FREQ_1 =   2022-11-17T17:50:37.018   2216491017.9
RECEIVE_FREQ_1 =   2022-11-17T17:50:47.040   2216491016.5
RECEIVE_FREQ_1 =   2022-11-17T17:50:56.976   2216491015.5
RECEIVE_FREQ_1 =   2022-11-17T17:51:06.998   2216491014.4
RECEIVE_FREQ_1 =   2022-11-17T17:51:27.043   2216491012.4
RECEIVE_FREQ_1 =   2022-11-17T17:51:36.979   2216491011.0
RECEIVE_FREQ_1 =   2022-11-17T17:51:47.002   2216491009.5
RECEIVE_FREQ_1 =   2022-11-17T17:51:57.024   2216491008.7
RECEIVE_FREQ_1 =   2022-11-17T17:52:07.046   2216491007.8
RECEIVE_FREQ_1 =   2022-11-17T17:52:16.982   2216491006.9
RECEIVE_FREQ_1 =   2022-11-17T17:52:27.005   2216491005.2
RECEIVE_FREQ_1 =   2022-11-17T17:52:37.027   2216491004.6
RECEIVE_FREQ_1 =   2022-11-17T17:52:47.050   2216491003.3
RECEIVE_FREQ_1 =   2022-11-17T17:53:17.030   2216491000.2
RECEIVE_FREQ_1 =   2022-11-17T17:53:26.966   2216490998.7
RECEIVE_FREQ_1 =   2022-11-17T17:53:57.034   2216490996.3
RECEIVE_FREQ_1 =   2022-11-17T17:54:37.037   2216490991.3
RECEIVE_FREQ_1 =   2022-11-17T17:54:47.059   2216490990.4
RECEIVE_FREQ_1 =   2022-11-17T17:55:07.018   2216490987.9
RECEIVE_FREQ_1 =   2022-11-17T17:55:26.976   2216490985.6
RECEIVE_FREQ_1 =   2022-11-17T17:55:47.021   2216490983.1
RECEIVE_FREQ_1 =   2022-11-17T17:56:06.979   2216490981.3
RECEIVE_FREQ_1 =   2022-11-17T17:56:27.024   2216490978.8
RECEIVE_FREQ_1 =   2022-11-17T17:56:37.046   2216490978.2
RECEIVE_FREQ_1 =   2022-11-17T17:56:57.005   2216490976.0
RECEIVE_FREQ_1 =   2022-11-17T17:57:17.050   2216490973.7
RECEIVE_FREQ_1 =   2022-11-17T17:57:37.008   2216490971.5
RECEIVE_FREQ_1 =   2022-11-17T17:57:47.030   2216490969.9
RECEIVE_FREQ_1 =   2022-11-17T17:57:57.053   2216490969.1
RECEIVE_FREQ_1 =   2022-11-17T17:58:27.034   2216490966.1
RECEIVE_FREQ_1 =   2022-11-17T17:58:46.992   2216490963.6
RECEIVE_FREQ_1 =   2022-11-17T17:59:16.973   2216490960.7
RECEIVE_FREQ_1 =   2022-11-17T17:59:26.995   2216490959.6
RECEIVE_FREQ_1 =   2022-11-17T17:59:37.018   2216490958.4
RECEIVE_FREQ_1 =   2022-11-17T18:00:17.021   2216490953.9
RECEIVE_FREQ_1 =   2022-11-17T18:00:27.043   2216490952.9
RECEIVE_FREQ_1 =   2022-11-17T18:00:36.979   2216490952.0
RECEIVE_FREQ_1 =   2022-11-17T18:00:47.002   2216490950.6
RECEIVE_FREQ_1 =   2022-11-17T18:00:57.024   2216490949.8
RECEIVE_FREQ_1 =   2022-11-17T18:01:07.046   2216490948.2
RECEIVE_FREQ_1 =   2022-11-17T18:01:16.982   2216490947.0
RECEIVE_FREQ_1 =   2022-11-17T18:01:27.005   2216490946.2
RECEIVE_FREQ_1 =   2022-11-17T18:01:47.050   2216490943.9
RECEIVE_FREQ_1 =   2022-11-17T18:01:57.072   2216490942.8
RECEIVE_FREQ_1 =   2022-11-17T18:02:07.008   2216490941.5
RECEIVE_FREQ_1 =   2022-11-17T18:02:17.030   2216490940.4
RECEIVE_FREQ_1 =   2022-11-17T18:02:27.053   2216490939.4
RECEIVE_FREQ_1 =   2022-11-17T18:02:36.989   2216490938.0
RECEIVE_FREQ_1 =   2022-11-17T18:02:47.011   2216490936.8
RECEIVE_FREQ_1 =   2022-11-17T18:02:57.034   2216490935.9
RECEIVE_FREQ_1 =   2022-11-17T18:03:07.056   2216490934.5
RECEIVE_FREQ_1 =   2022-11-17T18:03:16.992   2216490933.6
RECEIVE_FREQ_1 =   2022-11-17T18:03:27.014   2216490932.5
RECEIVE_FREQ_1 =   2022-11-17T18:03:37.037   2216490931.1
RECEIVE_FREQ_1 =   2022-11-17T18:03:47.059   2216490929.9
RECEIVE_FREQ_1 =   2022-11-17T18:03:56.995   2216490929.0
RECEIVE_FREQ_1 =   2022-11-17T18:04:07.018   2216490927.8
RECEIVE_FREQ_1 =   2022-11-17T18:04:17.040   2216490926.6
RECEIVE_FREQ_1 =   2022-11-17T18:04:27.062   2216490925.5
RECEIVE_FREQ_1 =   2022-11-17T18:04:36.998   2216490924.1
RECEIVE_FREQ_1 =   2022-11-17T18:04:47.021   2216490923.2
RECEIVE_FREQ_1 =   2022-11-17T18:04:57.043   2216490922.1
RECEIVE_FREQ_1 =   2022-11-17T18:05:06.979   2216490920.8
RECEIVE_FREQ_1 =   2022-11-17T18:05:17.002   2216490919.3
RECEIVE_FREQ_1 =   2022-11-17T18:05:27.024   2216490918.4
RECEIVE_FREQ_1 =   2022-11-17T18:05:37.046   2216490917.2
RECEIVE_FREQ_1 =   2022-11-17T18:05:47.069   2216490916.3
RECEIVE_FREQ_1 =   2022-11-17T18:05:57.005   2216490915.2
RECEIVE_FREQ_1 =   2022-11-17T18:06:07.027   2216490913.9
RECEIVE_FREQ_1 =   2022-11-17T18:06:17.050   2216490912.6
RECEIVE_FREQ_1 =   2022-11-17T18:06:26.986   2216490911.8
RECEIVE_FREQ_1 =   2022-11-17T18:06:37.008   2216490910.3
RECEIVE_FREQ_1 =   2022-11-17T18:06:47.030   2216490909.2
RECEIVE_FREQ_1 =   2022-11-17T18:06:57.053   2216490908.3
RECEIVE_FREQ_1 =   2022-11-17T18:07:07.075   2216490907.1
RECEIVE_FREQ_1 =   2022-11-17T18:07:17.011   2216490905.8
RECEIVE_FREQ_1 =   2022-11-17T18:07:27.034   2216490904.7
RECEIVE_FREQ_1 =   2022-11-17T18:07:37.056   2216490903.5
RECEIVE_FREQ_1 =   2022-11-17T18:07:46.992   2216490902.6
RECEIVE_FREQ_1 =   2022-11-17T18:07:57.014   2216490901.4
RECEIVE_FREQ_1 =   2022-11-17T18:08:07.037   2216490900.2
RECEIVE_FREQ_1 =   2022-11-17T18:08:17.059   2216490899.1
RECEIVE_FREQ_1 =   2022-11-17T18:08:26.995   2216490897.7
RECEIVE_FREQ_1 =   2022-11-17T18:08:37.018   2216490896.7
RECEIVE_FREQ_1 =   2022-11-17T18:08:47.040   2216490895.7
RECEIVE_FREQ_1 =   2022-11-17T18:08:57.062   2216490894.3
RECEIVE_FREQ_1 =   2022-11-17T18:09:06.998   2216490893.6
RECEIVE_FREQ_1 =   2022-11-17T18:09:17.021   2216490892.2
RECEIVE_FREQ_1 =   2022-11-17T18:09:27.043   2216490891.1
RECEIVE_FREQ_1 =   2022-11-17T18:09:36.979   2216490889.9
RECEIVE_FREQ_1 =   2022-11-17T18:09:47.002   2216490888.8
RECEIVE_FREQ_1 =   2022-11-17T18:09:57.024   2216490887.6
RECEIVE_FREQ_1 =   2022-11-17T18:10:07.046   2216490886.6
RECEIVE_FREQ_1 =   2022-11-17T18:10:16.982   2216490885.4
RECEIVE_FREQ_1 =   2022-11-17T18:10:27.005   2216490884.1
RECEIVE_FREQ_1 =   2022-11-17T18:10:37.027   2216490882.9
RECEIVE_FREQ_1 =   2022-11-17T18:10:47.050   2216490882.2
RECEIVE_FREQ_1 =   2022-11-17T18:10:56.986   2216490880.7
RECEIVE_FREQ_1 =   2022-11-17T18:11:07.008   2216490879.6
RECEIVE_FREQ_1 =   2022-11-17T18:11:17.030   2216490878.5
RECEIVE_FREQ_1 =   2022-11-17T18:11:27.053   2216490877.4
RECEIVE_FREQ_1 =   2022-11-17T18:11:36.989   2216490876.1
RECEIVE_FREQ_1 =   2022-11-17T18:11:47.011   2216490875.2
RECEIVE_FREQ_1 =   2022-11-17T18:11:57.034   2216490874.2
RECEIVE_FREQ_1 =   2022-11-17T18:12:07.056   2216490873.2
RECEIVE_FREQ_1 =   2022-11-17T18:12:16.992   2216490871.9
RECEIVE_FREQ_1 =   2022-11-17T18:12:27.014   2216490871.0
RECEIVE_FREQ_1 =   2022-11-17T18:12:37.037   2216490869.4
RECEIVE_FREQ_1 =   2022-11-17T18:12:46.973   2216490868.6
RECEIVE_FREQ_1 =   2022-11-17T18:12:56.995   2216490867.1
RECEIVE_FREQ_1 =   2022-11-17T18:13:07.018   2216490866.1
RECEIVE_FREQ_1 =   2022-11-17T18:13:17.040   2216490865.3
RECEIVE_FREQ_1 =   2022-11-17T18:13:27.062   2216490864.0
RECEIVE_FREQ_1 =   2022-11-17T18:13:36.998   2216490862.8
RECEIVE_FREQ_1 =   2022-11-17T18:13:47.021   2216490861.6
RECEIVE_FREQ_1 =   2022-11-17T18:13:57.043   2216490860.5
RECEIVE_FREQ_1 =   2022-11-17T18:14:06.979   2216490859.6
RECEIVE_FREQ_1 =   2022-11-17T18:14:17.002   2216490858.5
RECEIVE_FREQ_1 =   2022-11-17T18:14:27.024   2216490857.2
RECEIVE_FREQ_1 =   2022-11-17T18:14:37.046   2216490856.3
RECEIVE_FREQ_1 =   2022-11-17T18:14:46.982   2216490855.0
RECEIVE_FREQ_1 =   2022-11-17T18:14:57.005   2216490853.5
RECEIVE_FREQ_1 =   2022-11-17T18:15:07.027   2216490852.7
RECEIVE_FREQ_1 =   2022-11-17T18:15:17.050   2216490851.7
RECEIVE_FREQ_1 =   2022-11-17T18:15:26.986   2216490850.4
RECEIVE_FREQ_1 =   2022-11-17T18:15:37.008   2216490849.6
RECEIVE_FREQ_1 =   2022-11-17T18:15:47.030   2216490848.3
RECEIVE_FREQ_1 =   2022-11-17T18:15:57.053   2216490847.3
RECEIVE_FREQ_1 =   2022-11-17T18:15:57.053   2216490847.3
RECEIVE_FREQ_1 =   2022-11-17T18:16:06.989   2216490846.3
RECEIVE_FREQ_1 =   2022-11-17T18:16:17.011   2216490844.9
RECEIVE_FREQ_1 =   2022-11-17T18:16:27.034   2216490843.7
RECEIVE_FREQ_1 =   2022-11-17T18:16:36.970   2216490842.3
RECEIVE_FREQ_1 =   2022-11-17T18:16:46.992   2216490841.4
RECEIVE_FREQ_1 =   2022-11-17T18:16:57.014   2216490840.2
RECEIVE_FREQ_1 =   2022-11-17T18:17:07.037   2216490839.3
RECEIVE_FREQ_1 =   2022-11-17T18:17:16.973   2216490838.1
RECEIVE_FREQ_1 =   2022-11-17T18:17:26.995   2216490836.8
RECEIVE_FREQ_1 =   2022-11-17T18:17:37.018   2216490836.1
RECEIVE_FREQ_1 =   2022-11-17T18:17:47.040   2216490834.9
RECEIVE_FREQ_1 =   2022-11-17T18:17:57.062   2216490833.6
RECEIVE_FREQ_1 =   2022-11-17T18:18:06.998   2216490832.8
RECEIVE_FREQ_1 =   2022-11-17T18:18:17.021   2216490831.7
RECEIVE_FREQ_1 =   2022-11-17T18:18:27.043   2216490830.3
RECEIVE_FREQ_1 =   2022-11-17T18:18:36.979   2216490829.3
RECEIVE_FREQ_1 =   2022-11-17T18:18:47.002   2216490828.3
RECEIVE_FREQ_1 =   2022-11-17T18:18:57.024   2216490827.4
RECEIVE_FREQ_1 =   2022-11-17T18:19:07.046   2216490826.0
RECEIVE_FREQ_1 =   2022-11-17T18:19:16.982   2216490824.8
RECEIVE_FREQ_1 =   2022-11-17T18:19:27.005   2216490824.1
RECEIVE_FREQ_1 =   2022-11-17T18:19:37.027   2216490822.7
RECEIVE_FREQ_1 =   2022-11-17T18:19:47.050   2216490821.5
RECEIVE_FREQ_1 =   2022-11-17T18:19:56.986   2216490820.5
RECEIVE_FREQ_1 =   2022-11-17T18:20:07.008   2216490819.3
RECEIVE_FREQ_1 =   2022-11-17T18:20:17.030   2216490818.3
RECEIVE_FREQ_1 =   2022-11-17T18:20:27.053   2216490817.3
RECEIVE_FREQ_1 =   2022-11-17T18:20:36.989   2216490815.9
RECEIVE_FREQ_1 =   2022-11-17T18:20:47.011   2216490814.6
RECEIVE_FREQ_1 =   2022-11-17T18:20:57.034   2216490813.8
RECEIVE_FREQ_1 =   2022-11-17T18:21:06.970   2216490812.7
RECEIVE_FREQ_1 =   2022-11-17T18:21:16.992   2216490811.4
RECEIVE_FREQ_1 =   2022-11-17T18:21:27.014   2216490810.5
RECEIVE_FREQ_1 =   2022-11-17T18:21:37.037   2216490809.7
RECEIVE_FREQ_1 =   2022-11-17T18:21:47.059   2216490808.1
RECEIVE_FREQ_1 =   2022-11-17T18:21:56.995   2216490807.4
RECEIVE_FREQ_1 =   2022-11-17T18:22:07.018   2216490806.2
RECEIVE_FREQ_1 =   2022-11-17T18:22:17.040   2216490804.9
RECEIVE_FREQ_1 =   2022-11-17T18:22:26.976   2216490803.8
RECEIVE_FREQ_1 =   2022-11-17T18:22:36.998   2216490803.0
RECEIVE_FREQ_1 =   2022-11-17T18:22:47.021   2216490801.8
RECEIVE_FREQ_1 =   2022-11-17T18:22:57.043   2216490801.0
RECEIVE_FREQ_1 =   2022-11-17T18:23:06.979   2216490799.6
RECEIVE_FREQ_1 =   2022-11-17T18:23:17.002   2216490798.5
RECEIVE_FREQ_1 =   2022-11-17T18:23:27.024   2216490797.2
RECEIVE_FREQ_1 =   2022-11-17T18:23:37.046   2216490796.5
RECEIVE_FREQ_1 =   2022-11-17T18:23:46.982   2216490795.2
RECEIVE_FREQ_1 =   2022-11-17T18:23:57.005   2216490794.4
RECEIVE_FREQ_1 =   2022-11-17T18:24:07.027   2216490793.1
RECEIVE_FREQ_1 =   2022-11-17T18:24:17.050   2216490791.9
RECEIVE_FREQ_1 =   2022-11-17T18:24:26.986   2216490790.9
RECEIVE_FREQ_1 =   2022-11-17T18:24:37.008   2216490789.7
RECEIVE_FREQ_1 =   2022-11-17T18:24:47.030   2216490788.6
RECEIVE_FREQ_1 =   2022-11-17T18:24:57.053   2216490787.8
RECEIVE_FREQ_1 =   2022-11-17T18:25:06.989   2216490786.5
RECEIVE_FREQ_1 =   2022-11-17T18:25:17.011   2216490785.5
RECEIVE_FREQ_1 =   2022-11-17T18:25:27.034   2216490784.4
RECEIVE_FREQ_1 =   2022-11-17T18:25:36.970   2216490783.3
RECEIVE_FREQ_1 =   2022-11-17T18:25:46.992   2216490782.1
RECEIVE_FREQ_1 =   2022-11-17T18:25:57.014   2216490781.3
RECEIVE_FREQ_1 =   2022-11-17T18:26:07.037   2216490780.0
RECEIVE_FREQ_1 =   2022-11-17T18:26:16.973   2216490779.1
RECEIVE_FREQ_1 =   2022-11-17T18:26:26.995   2216490777.7
RECEIVE_FREQ_1 =   2022-11-17T18:26:37.018   2216490776.8
RECEIVE_FREQ_1 =   2022-11-17T18:26:47.040   2216490775.9
RECEIVE_FREQ_1 =   2022-11-17T18:26:56.976   2216490774.6
RECEIVE_FREQ_1 =   2022-11-17T18:27:06.998   2216490773.6
RECEIVE_FREQ_1 =   2022-11-17T18:27:17.021   2216490772.5
RECEIVE_FREQ_1 =   2022-11-17T18:27:27.043   2216490771.3
RECEIVE_FREQ_1 =   2022-11-17T18:27:37.066   2216490770.4
