nasa/2022-11-29_2022-156A_ScottTilley.tdm

CCSDS_TDM_VERS = 2.0
COMMENT TDM ARTEMIS 1 Doppler data by Scott Tilley for 2022-11-29 UTC
COMMENT Signal not demodulated, to low of SNR, centre carrier integrated in 10s by 0.1Hz bin and extracted for peak value.
CREATION_DATE = 2022-11-30T06:50:41Z
ORIGINATOR = SCOTT TILLEY

META_START
COMMENT 
COMMENT 
SYSTEM TIME = UTC
PARTICIPANT_1 = COSPAR 8049
PARTICIPANT_2 = 2022-156A
MODE = SEQUENTIAL
PATH = 2,1
INTEGRATION_INTERVAL = 10
INTEGRATION_REF = MIDDLE
FREQ_OFFSET = 0
TRANSMIT_DELAY_1 = 0
RECEIVE_DELAY_1 = 0
DATA_QUALITY = RAW
META_STOP

DATA_START
RECEIVE_FREQ_1 =   2022-11-29T22:53:37.392   2216501625.345
RECEIVE_FREQ_1 =   2022-11-29T22:53:47.501   2216501624.445
RECEIVE_FREQ_1 =   2022-11-29T22:53:57.523   2216501623.245
RECEIVE_FREQ_1 =   2022-11-29T22:54:07.459   2216501622.045
RECEIVE_FREQ_1 =   2022-11-29T22:54:17.482   2216501621.145
RECEIVE_FREQ_1 =   2022-11-29T22:54:27.504   2216501619.945
RECEIVE_FREQ_1 =   2022-11-29T22:54:37.526   2216501618.945
RECEIVE_FREQ_1 =   2022-11-29T22:54:47.462   2216501617.945
RECEIVE_FREQ_1 =   2022-11-29T22:54:57.485   2216501616.645
RECEIVE_FREQ_1 =   2022-11-29T22:55:07.507   2216501615.845
RECEIVE_FREQ_1 =   2022-11-29T22:55:17.530   2216501614.845
RECEIVE_FREQ_1 =   2022-11-29T22:55:27.466   2216501613.345
RECEIVE_FREQ_1 =   2022-11-29T22:55:37.488   2216501612.545
RECEIVE_FREQ_1 =   2022-11-29T22:55:47.510   2216501611.345
RECEIVE_FREQ_1 =   2022-11-29T22:55:57.446   2216501610.545
RECEIVE_FREQ_1 =   2022-11-29T22:56:07.469   2216501609.645
RECEIVE_FREQ_1 =   2022-11-29T22:56:17.491   2216501608.245
RECEIVE_FREQ_1 =   2022-11-29T22:56:27.514   2216501607.045
RECEIVE_FREQ_1 =   2022-11-29T22:56:37.450   2216501606.045
RECEIVE_FREQ_1 =   2022-11-29T22:56:47.472   2216501605.045
RECEIVE_FREQ_1 =   2022-11-29T22:56:57.494   2216501604.045
RECEIVE_FREQ_1 =   2022-11-29T22:57:07.517   2216501603.045
RECEIVE_FREQ_1 =   2022-11-29T22:57:17.539   2216501601.945
RECEIVE_FREQ_1 =   2022-11-29T22:57:27.475   2216501600.845
RECEIVE_FREQ_1 =   2022-11-29T22:57:37.498   2216501599.545
RECEIVE_FREQ_1 =   2022-11-29T22:57:47.520   2216501598.445
RECEIVE_FREQ_1 =   2022-11-29T22:57:57.456   2216501597.445
RECEIVE_FREQ_1 =   2022-11-29T22:58:07.478   2216501596.245
RECEIVE_FREQ_1 =   2022-11-29T22:58:17.501   2216501595.045
RECEIVE_FREQ_1 =   2022-11-29T22:58:27.523   2216501593.945
RECEIVE_FREQ_1 =   2022-11-29T22:58:37.459   2216501592.945
RECEIVE_FREQ_1 =   2022-11-29T22:58:47.482   2216501592.045
RECEIVE_FREQ_1 =   2022-11-29T22:58:57.504   2216501590.945
RECEIVE_FREQ_1 =   2022-11-29T22:59:07.526   2216501589.545
RECEIVE_FREQ_1 =   2022-11-29T22:59:17.549   2216501588.745
RECEIVE_FREQ_1 =   2022-11-29T22:59:27.485   2216501587.945
RECEIVE_FREQ_1 =   2022-11-29T22:59:37.507   2216501586.345
RECEIVE_FREQ_1 =   2022-11-29T22:59:47.530   2216501585.045
RECEIVE_FREQ_1 =   2022-11-29T22:59:57.466   2216501584.545
RECEIVE_FREQ_1 =   2022-11-29T23:00:07.488   2216501583.045
RECEIVE_FREQ_1 =   2022-11-29T23:00:17.510   2216501582.045
RECEIVE_FREQ_1 =   2022-11-29T23:00:27.533   2216501580.945
RECEIVE_FREQ_1 =   2022-11-29T23:00:37.469   2216501579.745
RECEIVE_FREQ_1 =   2022-11-29T23:00:47.491   2216501578.645
RECEIVE_FREQ_1 =   2022-11-29T23:00:57.514   2216501577.345
RECEIVE_FREQ_1 =   2022-11-29T23:01:07.536   2216501576.145
RECEIVE_FREQ_1 =   2022-11-29T23:01:17.472   2216501575.645
RECEIVE_FREQ_1 =   2022-11-29T23:01:27.494   2216501574.245
RECEIVE_FREQ_1 =   2022-11-29T23:01:37.517   2216501573.245
RECEIVE_FREQ_1 =   2022-11-29T23:01:47.453   2216501572.145
RECEIVE_FREQ_1 =   2022-11-29T23:01:57.475   2216501570.945
RECEIVE_FREQ_1 =   2022-11-29T23:02:07.498   2216501569.945
RECEIVE_FREQ_1 =   2022-11-29T23:02:17.520   2216501568.745
RECEIVE_FREQ_1 =   2022-11-29T23:02:27.456   2216501567.745
RECEIVE_FREQ_1 =   2022-11-29T23:02:37.478   2216501566.545
RECEIVE_FREQ_1 =   2022-11-29T23:02:47.501   2216501565.345
RECEIVE_FREQ_1 =   2022-11-29T23:02:57.523   2216501564.345
RECEIVE_FREQ_1 =   2022-11-29T23:03:07.459   2216501562.945
RECEIVE_FREQ_1 =   2022-11-29T23:03:17.482   2216501561.845
RECEIVE_FREQ_1 =   2022-11-29T23:03:27.504   2216501560.745
RECEIVE_FREQ_1 =   2022-11-29T23:03:37.526   2216501559.745
RECEIVE_FREQ_1 =   2022-11-29T23:03:47.462   2216501558.745
RECEIVE_FREQ_1 =   2022-11-29T23:03:57.485   2216501557.845
RECEIVE_FREQ_1 =   2022-11-29T23:04:07.507   2216501556.245
RECEIVE_FREQ_1 =   2022-11-29T23:04:27.466   2216501554.445
RECEIVE_FREQ_1 =   2022-11-29T23:04:37.488   2216501553.545
RECEIVE_FREQ_1 =   2022-11-29T23:04:47.510   2216501552.645
RECEIVE_FREQ_1 =   2022-11-29T23:04:57.533   2216501551.545
RECEIVE_FREQ_1 =   2022-11-29T23:05:07.469   2216501550.045
RECEIVE_FREQ_1 =   2022-11-29T23:05:17.491   2216501549.045
RECEIVE_FREQ_1 =   2022-11-29T23:05:27.514   2216501548.445
RECEIVE_FREQ_1 =   2022-11-29T23:05:37.450   2216501547.045
RECEIVE_FREQ_1 =   2022-11-29T23:05:47.472   2216501546.545
RECEIVE_FREQ_1 =   2022-11-29T23:05:57.494   2216501545.145
RECEIVE_FREQ_1 =   2022-11-29T23:06:07.517   2216501544.145
RECEIVE_FREQ_1 =   2022-11-29T23:06:17.453   2216501543.145
RECEIVE_FREQ_1 =   2022-11-29T23:06:27.475   2216501542.045
RECEIVE_FREQ_1 =   2022-11-29T23:06:37.498   2216501540.745
RECEIVE_FREQ_1 =   2022-11-29T23:06:47.520   2216501540.045
RECEIVE_FREQ_1 =   2022-11-29T23:07:07.478   2216501537.745
RECEIVE_FREQ_1 =   2022-11-29T23:07:17.501   2216501537.045
RECEIVE_FREQ_1 =   2022-11-29T23:07:27.523   2216501535.545
RECEIVE_FREQ_1 =   2022-11-29T23:07:37.459   2216501534.545
RECEIVE_FREQ_1 =   2022-11-29T23:07:47.482   2216501533.645
RECEIVE_FREQ_1 =   2022-11-29T23:07:57.504   2216501532.545
RECEIVE_FREQ_1 =   2022-11-29T23:08:07.526   2216501531.345
RECEIVE_FREQ_1 =   2022-11-29T23:08:17.462   2216501530.145
RECEIVE_FREQ_1 =   2022-11-29T23:08:27.485   2216501529.145
RECEIVE_FREQ_1 =   2022-11-29T23:08:37.507   2216501528.345
RECEIVE_FREQ_1 =   2022-11-29T23:09:07.488   2216501524.845
RECEIVE_FREQ_1 =   2022-11-29T23:09:27.533   2216501522.545
RECEIVE_FREQ_1 =   2022-11-29T23:09:37.469   2216501521.745
RECEIVE_FREQ_1 =   2022-11-29T23:09:37.469   2216501521.745
RECEIVE_FREQ_1 =   2022-11-29T23:09:57.514   2216501519.445
RECEIVE_FREQ_1 =   2022-11-29T23:10:17.472   2216501517.445
RECEIVE_FREQ_1 =   2022-11-29T23:10:27.494   2216501516.745
RECEIVE_FREQ_1 =   2022-11-29T23:10:37.517   2216501515.045
RECEIVE_FREQ_1 =   2022-11-29T23:10:47.453   2216501513.945
RECEIVE_FREQ_1 =   2022-11-29T23:11:07.498   2216501512.245
RECEIVE_FREQ_1 =   2022-11-29T23:11:27.456   2216501509.745
RECEIVE_FREQ_1 =   2022-11-29T23:11:37.478   2216501508.745
RECEIVE_FREQ_1 =   2022-11-29T23:11:57.523   2216501506.145
RECEIVE_FREQ_1 =   2022-11-29T23:12:07.459   2216501505.345
RECEIVE_FREQ_1 =   2022-11-29T23:12:17.482   2216501504.345
RECEIVE_FREQ_1 =   2022-11-29T23:12:27.504   2216501503.245
RECEIVE_FREQ_1 =   2022-11-29T23:12:37.526   2216501502.445
RECEIVE_FREQ_1 =   2022-11-29T23:12:47.462   2216501501.345
RECEIVE_FREQ_1 =   2022-11-29T23:13:07.507   2216501498.745
RECEIVE_FREQ_1 =   2022-11-29T23:13:17.443   2216501497.645
RECEIVE_FREQ_1 =   2022-11-29T23:13:27.466   2216501496.545
RECEIVE_FREQ_1 =   2022-11-29T23:13:37.488   2216501495.645
RECEIVE_FREQ_1 =   2022-11-29T23:13:47.510   2216501494.445
RECEIVE_FREQ_1 =   2022-11-29T23:13:57.446   2216501493.245
RECEIVE_FREQ_1 =   2022-11-29T23:14:07.469   2216501492.045
RECEIVE_FREQ_1 =   2022-11-29T23:14:17.491   2216501491.245
RECEIVE_FREQ_1 =   2022-11-29T23:14:27.514   2216501489.845
RECEIVE_FREQ_1 =   2022-11-29T23:14:37.536   2216501488.645
RECEIVE_FREQ_1 =   2022-11-29T23:14:47.472   2216501487.645
RECEIVE_FREQ_1 =   2022-11-29T23:14:57.494   2216501486.845
RECEIVE_FREQ_1 =   2022-11-29T23:15:07.517   2216501485.745
RECEIVE_FREQ_1 =   2022-11-29T23:15:17.453   2216501484.545
RECEIVE_FREQ_1 =   2022-11-29T23:15:27.475   2216501483.345
RECEIVE_FREQ_1 =   2022-11-29T23:15:37.498   2216501482.145
RECEIVE_FREQ_1 =   2022-11-29T23:15:47.520   2216501481.045
RECEIVE_FREQ_1 =   2022-11-29T23:15:57.456   2216501479.745
RECEIVE_FREQ_1 =   2022-11-29T23:16:07.478   2216501478.645
RECEIVE_FREQ_1 =   2022-11-29T23:16:17.501   2216501477.545
RECEIVE_FREQ_1 =   2022-11-29T23:16:27.523   2216501476.445
RECEIVE_FREQ_1 =   2022-11-29T23:16:37.459   2216501475.445
RECEIVE_FREQ_1 =   2022-11-29T23:16:47.482   2216501474.245
RECEIVE_FREQ_1 =   2022-11-29T23:16:57.504   2216501473.145
RECEIVE_FREQ_1 =   2022-11-29T23:17:07.526   2216501472.045
RECEIVE_FREQ_1 =   2022-11-29T23:17:17.462   2216501471.045
RECEIVE_FREQ_1 =   2022-11-29T23:17:27.485   2216501469.845
RECEIVE_FREQ_1 =   2022-11-29T23:17:37.507   2216501468.345
RECEIVE_FREQ_1 =   2022-11-29T23:17:47.530   2216501467.345
RECEIVE_FREQ_1 =   2022-11-29T23:17:57.466   2216501466.345
RECEIVE_FREQ_1 =   2022-11-29T23:18:07.488   2216501465.345
RECEIVE_FREQ_1 =   2022-11-29T23:18:17.510   2216501464.145
RECEIVE_FREQ_1 =   2022-11-29T23:18:27.446   2216501462.745
RECEIVE_FREQ_1 =   2022-11-29T23:18:37.469   2216501462.045
RECEIVE_FREQ_1 =   2022-11-29T23:18:47.491   2216501460.745
RECEIVE_FREQ_1 =   2022-11-29T23:18:57.514   2216501459.645
RECEIVE_FREQ_1 =   2022-11-29T23:19:07.536   2216501458.345
RECEIVE_FREQ_1 =   2022-11-29T23:19:17.472   2216501457.045
RECEIVE_FREQ_1 =   2022-11-29T23:19:27.494   2216501456.245
RECEIVE_FREQ_1 =   2022-11-29T23:19:47.453   2216501453.845
RECEIVE_FREQ_1 =   2022-11-29T23:19:57.475   2216501452.545
RECEIVE_FREQ_1 =   2022-11-29T23:20:07.498   2216501451.245
RECEIVE_FREQ_1 =   2022-11-29T23:20:17.520   2216501450.445
RECEIVE_FREQ_1 =   2022-11-29T23:20:27.456   2216501449.345
RECEIVE_FREQ_1 =   2022-11-29T23:20:37.478   2216501447.645
RECEIVE_FREQ_1 =   2022-11-29T23:20:47.501   2216501447.145
RECEIVE_FREQ_1 =   2022-11-29T23:20:57.523   2216501445.445
RECEIVE_FREQ_1 =   2022-11-29T23:21:07.459   2216501444.345
RECEIVE_FREQ_1 =   2022-11-29T23:21:17.482   2216501443.145
RECEIVE_FREQ_1 =   2022-11-29T23:21:27.504   2216501442.845
RECEIVE_FREQ_1 =   2022-11-29T23:21:37.526   2216501440.845
RECEIVE_FREQ_1 =   2022-11-29T23:21:47.462   2216501439.745
RECEIVE_FREQ_1 =   2022-11-29T23:21:57.485   2216501438.645
RECEIVE_FREQ_1 =   2022-11-29T23:22:07.507   2216501437.845
RECEIVE_FREQ_1 =   2022-11-29T23:22:17.530   2216501436.145
RECEIVE_FREQ_1 =   2022-11-29T23:22:27.466   2216501435.345
RECEIVE_FREQ_1 =   2022-11-29T23:22:37.488   2216501434.045
RECEIVE_FREQ_1 =   2022-11-29T23:22:47.510   2216501432.545
RECEIVE_FREQ_1 =   2022-11-29T23:22:57.533   2216501431.745
RECEIVE_FREQ_1 =   2022-11-29T23:22:57.533   2216501431.745
RECEIVE_FREQ_1 =   2022-11-29T23:23:17.491   2216501429.345
RECEIVE_FREQ_1 =   2022-11-29T23:23:27.514   2216501428.145
RECEIVE_FREQ_1 =   2022-11-29T23:23:37.450   2216501426.945
RECEIVE_FREQ_1 =   2022-11-29T23:23:47.472   2216501425.445
RECEIVE_FREQ_1 =   2022-11-29T23:23:57.494   2216501424.645
RECEIVE_FREQ_1 =   2022-11-29T23:24:07.517   2216501423.245
RECEIVE_FREQ_1 =   2022-11-29T23:24:17.539   2216501422.045
RECEIVE_FREQ_1 =   2022-11-29T23:24:27.475   2216501420.945
RECEIVE_FREQ_1 =   2022-11-29T23:24:37.498   2216501419.845
RECEIVE_FREQ_1 =   2022-11-29T23:24:57.542   2216501417.445
RECEIVE_FREQ_1 =   2022-11-29T23:25:07.478   2216501416.045
RECEIVE_FREQ_1 =   2022-11-29T23:25:17.501   2216501415.345
RECEIVE_FREQ_1 =   2022-11-29T23:25:27.523   2216501413.745
RECEIVE_FREQ_1 =   2022-11-29T23:25:37.459   2216501412.645
RECEIVE_FREQ_1 =   2022-11-29T23:25:47.482   2216501411.645
RECEIVE_FREQ_1 =   2022-11-29T23:25:57.504   2216501410.545
RECEIVE_FREQ_1 =   2022-11-29T23:26:07.526   2216501409.145
RECEIVE_FREQ_1 =   2022-11-29T23:26:17.462   2216501408.245
RECEIVE_FREQ_1 =   2022-11-29T23:26:37.507   2216501405.745
RECEIVE_FREQ_1 =   2022-11-29T23:26:47.530   2216501404.745
RECEIVE_FREQ_1 =   2022-11-29T23:26:57.466   2216501403.145
RECEIVE_FREQ_1 =   2022-11-29T23:27:07.488   2216501401.845
RECEIVE_FREQ_1 =   2022-11-29T23:27:27.446   2216501399.445
RECEIVE_FREQ_1 =   2022-11-29T23:27:37.469   2216501398.345
RECEIVE_FREQ_1 =   2022-11-29T23:27:57.514   2216501395.945
RECEIVE_FREQ_1 =   2022-11-29T23:28:07.450   2216501394.745
RECEIVE_FREQ_1 =   2022-11-29T23:28:17.472   2216501393.645
RECEIVE_FREQ_1 =   2022-11-29T23:28:27.494   2216501392.445
RECEIVE_FREQ_1 =   2022-11-29T23:28:37.517   2216501390.945
RECEIVE_FREQ_1 =   2022-11-29T23:29:07.498   2216501387.745
RECEIVE_FREQ_1 =   2022-11-29T23:29:17.520   2216501386.445
RECEIVE_FREQ_1 =   2022-11-29T23:29:27.456   2216501385.045
RECEIVE_FREQ_1 =   2022-11-29T23:29:57.523   2216501381.445
RECEIVE_FREQ_1 =   2022-11-29T23:30:07.459   2216501380.645
RECEIVE_FREQ_1 =   2022-11-29T23:30:17.482   2216501379.345
RECEIVE_FREQ_1 =   2022-11-29T23:30:27.504   2216501377.845
RECEIVE_FREQ_1 =   2022-11-29T23:30:37.526   2216501376.545
RECEIVE_FREQ_1 =   2022-11-29T23:30:47.462   2216501374.845
RECEIVE_FREQ_1 =   2022-11-29T23:31:07.507   2216501372.945
RECEIVE_FREQ_1 =   2022-11-29T23:31:17.530   2216501371.645
RECEIVE_FREQ_1 =   2022-11-29T23:31:27.466   2216501370.345
RECEIVE_FREQ_1 =   2022-11-29T23:31:37.488   2216501369.245
RECEIVE_FREQ_1 =   2022-11-29T23:31:57.533   2216501367.045
RECEIVE_FREQ_1 =   2022-11-29T23:32:07.469   2216501365.945
RECEIVE_FREQ_1 =   2022-11-29T23:32:17.491   2216501364.745
RECEIVE_FREQ_1 =   2022-11-29T23:32:27.514   2216501363.645
RECEIVE_FREQ_1 =   2022-11-29T23:32:57.494   2216501360.545
RECEIVE_FREQ_1 =   2022-11-29T23:33:07.517   2216501359.345
RECEIVE_FREQ_1 =   2022-11-29T23:33:17.453   2216501358.045
RECEIVE_FREQ_1 =   2022-11-29T23:33:27.475   2216501356.845
RECEIVE_FREQ_1 =   2022-11-29T23:33:37.498   2216501355.545
RECEIVE_FREQ_1 =   2022-11-29T23:33:47.520   2216501354.445
RECEIVE_FREQ_1 =   2022-11-29T23:34:07.478   2216501352.245
RECEIVE_FREQ_1 =   2022-11-29T23:34:17.501   2216501350.945
RECEIVE_FREQ_1 =   2022-11-29T23:34:27.523   2216501350.045
RECEIVE_FREQ_1 =   2022-11-29T23:34:37.459   2216501348.745
RECEIVE_FREQ_1 =   2022-11-29T23:35:07.440   2216501345.245
RECEIVE_FREQ_1 =   2022-11-29T23:35:17.462   2216501344.245
RECEIVE_FREQ_1 =   2022-11-29T23:35:27.485   2216501343.145
RECEIVE_FREQ_1 =   2022-11-29T23:35:37.507   2216501342.245
RECEIVE_FREQ_1 =   2022-11-29T23:35:47.530   2216501340.645
RECEIVE_FREQ_1 =   2022-11-29T23:35:57.466   2216501339.745
RECEIVE_FREQ_1 =   2022-11-29T23:36:07.488   2216501338.345
RECEIVE_FREQ_1 =   2022-11-29T23:36:27.533   2216501335.845
RECEIVE_FREQ_1 =   2022-11-29T23:36:47.491   2216501333.545
RECEIVE_FREQ_1 =   2022-11-29T23:36:57.514   2216501332.345
RECEIVE_FREQ_1 =   2022-11-29T23:37:17.472   2216501329.845
RECEIVE_FREQ_1 =   2022-11-29T23:38:07.498   2216501324.145
RECEIVE_FREQ_1 =   2022-11-29T23:38:17.520   2216501323.045
RECEIVE_FREQ_1 =   2022-11-29T23:38:27.456   2216501322.045
RECEIVE_FREQ_1 =   2022-11-29T23:39:07.459   2216501317.445
RECEIVE_FREQ_1 =   2022-11-29T23:39:17.482   2216501316.145
RECEIVE_FREQ_1 =   2022-11-29T23:39:47.462   2216501312.445
RECEIVE_FREQ_1 =   2022-11-29T23:40:07.507   2216501309.945
RECEIVE_FREQ_1 =   2022-11-29T23:40:17.530   2216501308.545
RECEIVE_FREQ_1 =   2022-11-29T23:40:57.533   2216501304.345
RECEIVE_FREQ_1 =   2022-11-29T23:41:17.491   2216501301.745
RECEIVE_FREQ_1 =   2022-11-29T23:42:07.517   2216501295.445
RECEIVE_FREQ_1 =   2022-11-29T23:43:17.501   2216501287.245
RECEIVE_FREQ_1 =   2022-11-29T23:43:27.523   2216501286.345
RECEIVE_FREQ_1 =   2022-11-29T23:43:57.504   2216501282.545
RECEIVE_FREQ_1 =   2022-11-29T23:44:07.526   2216501281.545
RECEIVE_FREQ_1 =   2022-11-29T23:44:27.485   2216501278.945
RECEIVE_FREQ_1 =   2022-11-29T23:44:37.507   2216501277.945
RECEIVE_FREQ_1 =   2022-11-29T23:44:57.466   2216501274.745
RECEIVE_FREQ_1 =   2022-11-29T23:45:17.510   2216501273.045
RECEIVE_FREQ_1 =   2022-11-29T23:45:27.533   2216501272.045
RECEIVE_FREQ_1 =   2022-11-29T23:45:47.491   2216501269.745
RECEIVE_FREQ_1 =   2022-11-29T23:45:57.514   2216501268.045
RECEIVE_FREQ_1 =   2022-11-29T23:46:27.494   2216501264.445
RECEIVE_FREQ_1 =   2022-11-29T23:46:37.517   2216501263.445
RECEIVE_FREQ_1 =   2022-11-29T23:46:57.475   2216501261.145
RECEIVE_FREQ_1 =   2022-11-29T23:47:17.520   2216501258.145
RECEIVE_FREQ_1 =   2022-11-29T23:49:17.530   2216501243.745
RECEIVE_FREQ_1 =   2022-11-29T23:50:07.469   2216501237.245
RECEIVE_FREQ_1 =   2022-11-29T23:50:17.491   2216501235.745
RECEIVE_FREQ_1 =   2022-11-29T23:50:27.514   2216501234.745
RECEIVE_FREQ_1 =   2022-11-29T23:50:47.472   2216501232.545
RECEIVE_FREQ_1 =   2022-11-29T23:51:17.453   2216501228.245
RECEIVE_FREQ_1 =   2022-11-29T23:51:47.520   2216501224.645
RECEIVE_FREQ_1 =   2022-11-29T23:52:47.482   2216501217.145
RECEIVE_FREQ_1 =   2022-11-29T23:53:27.485   2216501212.045
RECEIVE_FREQ_1 =   2022-11-29T23:53:47.530   2216501209.745
RECEIVE_FREQ_1 =   2022-11-29T23:54:07.488   2216501207.345
RECEIVE_FREQ_1 =   2022-11-29T23:54:17.510   2216501205.845
RECEIVE_FREQ_1 =   2022-11-29T23:54:37.469   2216501203.245
RECEIVE_FREQ_1 =   2022-11-29T23:54:47.491   2216501202.145
RECEIVE_FREQ_1 =   2022-11-29T23:54:57.514   2216501200.945
RECEIVE_FREQ_1 =   2022-11-29T23:55:47.453   2216501194.345
RECEIVE_FREQ_1 =   2022-11-29T23:55:57.475   2216501193.245
RECEIVE_FREQ_1 =   2022-11-29T23:56:17.520   2216501190.545
RECEIVE_FREQ_1 =   2022-11-29T23:56:27.456   2216501189.245
RECEIVE_FREQ_1 =   2022-11-29T23:56:37.478   2216501187.945
RECEIVE_FREQ_1 =   2022-11-29T23:56:47.501   2216501186.945
RECEIVE_FREQ_1 =   2022-11-29T23:56:57.523   2216501185.845
RECEIVE_FREQ_1 =   2022-11-29T23:57:07.546   2216501184.345
RECEIVE_FREQ_1 =   2022-11-29T23:57:17.482   2216501182.745
RECEIVE_FREQ_1 =   2022-11-29T23:57:27.504   2216501181.645
RECEIVE_FREQ_1 =   2022-11-29T23:57:37.526   2216501180.345
RECEIVE_FREQ_1 =   2022-11-29T23:57:47.462   2216501179.245
RECEIVE_FREQ_1 =   2022-11-29T23:58:17.530   2216501175.345
RECEIVE_FREQ_1 =   2022-11-29T23:58:47.510   2216501171.245
RECEIVE_FREQ_1 =   2022-11-29T23:58:57.533   2216501169.845
RECEIVE_FREQ_1 =   2022-11-29T23:59:07.469   2216501168.845
RECEIVE_FREQ_1 =   2022-11-29T23:59:17.491   2216501167.645
RECEIVE_FREQ_1 =   2022-11-29T23:59:27.514   2216501166.445
RECEIVE_FREQ_1 =   2022-11-29T23:59:37.450   2216501164.945
RECEIVE_FREQ_1 =   2022-11-30T00:00:17.453   2216501159.945
RECEIVE_FREQ_1 =   2022-11-30T00:00:27.475   2216501158.845
RECEIVE_FREQ_1 =   2022-11-30T00:00:37.498   2216501157.345
RECEIVE_FREQ_1 =   2022-11-30T00:01:07.478   2216501153.245
RECEIVE_FREQ_1 =   2022-11-30T00:01:27.523   2216501150.745
RECEIVE_FREQ_1 =   2022-11-30T00:01:37.459   2216501149.245
RECEIVE_FREQ_1 =   2022-11-30T00:01:57.504   2216501147.045
RECEIVE_FREQ_1 =   2022-11-30T00:02:17.462   2216501144.345
RECEIVE_FREQ_1 =   2022-11-30T00:02:27.485   2216501143.045
RECEIVE_FREQ_1 =   2022-11-30T00:03:47.491   2216501132.845
RECEIVE_FREQ_1 =   2022-11-30T00:03:57.514   2216501131.245
RECEIVE_FREQ_1 =   2022-11-30T00:04:27.494   2216501127.245
RECEIVE_FREQ_1 =   2022-11-30T00:04:47.539   2216501124.845
RECEIVE_FREQ_1 =   2022-11-30T00:05:17.520   2216501121.045
RECEIVE_FREQ_1 =   2022-11-30T00:05:47.501   2216501117.345
RECEIVE_FREQ_1 =   2022-11-30T00:06:37.526   2216501112.445
RECEIVE_FREQ_1 =   2022-11-30T00:07:27.466   2216501105.045
RECEIVE_FREQ_1 =   2022-11-30T00:12:37.555   2216501066.145
RECEIVE_FREQ_1 =   2022-11-30T00:12:47.491   2216501064.945
RECEIVE_FREQ_1 =   2022-11-30T00:13:07.536   2216501062.045
RECEIVE_FREQ_1 =   2022-11-30T00:13:37.517   2216501058.245
RECEIVE_FREQ_1 =   2022-11-30T00:14:47.501   2216501049.545
RECEIVE_FREQ_1 =   2022-11-30T00:15:37.526   2216501042.945
RECEIVE_FREQ_1 =   2022-11-30T00:15:47.462   2216501041.545
RECEIVE_FREQ_1 =   2022-11-30T00:15:57.485   2216501040.445
RECEIVE_FREQ_1 =   2022-11-30T00:16:07.507   2216501039.545
RECEIVE_FREQ_1 =   2022-11-30T00:16:47.510   2216501033.745
RECEIVE_FREQ_1 =   2022-11-30T00:17:07.469   2216501031.245
RECEIVE_FREQ_1 =   2022-11-30T00:17:17.491   2216501030.145
RECEIVE_FREQ_1 =   2022-11-30T00:17:37.536   2216501027.745
RECEIVE_FREQ_1 =   2022-11-30T00:17:57.494   2216501024.445
RECEIVE_FREQ_1 =   2022-11-30T00:18:57.456   2216501017.245
RECEIVE_FREQ_1 =   2022-11-30T00:18:57.456   2216501017.245
RECEIVE_FREQ_1 =   2022-11-30T00:19:07.478   2216501016.245
RECEIVE_FREQ_1 =   2022-11-30T00:19:17.501   2216501014.845
RECEIVE_FREQ_1 =   2022-11-30T00:20:17.462   2216501006.745
RECEIVE_FREQ_1 =   2022-11-30T00:20:27.485   2216501005.845
RECEIVE_FREQ_1 =   2022-11-30T00:20:37.507   2216501003.745
RECEIVE_FREQ_1 =   2022-11-30T00:20:47.530   2216501002.745
RECEIVE_FREQ_1 =   2022-11-30T00:21:17.510   2216500998.845
RECEIVE_FREQ_1 =   2022-11-30T00:21:27.533   2216500997.445
RECEIVE_FREQ_1 =   2022-11-30T00:21:37.469   2216500996.345
RECEIVE_FREQ_1 =   2022-11-30T00:21:47.491   2216500995.045
RECEIVE_FREQ_1 =   2022-11-30T00:22:07.536   2216500992.445
RECEIVE_FREQ_1 =   2022-11-30T00:22:17.472   2216500991.045
RECEIVE_FREQ_1 =   2022-11-30T00:22:27.494   2216500989.845
RECEIVE_FREQ_1 =   2022-11-30T00:22:37.517   2216500988.445
RECEIVE_FREQ_1 =   2022-11-30T00:22:47.453   2216500986.945
RECEIVE_FREQ_1 =   2022-11-30T00:22:57.475   2216500985.945
RECEIVE_FREQ_1 =   2022-11-30T00:23:07.498   2216500984.645
RECEIVE_FREQ_1 =   2022-11-30T00:23:17.520   2216500983.345
RECEIVE_FREQ_1 =   2022-11-30T00:23:27.456   2216500982.145
RECEIVE_FREQ_1 =   2022-11-30T00:23:37.478   2216500980.645
RECEIVE_FREQ_1 =   2022-11-30T00:23:47.501   2216500979.545
RECEIVE_FREQ_1 =   2022-11-30T00:23:57.523   2216500977.945
RECEIVE_FREQ_1 =   2022-11-30T00:24:07.459   2216500976.645
RECEIVE_FREQ_1 =   2022-11-30T00:24:17.482   2216500975.845
RECEIVE_FREQ_1 =   2022-11-30T00:24:47.462   2216500971.645
RECEIVE_FREQ_1 =   2022-11-30T00:24:57.485   2216500970.045
RECEIVE_FREQ_1 =   2022-11-30T00:25:07.507   2216500969.145
RECEIVE_FREQ_1 =   2022-11-30T00:25:17.530   2216500967.345
RECEIVE_FREQ_1 =   2022-11-30T00:25:47.510   2216500963.545
RECEIVE_FREQ_1 =   2022-11-30T00:26:27.514   2216500958.645
RECEIVE_FREQ_1 =   2022-11-30T00:26:37.536   2216500956.745
RECEIVE_FREQ_1 =   2022-11-30T00:26:47.472   2216500955.645
RECEIVE_FREQ_1 =   2022-11-30T00:26:57.494   2216500954.345
RECEIVE_FREQ_1 =   2022-11-30T00:27:07.517   2216500953.445
RECEIVE_FREQ_1 =   2022-11-30T00:27:27.475   2216500950.645
RECEIVE_FREQ_1 =   2022-11-30T00:27:37.498   2216500949.145
RECEIVE_FREQ_1 =   2022-11-30T00:27:47.520   2216500947.945
RECEIVE_FREQ_1 =   2022-11-30T00:28:17.501   2216500943.945
RECEIVE_FREQ_1 =   2022-11-30T00:28:27.523   2216500942.645
RECEIVE_FREQ_1 =   2022-11-30T00:28:57.504   2216500938.645
RECEIVE_FREQ_1 =   2022-11-30T00:29:07.526   2216500937.245
RECEIVE_FREQ_1 =   2022-11-30T00:29:27.485   2216500934.745
RECEIVE_FREQ_1 =   2022-11-30T00:29:37.507   2216500933.045
RECEIVE_FREQ_1 =   2022-11-30T00:29:47.530   2216500932.045
RECEIVE_FREQ_1 =   2022-11-30T00:29:57.466   2216500930.545
RECEIVE_FREQ_1 =   2022-11-30T00:30:07.488   2216500929.045
RECEIVE_FREQ_1 =   2022-11-30T00:30:17.510   2216500927.645
RECEIVE_FREQ_1 =   2022-11-30T00:30:27.533   2216500926.445
RECEIVE_FREQ_1 =   2022-11-30T00:30:37.469   2216500925.345
RECEIVE_FREQ_1 =   2022-11-30T00:30:47.491   2216500923.845
RECEIVE_FREQ_1 =   2022-11-30T00:30:57.514   2216500922.545
RECEIVE_FREQ_1 =   2022-11-30T00:31:07.450   2216500921.045
RECEIVE_FREQ_1 =   2022-11-30T00:31:17.472   2216500920.045
RECEIVE_FREQ_1 =   2022-11-30T00:31:27.494   2216500918.745
RECEIVE_FREQ_1 =   2022-11-30T00:31:47.453   2216500915.945
RECEIVE_FREQ_1 =   2022-11-30T00:31:57.475   2216500914.745
RECEIVE_FREQ_1 =   2022-11-30T00:32:07.498   2216500913.145
RECEIVE_FREQ_1 =   2022-11-30T00:32:17.520   2216500911.945
RECEIVE_FREQ_1 =   2022-11-30T00:32:27.456   2216500910.645
RECEIVE_FREQ_1 =   2022-11-30T00:32:27.456   2216500910.645
RECEIVE_FREQ_1 =   2022-11-30T00:32:37.478   2216500909.245
RECEIVE_FREQ_1 =   2022-11-30T00:32:47.501   2216500908.045
RECEIVE_FREQ_1 =   2022-11-30T00:32:57.523   2216500906.445
RECEIVE_FREQ_1 =   2022-11-30T00:33:07.459   2216500905.045
RECEIVE_FREQ_1 =   2022-11-30T00:33:17.482   2216500904.145
RECEIVE_FREQ_1 =   2022-11-30T00:33:27.504   2216500902.445
RECEIVE_FREQ_1 =   2022-11-30T00:33:37.526   2216500901.245
RECEIVE_FREQ_1 =   2022-11-30T00:33:47.462   2216500899.745
RECEIVE_FREQ_1 =   2022-11-30T00:33:57.485   2216500898.545
RECEIVE_FREQ_1 =   2022-11-30T00:34:07.507   2216500897.245
RECEIVE_FREQ_1 =   2022-11-30T00:34:17.530   2216500896.245
RECEIVE_FREQ_1 =   2022-11-30T00:34:27.466   2216500894.645
RECEIVE_FREQ_1 =   2022-11-30T00:34:37.488   2216500893.245
RECEIVE_FREQ_1 =   2022-11-30T00:34:47.510   2216500891.745
RECEIVE_FREQ_1 =   2022-11-30T00:34:57.533   2216500890.345
RECEIVE_FREQ_1 =   2022-11-30T00:35:07.469   2216500889.045
RECEIVE_FREQ_1 =   2022-11-30T00:35:17.491   2216500887.645
RECEIVE_FREQ_1 =   2022-11-30T00:35:27.514   2216500886.445
RECEIVE_FREQ_1 =   2022-11-30T00:35:37.450   2216500885.245
RECEIVE_FREQ_1 =   2022-11-30T00:35:47.472   2216500883.645
RECEIVE_FREQ_1 =   2022-11-30T00:35:57.494   2216500882.445
RECEIVE_FREQ_1 =   2022-11-30T00:36:07.517   2216500881.245
RECEIVE_FREQ_1 =   2022-11-30T00:36:17.453   2216500879.645
RECEIVE_FREQ_1 =   2022-11-30T00:36:27.475   2216500878.545
RECEIVE_FREQ_1 =   2022-11-30T00:36:37.498   2216500877.245
RECEIVE_FREQ_1 =   2022-11-30T00:36:47.520   2216500875.945
RECEIVE_FREQ_1 =   2022-11-30T00:36:57.456   2216500874.345
RECEIVE_FREQ_1 =   2022-11-30T00:37:07.478   2216500872.745
RECEIVE_FREQ_1 =   2022-11-30T00:37:17.501   2216500871.845
RECEIVE_FREQ_1 =   2022-11-30T00:37:27.523   2216500869.945
RECEIVE_FREQ_1 =   2022-11-30T00:37:37.459   2216500868.945
RECEIVE_FREQ_1 =   2022-11-30T00:37:47.482   2216500867.545
RECEIVE_FREQ_1 =   2022-11-30T00:37:57.504   2216500866.545
RECEIVE_FREQ_1 =   2022-11-30T00:37:57.504   2216500866.545
RECEIVE_FREQ_1 =   2022-11-30T00:38:07.526   2216500864.945
RECEIVE_FREQ_1 =   2022-11-30T00:38:17.462   2216500863.745
RECEIVE_FREQ_1 =   2022-11-30T00:38:27.485   2216500862.345
RECEIVE_FREQ_1 =   2022-11-30T00:38:37.507   2216500860.745
RECEIVE_FREQ_1 =   2022-11-30T00:38:47.530   2216500859.845
RECEIVE_FREQ_1 =   2022-11-30T00:38:57.466   2216500858.245
RECEIVE_FREQ_1 =   2022-11-30T00:39:07.488   2216500856.745
RECEIVE_FREQ_1 =   2022-11-30T00:39:17.510   2216500855.545
RECEIVE_FREQ_1 =   2022-11-30T00:39:27.446   2216500853.745
RECEIVE_FREQ_1 =   2022-11-30T00:39:47.491   2216500851.045
RECEIVE_FREQ_1 =   2022-11-30T00:39:57.514   2216500849.845
RECEIVE_FREQ_1 =   2022-11-30T00:40:07.536   2216500848.745
RECEIVE_FREQ_1 =   2022-11-30T00:40:17.472   2216500847.145
RECEIVE_FREQ_1 =   2022-11-30T00:40:27.494   2216500846.045
RECEIVE_FREQ_1 =   2022-11-30T00:40:37.517   2216500844.545
RECEIVE_FREQ_1 =   2022-11-30T00:40:47.539   2216500843.545
RECEIVE_FREQ_1 =   2022-11-30T00:40:57.475   2216500842.045
RECEIVE_FREQ_1 =   2022-11-30T00:41:07.498   2216500840.645
RECEIVE_FREQ_1 =   2022-11-30T00:41:17.520   2216500838.845
RECEIVE_FREQ_1 =   2022-11-30T00:41:27.456   2216500838.245
RECEIVE_FREQ_1 =   2022-11-30T00:41:37.478   2216500836.645
RECEIVE_FREQ_1 =   2022-11-30T00:41:47.501   2216500835.245
RECEIVE_FREQ_1 =   2022-11-30T00:41:57.523   2216500833.545
RECEIVE_FREQ_1 =   2022-11-30T00:42:07.459   2216500832.145
RECEIVE_FREQ_1 =   2022-11-30T00:42:17.482   2216500830.745
RECEIVE_FREQ_1 =   2022-11-30T00:42:27.504   2216500829.745
RECEIVE_FREQ_1 =   2022-11-30T00:42:37.526   2216500828.345
RECEIVE_FREQ_1 =   2022-11-30T00:42:57.485   2216500825.745
RECEIVE_FREQ_1 =   2022-11-30T00:43:07.507   2216500824.145
RECEIVE_FREQ_1 =   2022-11-30T00:43:17.443   2216500822.845
RECEIVE_FREQ_1 =   2022-11-30T00:43:27.466   2216500821.745
RECEIVE_FREQ_1 =   2022-11-30T00:43:37.488   2216500820.245
RECEIVE_FREQ_1 =   2022-11-30T00:43:47.510   2216500818.745
RECEIVE_FREQ_1 =   2022-11-30T00:43:57.446   2216500817.345
RECEIVE_FREQ_1 =   2022-11-30T00:44:07.469   2216500816.145
RECEIVE_FREQ_1 =   2022-11-30T00:44:17.491   2216500814.445
RECEIVE_FREQ_1 =   2022-11-30T00:44:27.514   2216500813.145
RECEIVE_FREQ_1 =   2022-11-30T00:44:37.450   2216500812.145
RECEIVE_FREQ_1 =   2022-11-30T00:44:47.472   2216500810.545
RECEIVE_FREQ_1 =   2022-11-30T00:44:57.494   2216500809.345
RECEIVE_FREQ_1 =   2022-11-30T00:45:07.517   2216500808.045
RECEIVE_FREQ_1 =   2022-11-30T00:45:27.475   2216500805.545
RECEIVE_FREQ_1 =   2022-11-30T00:45:47.520   2216500802.245
RECEIVE_FREQ_1 =   2022-11-30T00:45:57.456   2216500800.745
RECEIVE_FREQ_1 =   2022-11-30T00:46:37.459   2216500795.545
RECEIVE_FREQ_1 =   2022-11-30T00:46:57.504   2216500793.045
RECEIVE_FREQ_1 =   2022-11-30T00:47:07.526   2216500791.345
RECEIVE_FREQ_1 =   2022-11-30T00:47:17.462   2216500789.745
RECEIVE_FREQ_1 =   2022-11-30T00:47:27.485   2216500788.945
RECEIVE_FREQ_1 =   2022-11-30T00:47:37.507   2216500787.545
RECEIVE_FREQ_1 =   2022-11-30T00:47:47.530   2216500785.845
RECEIVE_FREQ_1 =   2022-11-30T00:47:57.466   2216500784.645
RECEIVE_FREQ_1 =   2022-11-30T00:48:07.488   2216500783.045
RECEIVE_FREQ_1 =   2022-11-30T00:48:17.510   2216500782.045
RECEIVE_FREQ_1 =   2022-11-30T00:48:27.446   2216500780.445
RECEIVE_FREQ_1 =   2022-11-30T00:48:37.469   2216500778.845
RECEIVE_FREQ_1 =   2022-11-30T00:48:47.491   2216500778.045
RECEIVE_FREQ_1 =   2022-11-30T00:48:57.514   2216500776.445
RECEIVE_FREQ_1 =   2022-11-30T00:49:07.450   2216500774.945
RECEIVE_FREQ_1 =   2022-11-30T00:49:27.494   2216500772.545
RECEIVE_FREQ_1 =   2022-11-30T00:49:37.517   2216500770.945
RECEIVE_FREQ_1 =   2022-11-30T00:49:47.453   2216500769.345
RECEIVE_FREQ_1 =   2022-11-30T00:49:57.475   2216500768.245
RECEIVE_FREQ_1 =   2022-11-30T00:50:07.498   2216500766.945
RECEIVE_FREQ_1 =   2022-11-30T00:50:17.520   2216500765.445
RECEIVE_FREQ_1 =   2022-11-30T00:50:27.456   2216500763.945
RECEIVE_FREQ_1 =   2022-11-30T00:50:37.478   2216500762.545
RECEIVE_FREQ_1 =   2022-11-30T00:50:47.501   2216500761.145
RECEIVE_FREQ_1 =   2022-11-30T00:50:57.523   2216500760.045
RECEIVE_FREQ_1 =   2022-11-30T00:51:07.459   2216500758.045
RECEIVE_FREQ_1 =   2022-11-30T00:51:17.482   2216500757.045
RECEIVE_FREQ_1 =   2022-11-30T00:51:27.504   2216500755.945
RECEIVE_FREQ_1 =   2022-11-30T00:51:37.526   2216500754.245
RECEIVE_FREQ_1 =   2022-11-30T00:51:47.462   2216500753.245
RECEIVE_FREQ_1 =   2022-11-30T00:51:57.485   2216500752.045
RECEIVE_FREQ_1 =   2022-11-30T00:52:07.507   2216500750.445
RECEIVE_FREQ_1 =   2022-11-30T00:52:17.530   2216500749.245
RECEIVE_FREQ_1 =   2022-11-30T00:52:27.466   2216500747.645
RECEIVE_FREQ_1 =   2022-11-30T00:52:37.488   2216500746.145
RECEIVE_FREQ_1 =   2022-11-30T00:52:47.510   2216500744.945
RECEIVE_FREQ_1 =   2022-11-30T00:52:57.533   2216500743.745
RECEIVE_FREQ_1 =   2022-11-30T00:53:07.469   2216500742.245
RECEIVE_FREQ_1 =   2022-11-30T00:53:17.491   2216500740.845
RECEIVE_FREQ_1 =   2022-11-30T00:53:27.514   2216500739.845
RECEIVE_FREQ_1 =   2022-11-30T00:53:37.536   2216500738.245
RECEIVE_FREQ_1 =   2022-11-30T00:53:47.472   2216500736.945
RECEIVE_FREQ_1 =   2022-11-30T00:53:57.494   2216500735.945
RECEIVE_FREQ_1 =   2022-11-30T00:54:07.517   2216500734.145
RECEIVE_FREQ_1 =   2022-11-30T00:54:17.539   2216500732.645
RECEIVE_FREQ_1 =   2022-11-30T00:54:27.475   2216500731.545
RECEIVE_FREQ_1 =   2022-11-30T00:54:37.498   2216500729.945
RECEIVE_FREQ_1 =   2022-11-30T00:54:47.520   2216500728.845
RECEIVE_FREQ_1 =   2022-11-30T00:54:57.456   2216500727.845
RECEIVE_FREQ_1 =   2022-11-30T00:55:07.478   2216500725.745
RECEIVE_FREQ_1 =   2022-11-30T00:55:17.501   2216500724.845
RECEIVE_FREQ_1 =   2022-11-30T00:55:27.523   2216500723.345
RECEIVE_FREQ_1 =   2022-11-30T00:55:37.459   2216500721.945
RECEIVE_FREQ_1 =   2022-11-30T00:55:47.482   2216500720.845
RECEIVE_FREQ_1 =   2022-11-30T00:55:57.504   2216500719.445
RECEIVE_FREQ_1 =   2022-11-30T00:56:07.526   2216500717.645
RECEIVE_FREQ_1 =   2022-11-30T00:56:17.462   2216500716.745
RECEIVE_FREQ_1 =   2022-11-30T00:56:37.507   2216500714.045
RECEIVE_FREQ_1 =   2022-11-30T00:56:57.466   2216500711.145
RECEIVE_FREQ_1 =   2022-11-30T00:57:07.488   2216500710.145
RECEIVE_FREQ_1 =   2022-11-30T00:57:17.510   2216500708.145
RECEIVE_FREQ_1 =   2022-11-30T00:57:27.533   2216500706.745
RECEIVE_FREQ_1 =   2022-11-30T00:57:37.469   2216500705.445
RECEIVE_FREQ_1 =   2022-11-30T00:57:47.491   2216500704.645
RECEIVE_FREQ_1 =   2022-11-30T00:57:57.514   2216500702.445
RECEIVE_FREQ_1 =   2022-11-30T00:58:17.472   2216500700.045
RECEIVE_FREQ_1 =   2022-11-30T00:58:47.539   2216500695.945
RECEIVE_FREQ_1 =   2022-11-30T00:58:57.475   2216500694.745
RECEIVE_FREQ_1 =   2022-11-30T00:59:07.498   2216500693.245
RECEIVE_FREQ_1 =   2022-11-30T00:59:17.520   2216500692.045
RECEIVE_FREQ_1 =   2022-11-30T00:59:27.456   2216500691.045
RECEIVE_FREQ_1 =   2022-11-30T00:59:37.478   2216500689.045
RECEIVE_FREQ_1 =   2022-11-30T00:59:47.501   2216500687.945
RECEIVE_FREQ_1 =   2022-11-30T00:59:57.523   2216500686.745
RECEIVE_FREQ_1 =   2022-11-30T01:00:07.459   2216500685.245
RECEIVE_FREQ_1 =   2022-11-30T01:00:17.482   2216500683.745
RECEIVE_FREQ_1 =   2022-11-30T01:00:27.504   2216500682.645
RECEIVE_FREQ_1 =   2022-11-30T01:00:37.526   2216500681.645
RECEIVE_FREQ_1 =   2022-11-30T01:00:47.462   2216500679.845
RECEIVE_FREQ_1 =   2022-11-30T01:01:07.507   2216500677.045
RECEIVE_FREQ_1 =   2022-11-30T01:01:17.530   2216500675.645
RECEIVE_FREQ_1 =   2022-11-30T01:01:27.466   2216500674.445
RECEIVE_FREQ_1 =   2022-11-30T01:01:37.488   2216500673.145
RECEIVE_FREQ_1 =   2022-11-30T01:01:47.510   2216500671.645
RECEIVE_FREQ_1 =   2022-11-30T01:01:57.533   2216500670.345
RECEIVE_FREQ_1 =   2022-11-30T01:02:07.469   2216500669.145
RECEIVE_FREQ_1 =   2022-11-30T01:02:17.491   2216500667.745
RECEIVE_FREQ_1 =   2022-11-30T01:02:27.514   2216500666.045
RECEIVE_FREQ_1 =   2022-11-30T01:02:37.450   2216500665.045
RECEIVE_FREQ_1 =   2022-11-30T01:02:47.472   2216500663.645
RECEIVE_FREQ_1 =   2022-11-30T01:03:07.517   2216500660.745
RECEIVE_FREQ_1 =   2022-11-30T01:03:17.453   2216500659.645
RECEIVE_FREQ_1 =   2022-11-30T01:03:27.475   2216500658.045
RECEIVE_FREQ_1 =   2022-11-30T01:03:37.498   2216500656.745
RECEIVE_FREQ_1 =   2022-11-30T01:03:47.520   2216500655.145
RECEIVE_FREQ_1 =   2022-11-30T01:03:57.456   2216500653.945
RECEIVE_FREQ_1 =   2022-11-30T01:04:07.478   2216500652.645
RECEIVE_FREQ_1 =   2022-11-30T01:04:17.501   2216500651.045
RECEIVE_FREQ_1 =   2022-11-30T01:04:27.523   2216500650.245
RECEIVE_FREQ_1 =   2022-11-30T01:04:47.482   2216500647.445
RECEIVE_FREQ_1 =   2022-11-30T01:04:57.504   2216500645.645
RECEIVE_FREQ_1 =   2022-11-30T01:05:07.526   2216500644.445
RECEIVE_FREQ_1 =   2022-11-30T01:05:17.462   2216500643.045
RECEIVE_FREQ_1 =   2022-11-30T01:05:37.507   2216500640.145
RECEIVE_FREQ_1 =   2022-11-30T01:05:47.530   2216500639.045
RECEIVE_FREQ_1 =   2022-11-30T01:05:57.466   2216500637.645
RECEIVE_FREQ_1 =   2022-11-30T01:06:47.491   2216500630.745
RECEIVE_FREQ_1 =   2022-11-30T01:07:07.450   2216500628.445
RECEIVE_FREQ_1 =   2022-11-30T01:07:17.472   2216500626.545
RECEIVE_FREQ_1 =   2022-11-30T01:07:27.494   2216500625.245
RECEIVE_FREQ_1 =   2022-11-30T01:07:37.517   2216500623.845
RECEIVE_FREQ_1 =   2022-11-30T01:07:57.475   2216500621.345
RECEIVE_FREQ_1 =   2022-11-30T01:08:07.498   2216500619.845
RECEIVE_FREQ_1 =   2022-11-30T01:08:17.520   2216500618.445
RECEIVE_FREQ_1 =   2022-11-30T01:08:27.456   2216500617.045
RECEIVE_FREQ_1 =   2022-11-30T01:08:37.478   2216500615.845
RECEIVE_FREQ_1 =   2022-11-30T01:08:47.501   2216500614.245
RECEIVE_FREQ_1 =   2022-11-30T01:09:17.482   2216500610.245
RECEIVE_FREQ_1 =   2022-11-30T01:09:27.504   2216500609.045
RECEIVE_FREQ_1 =   2022-11-30T01:09:37.526   2216500607.545
RECEIVE_FREQ_1 =   2022-11-30T01:09:47.462   2216500606.145
RECEIVE_FREQ_1 =   2022-11-30T01:09:47.462   2216500606.145
RECEIVE_FREQ_1 =   2022-11-30T01:09:57.485   2216500604.445
RECEIVE_FREQ_1 =   2022-11-30T01:10:17.530   2216500602.145
RECEIVE_FREQ_1 =   2022-11-30T01:10:27.466   2216500600.545
RECEIVE_FREQ_1 =   2022-11-30T01:10:37.488   2216500599.245
RECEIVE_FREQ_1 =   2022-11-30T01:10:47.510   2216500597.845
RECEIVE_FREQ_1 =   2022-11-30T01:10:57.446   2216500596.545
RECEIVE_FREQ_1 =   2022-11-30T01:11:07.469   2216500595.045
RECEIVE_FREQ_1 =   2022-11-30T01:11:17.491   2216500593.645
RECEIVE_FREQ_1 =   2022-11-30T01:11:57.494   2216500588.245
RECEIVE_FREQ_1 =   2022-11-30T01:12:27.475   2216500583.645
RECEIVE_FREQ_1 =   2022-11-30T01:12:47.520   2216500581.545
RECEIVE_FREQ_1 =   2022-11-30T01:12:57.456   2216500580.045
RECEIVE_FREQ_1 =   2022-11-30T01:13:07.478   2216500578.745
RECEIVE_FREQ_1 =   2022-11-30T01:13:17.501   2216500577.345
RECEIVE_FREQ_1 =   2022-11-30T01:13:27.523   2216500576.045
RECEIVE_FREQ_1 =   2022-11-30T01:13:37.459   2216500574.945
RECEIVE_FREQ_1 =   2022-11-30T01:13:57.504   2216500571.645
RECEIVE_FREQ_1 =   2022-11-30T01:14:17.462   2216500569.445
RECEIVE_FREQ_1 =   2022-11-30T01:14:47.530   2216500565.045
RECEIVE_FREQ_1 =   2022-11-30T01:14:57.466   2216500563.745
RECEIVE_FREQ_1 =   2022-11-30T01:15:17.510   2216500560.845
RECEIVE_FREQ_1 =   2022-11-30T01:15:37.469   2216500558.245
RECEIVE_FREQ_1 =   2022-11-30T01:15:57.514   2216500555.645
RECEIVE_FREQ_1 =   2022-11-30T01:16:17.472   2216500553.145
RECEIVE_FREQ_1 =   2022-11-30T01:16:37.517   2216500549.945
RECEIVE_FREQ_1 =   2022-11-30T01:16:47.539   2216500548.645
RECEIVE_FREQ_1 =   2022-11-30T01:18:17.482   2216500536.445
RECEIVE_FREQ_1 =   2022-11-30T01:18:27.504   2216500535.045
RECEIVE_FREQ_1 =   2022-11-30T01:18:37.526   2216500533.445
RECEIVE_FREQ_1 =   2022-11-30T01:18:47.549   2216500532.245
RECEIVE_FREQ_1 =   2022-11-30T01:18:57.485   2216500530.845
RECEIVE_FREQ_1 =   2022-11-30T01:19:07.507   2216500529.545
RECEIVE_FREQ_1 =   2022-11-30T01:19:27.466   2216500527.045
RECEIVE_FREQ_1 =   2022-11-30T01:19:47.510   2216500524.045
RECEIVE_FREQ_1 =   2022-11-30T01:20:07.469   2216500520.845
RECEIVE_FREQ_1 =   2022-11-30T01:20:17.491   2216500520.045
RECEIVE_FREQ_1 =   2022-11-30T01:20:47.472   2216500515.945
RECEIVE_FREQ_1 =   2022-11-30T01:21:07.517   2216500513.145
RECEIVE_FREQ_1 =   2022-11-30T01:21:17.539   2216500512.045
RECEIVE_FREQ_1 =   2022-11-30T01:21:27.475   2216500510.745
RECEIVE_FREQ_1 =   2022-11-30T01:21:37.498   2216500508.745
RECEIVE_FREQ_1 =   2022-11-30T01:21:57.542   2216500506.045
RECEIVE_FREQ_1 =   2022-11-30T01:22:07.478   2216500504.845
RECEIVE_FREQ_1 =   2022-11-30T01:22:27.523   2216500502.145
RECEIVE_FREQ_1 =   2022-11-30T01:23:17.462   2216500494.945
RECEIVE_FREQ_1 =   2022-11-30T01:23:47.530   2216500491.745
RECEIVE_FREQ_1 =   2022-11-30T01:24:17.510   2216500487.145
RECEIVE_FREQ_1 =   2022-11-30T01:24:27.533   2216500485.645
RECEIVE_FREQ_1 =   2022-11-30T01:24:37.469   2216500484.545
RECEIVE_FREQ_1 =   2022-11-30T01:24:47.491   2216500482.845
RECEIVE_FREQ_1 =   2022-11-30T01:24:57.514   2216500481.845
RECEIVE_FREQ_1 =   2022-11-30T01:25:07.536   2216500481.245
RECEIVE_FREQ_1 =   2022-11-30T01:25:17.472   2216500480.345
RECEIVE_FREQ_1 =   2022-11-30T01:25:17.472   2216500480.345
RECEIVE_FREQ_1 =   2022-11-30T01:25:27.494   2216500478.645
RECEIVE_FREQ_1 =   2022-11-30T01:25:37.517   2216500477.745
RECEIVE_FREQ_1 =   2022-11-30T01:25:47.453   2216500476.145
RECEIVE_FREQ_1 =   2022-11-30T01:25:57.475   2216500474.845
RECEIVE_FREQ_1 =   2022-11-30T01:26:27.542   2216500470.945
RECEIVE_FREQ_1 =   2022-11-30T01:26:47.501   2216500467.645
RECEIVE_FREQ_1 =   2022-11-30T01:26:57.523   2216500466.445
RECEIVE_FREQ_1 =   2022-11-30T01:27:37.526   2216500461.245
RECEIVE_FREQ_1 =   2022-11-30T01:27:57.485   2216500458.545
RECEIVE_FREQ_1 =   2022-11-30T01:28:07.507   2216500456.845
RECEIVE_FREQ_1 =   2022-11-30T01:28:17.530   2216500455.645
RECEIVE_FREQ_1 =   2022-11-30T01:28:27.466   2216500454.145
RECEIVE_FREQ_1 =   2022-11-30T01:28:37.488   2216500452.845
RECEIVE_FREQ_1 =   2022-11-30T01:28:57.446   2216500449.745
RECEIVE_FREQ_1 =   2022-11-30T01:29:07.469   2216500448.845
RECEIVE_FREQ_1 =   2022-11-30T01:29:47.472   2216500442.845
RECEIVE_FREQ_1 =   2022-11-30T01:29:57.494   2216500441.345
RECEIVE_FREQ_1 =   2022-11-30T01:30:17.453   2216500438.545
RECEIVE_FREQ_1 =   2022-11-30T01:30:27.475   2216500435.845
RECEIVE_FREQ_1 =   2022-11-30T01:30:37.498   2216500435.945
RECEIVE_FREQ_1 =   2022-11-30T01:30:57.542   2216500433.245
RECEIVE_FREQ_1 =   2022-11-30T01:31:07.478   2216500431.745
RECEIVE_FREQ_1 =   2022-11-30T01:31:37.459   2216500427.345
RECEIVE_FREQ_1 =   2022-11-30T01:31:57.504   2216500424.545
RECEIVE_FREQ_1 =   2022-11-30T01:32:37.507   2216500418.645
RECEIVE_FREQ_1 =   2022-11-30T01:32:47.530   2216500417.645
RECEIVE_FREQ_1 =   2022-11-30T01:32:57.466   2216500416.245
RECEIVE_FREQ_1 =   2022-11-30T01:33:07.488   2216500414.245
RECEIVE_FREQ_1 =   2022-11-30T01:33:17.510   2216500413.145
RECEIVE_FREQ_1 =   2022-11-30T01:33:37.469   2216500410.345
RECEIVE_FREQ_1 =   2022-11-30T01:33:47.491   2216500408.745
RECEIVE_FREQ_1 =   2022-11-30T01:33:57.514   2216500407.345
RECEIVE_FREQ_1 =   2022-11-30T01:34:17.472   2216500404.645
RECEIVE_FREQ_1 =   2022-11-30T01:34:37.517   2216500401.745
RECEIVE_FREQ_1 =   2022-11-30T01:34:57.475   2216500398.845
RECEIVE_FREQ_1 =   2022-11-30T01:35:07.498   2216500397.145
RECEIVE_FREQ_1 =   2022-11-30T01:35:17.520   2216500395.445
RECEIVE_FREQ_1 =   2022-11-30T01:35:27.456   2216500394.145
RECEIVE_FREQ_1 =   2022-11-30T01:35:37.478   2216500392.945
RECEIVE_FREQ_1 =   2022-11-30T01:35:47.501   2216500391.445
RECEIVE_FREQ_1 =   2022-11-30T01:35:47.501   2216500391.445
RECEIVE_FREQ_1 =   2022-11-30T01:35:57.523   2216500390.345
RECEIVE_FREQ_1 =   2022-11-30T01:36:07.459   2216500388.845
RECEIVE_FREQ_1 =   2022-11-30T01:36:17.482   2216500387.445
RECEIVE_FREQ_1 =   2022-11-30T01:36:27.504   2216500385.745
RECEIVE_FREQ_1 =   2022-11-30T01:36:57.485   2216500381.945
RECEIVE_FREQ_1 =   2022-11-30T01:37:07.507   2216500380.745
RECEIVE_FREQ_1 =   2022-11-30T01:37:17.530   2216500379.645
RECEIVE_FREQ_1 =   2022-11-30T01:37:37.488   2216500377.045
RECEIVE_FREQ_1 =   2022-11-30T01:37:57.446   2216500374.245
RECEIVE_FREQ_1 =   2022-11-30T01:38:27.514   2216500370.645
RECEIVE_FREQ_1 =   2022-11-30T01:39:27.475   2216500362.345
RECEIVE_FREQ_1 =   2022-11-30T01:39:37.498   2216500361.145
RECEIVE_FREQ_1 =   2022-11-30T01:39:47.520   2216500359.845
RECEIVE_FREQ_1 =   2022-11-30T01:39:57.456   2216500358.645
RECEIVE_FREQ_1 =   2022-11-30T01:40:07.478   2216500356.745
RECEIVE_FREQ_1 =   2022-11-30T01:40:17.501   2216500355.745
RECEIVE_FREQ_1 =   2022-11-30T01:40:27.523   2216500354.445
RECEIVE_FREQ_1 =   2022-11-30T01:40:37.459   2216500353.145
RECEIVE_FREQ_1 =   2022-11-30T01:40:47.482   2216500351.945
RECEIVE_FREQ_1 =   2022-11-30T01:40:57.504   2216500350.445
RECEIVE_FREQ_1 =   2022-11-30T01:41:07.526   2216500349.245
RECEIVE_FREQ_1 =   2022-11-30T01:41:17.462   2216500347.945
RECEIVE_FREQ_1 =   2022-11-30T01:41:17.462   2216500347.945
RECEIVE_FREQ_1 =   2022-11-30T01:41:27.485   2216500346.545
RECEIVE_FREQ_1 =   2022-11-30T01:41:37.507   2216500344.945
RECEIVE_FREQ_1 =   2022-11-30T01:41:47.530   2216500343.545
RECEIVE_FREQ_1 =   2022-11-30T01:41:57.466   2216500342.545
RECEIVE_FREQ_1 =   2022-11-30T01:42:07.488   2216500340.945
RECEIVE_FREQ_1 =   2022-11-30T01:42:17.510   2216500339.645
RECEIVE_FREQ_1 =   2022-11-30T01:42:27.533   2216500338.445
RECEIVE_FREQ_1 =   2022-11-30T01:42:37.469   2216500337.145
RECEIVE_FREQ_1 =   2022-11-30T01:42:47.491   2216500335.445
RECEIVE_FREQ_1 =   2022-11-30T01:42:57.514   2216500334.545
RECEIVE_FREQ_1 =   2022-11-30T01:43:07.536   2216500332.745
RECEIVE_FREQ_1 =   2022-11-30T01:43:27.494   2216500329.945
RECEIVE_FREQ_1 =   2022-11-30T01:43:37.517   2216500329.045
RECEIVE_FREQ_1 =   2022-11-30T01:43:47.453   2216500327.745
RECEIVE_FREQ_1 =   2022-11-30T01:43:57.475   2216500325.745
RECEIVE_FREQ_1 =   2022-11-30T01:44:17.520   2216500323.445
RECEIVE_FREQ_1 =   2022-11-30T01:44:27.542   2216500322.145
RECEIVE_FREQ_1 =   2022-11-30T01:44:37.478   2216500320.745
RECEIVE_FREQ_1 =   2022-11-30T01:44:47.501   2216500319.245
RECEIVE_FREQ_1 =   2022-11-30T01:44:57.523   2216500318.045
RECEIVE_FREQ_1 =   2022-11-30T01:45:07.459   2216500316.345
RECEIVE_FREQ_1 =   2022-11-30T01:45:27.504   2216500314.045
RECEIVE_FREQ_1 =   2022-11-30T01:45:37.526   2216500312.545
RECEIVE_FREQ_1 =   2022-11-30T01:45:47.462   2216500310.945
RECEIVE_FREQ_1 =   2022-11-30T01:45:57.485   2216500309.745
RECEIVE_FREQ_1 =   2022-11-30T01:46:07.507   2216500308.245
RECEIVE_FREQ_1 =   2022-11-30T01:46:17.530   2216500307.245
RECEIVE_FREQ_1 =   2022-11-30T01:46:27.552   2216500305.845
RECEIVE_FREQ_1 =   2022-11-30T01:46:37.488   2216500304.245
RECEIVE_FREQ_1 =   2022-11-30T01:46:47.510   2216500302.845
RECEIVE_FREQ_1 =   2022-11-30T01:46:57.446   2216500301.445
RECEIVE_FREQ_1 =   2022-11-30T01:47:07.469   2216500299.845
RECEIVE_FREQ_1 =   2022-11-30T01:47:17.491   2216500298.745
RECEIVE_FREQ_1 =   2022-11-30T01:47:27.514   2216500297.345
RECEIVE_FREQ_1 =   2022-11-30T01:47:37.536   2216500296.145
RECEIVE_FREQ_1 =   2022-11-30T01:47:47.472   2216500294.145
RECEIVE_FREQ_1 =   2022-11-30T01:47:57.494   2216500293.045
RECEIVE_FREQ_1 =   2022-11-30T01:48:07.517   2216500291.745
RECEIVE_FREQ_1 =   2022-11-30T01:48:17.539   2216500290.445
RECEIVE_FREQ_1 =   2022-11-30T01:48:27.475   2216500289.045
RECEIVE_FREQ_1 =   2022-11-30T01:48:37.498   2216500287.145
RECEIVE_FREQ_1 =   2022-11-30T01:48:47.520   2216500286.445
RECEIVE_FREQ_1 =   2022-11-30T01:48:57.542   2216500284.245
RECEIVE_FREQ_1 =   2022-11-30T01:49:07.478   2216500283.245
RECEIVE_FREQ_1 =   2022-11-30T01:49:17.501   2216500282.045
RECEIVE_FREQ_1 =   2022-11-30T01:49:27.523   2216500280.745
RECEIVE_FREQ_1 =   2022-11-30T01:49:37.459   2216500279.145
RECEIVE_FREQ_1 =   2022-11-30T01:49:47.482   2216500277.745
RECEIVE_FREQ_1 =   2022-11-30T01:49:57.504   2216500276.345
RECEIVE_FREQ_1 =   2022-11-30T01:50:07.526   2216500274.945
RECEIVE_FREQ_1 =   2022-11-30T01:50:17.462   2216500273.245
RECEIVE_FREQ_1 =   2022-11-30T01:50:27.485   2216500272.045
RECEIVE_FREQ_1 =   2022-11-30T01:50:37.507   2216500270.745
RECEIVE_FREQ_1 =   2022-11-30T01:50:47.530   2216500269.345
RECEIVE_FREQ_1 =   2022-11-30T01:50:57.552   2216500267.645
RECEIVE_FREQ_1 =   2022-11-30T01:51:07.574   2216500266.245
RECEIVE_FREQ_1 =   2022-11-30T01:51:17.510   2216500264.645
RECEIVE_FREQ_1 =   2022-11-30T01:51:27.533   2216500263.345
RECEIVE_FREQ_1 =   2022-11-30T01:51:37.469   2216500262.145
RECEIVE_FREQ_1 =   2022-11-30T01:51:47.491   2216500260.745
RECEIVE_FREQ_1 =   2022-11-30T01:51:57.514   2216500259.345
RECEIVE_FREQ_1 =   2022-11-30T01:52:07.536   2216500257.845
RECEIVE_FREQ_1 =   2022-11-30T01:52:17.558   2216500256.945
RECEIVE_FREQ_1 =   2022-11-30T01:52:27.494   2216500255.245
RECEIVE_FREQ_1 =   2022-11-30T01:52:37.517   2216500253.745
RECEIVE_FREQ_1 =   2022-11-30T01:52:47.453   2216500252.245
RECEIVE_FREQ_1 =   2022-11-30T01:52:57.475   2216500250.845
RECEIVE_FREQ_1 =   2022-11-30T01:53:07.498   2216500249.345
RECEIVE_FREQ_1 =   2022-11-30T01:53:17.520   2216500248.045
RECEIVE_FREQ_1 =   2022-11-30T01:53:27.542   2216500246.745
RECEIVE_FREQ_1 =   2022-11-30T01:53:37.478   2216500245.445
RECEIVE_FREQ_1 =   2022-11-30T01:53:47.501   2216500243.945
RECEIVE_FREQ_1 =   2022-11-30T01:53:57.523   2216500241.645
RECEIVE_FREQ_1 =   2022-11-30T01:54:07.546   2216500240.845
RECEIVE_FREQ_1 =   2022-11-30T01:54:17.482   2216500239.345
RECEIVE_FREQ_1 =   2022-11-30T01:54:27.504   2216500238.045
RECEIVE_FREQ_1 =   2022-11-30T01:54:37.526   2216500236.545
RECEIVE_FREQ_1 =   2022-11-30T01:54:47.549   2216500235.145
RECEIVE_FREQ_1 =   2022-11-30T01:54:57.485   2216500233.545
RECEIVE_FREQ_1 =   2022-11-30T01:55:07.507   2216500232.245
RECEIVE_FREQ_1 =   2022-11-30T01:55:17.530   2216500230.745
RECEIVE_FREQ_1 =   2022-11-30T01:55:27.466   2216500229.345
RECEIVE_FREQ_1 =   2022-11-30T01:55:37.488   2216500228.345
RECEIVE_FREQ_1 =   2022-11-30T01:55:47.510   2216500227.045
RECEIVE_FREQ_1 =   2022-11-30T01:55:57.533   2216500226.145
RECEIVE_FREQ_1 =   2022-11-30T01:56:07.469   2216500224.545
RECEIVE_FREQ_1 =   2022-11-30T01:56:17.491   2216500223.245
RECEIVE_FREQ_1 =   2022-11-30T01:56:37.536   2216500220.745
RECEIVE_FREQ_1 =   2022-11-30T01:56:47.472   2216500219.245
RECEIVE_FREQ_1 =   2022-11-30T01:56:57.494   2216500217.845
RECEIVE_FREQ_1 =   2022-11-30T01:57:07.517   2216500216.645
RECEIVE_FREQ_1 =   2022-11-30T01:57:17.539   2216500215.345
RECEIVE_FREQ_1 =   2022-11-30T01:57:27.475   2216500213.845
RECEIVE_FREQ_1 =   2022-11-30T01:57:47.520   2216500210.945
RECEIVE_FREQ_1 =   2022-11-30T01:57:57.542   2216500210.245
RECEIVE_FREQ_1 =   2022-11-30T01:58:07.478   2216500208.545
RECEIVE_FREQ_1 =   2022-11-30T01:58:17.501   2216500207.245
RECEIVE_FREQ_1 =   2022-11-30T01:58:27.523   2216500205.945
RECEIVE_FREQ_1 =   2022-11-30T01:58:37.546   2216500204.845
RECEIVE_FREQ_1 =   2022-11-30T01:58:47.482   2216500203.445
RECEIVE_FREQ_1 =   2022-11-30T01:58:57.504   2216500202.345
RECEIVE_FREQ_1 =   2022-11-30T01:59:07.526   2216500200.945
RECEIVE_FREQ_1 =   2022-11-30T01:59:17.462   2216500199.245
RECEIVE_FREQ_1 =   2022-11-30T01:59:27.485   2216500198.345
RECEIVE_FREQ_1 =   2022-11-30T01:59:37.507   2216500196.845
RECEIVE_FREQ_1 =   2022-11-30T01:59:47.530   2216500195.445
RECEIVE_FREQ_1 =   2022-11-30T01:59:57.466   2216500194.145
RECEIVE_FREQ_1 =   2022-11-30T02:00:07.488   2216500192.545
RECEIVE_FREQ_1 =   2022-11-30T02:00:17.510   2216500191.245
RECEIVE_FREQ_1 =   2022-11-30T02:00:27.533   2216500190.345
RECEIVE_FREQ_1 =   2022-11-30T02:00:37.469   2216500188.845
RECEIVE_FREQ_1 =   2022-11-30T02:00:47.491   2216500187.245
RECEIVE_FREQ_1 =   2022-11-30T02:00:57.514   2216500185.645
RECEIVE_FREQ_1 =   2022-11-30T02:01:07.536   2216500185.045
RECEIVE_FREQ_1 =   2022-11-30T02:01:27.494   2216500181.845
RECEIVE_FREQ_1 =   2022-11-30T02:01:47.539   2216500179.445
RECEIVE_FREQ_1 =   2022-11-30T02:01:57.475   2216500178.045
RECEIVE_FREQ_1 =   2022-11-30T02:02:07.498   2216500176.945
RECEIVE_FREQ_1 =   2022-11-30T02:02:17.520   2216500175.145
RECEIVE_FREQ_1 =   2022-11-30T02:02:27.542   2216500173.945
RECEIVE_FREQ_1 =   2022-11-30T02:02:47.501   2216500171.145
RECEIVE_FREQ_1 =   2022-11-30T02:03:07.546   2216500168.545
RECEIVE_FREQ_1 =   2022-11-30T02:03:17.482   2216500167.345
RECEIVE_FREQ_1 =   2022-11-30T02:03:27.504   2216500165.745
RECEIVE_FREQ_1 =   2022-11-30T02:03:47.549   2216500163.245
RECEIVE_FREQ_1 =   2022-11-30T02:03:57.485   2216500161.745
RECEIVE_FREQ_1 =   2022-11-30T02:04:17.530   2216500159.345
RECEIVE_FREQ_1 =   2022-11-30T02:04:37.574   2216500156.345
RECEIVE_FREQ_1 =   2022-11-30T02:05:07.469   2216500152.245
RECEIVE_FREQ_1 =   2022-11-30T02:05:17.491   2216500150.945
RECEIVE_FREQ_1 =   2022-11-30T02:05:37.536   2216500148.245
RECEIVE_FREQ_1 =   2022-11-30T02:05:57.581   2216500145.545
RECEIVE_FREQ_1 =   2022-11-30T02:06:07.517   2216500144.345
RECEIVE_FREQ_1 =   2022-11-30T02:06:27.562   2216500141.045
RECEIVE_FREQ_1 =   2022-11-30T02:06:37.498   2216500139.945
RECEIVE_FREQ_1 =   2022-11-30T02:06:47.520   2216500138.145
RECEIVE_FREQ_1 =   2022-11-30T02:06:57.542   2216500137.145
RECEIVE_FREQ_1 =   2022-11-30T02:07:07.478   2216500135.845
RECEIVE_FREQ_1 =   2022-11-30T02:07:17.587   2216500134.845
RECEIVE_FREQ_1 =   2022-11-30T02:07:47.568   2216500130.545
RECEIVE_FREQ_1 =   2022-11-30T02:07:57.504   2216500129.145
RECEIVE_FREQ_1 =   2022-11-30T02:08:17.549   2216500125.845
RECEIVE_FREQ_1 =   2022-11-30T02:08:37.507   2216500123.845
RECEIVE_FREQ_1 =   2022-11-30T02:08:47.530   2216500121.745
RECEIVE_FREQ_1 =   2022-11-30T02:08:57.466   2216500120.545
RECEIVE_FREQ_1 =   2022-11-30T02:09:07.488   2216500118.745
RECEIVE_FREQ_1 =   2022-11-30T02:09:17.510   2216500117.745
RECEIVE_FREQ_1 =   2022-11-30T02:09:27.533   2216500116.345
RECEIVE_FREQ_1 =   2022-11-30T02:09:37.469   2216500115.145
RECEIVE_FREQ_1 =   2022-11-30T02:09:47.578   2216500113.245
RECEIVE_FREQ_1 =   2022-11-30T02:09:57.600   2216500112.245
RECEIVE_FREQ_1 =   2022-11-30T02:10:07.536   2216500110.845
RECEIVE_FREQ_1 =   2022-11-30T02:10:17.558   2216500109.245
RECEIVE_FREQ_1 =   2022-11-30T02:10:27.494   2216500108.145
RECEIVE_FREQ_1 =   2022-11-30T02:10:37.517   2216500106.445
RECEIVE_FREQ_1 =   2022-11-30T02:10:57.562   2216500103.745
RECEIVE_FREQ_1 =   2022-11-30T02:11:07.584   2216500102.445
RECEIVE_FREQ_1 =   2022-11-30T02:11:17.520   2216500101.245
RECEIVE_FREQ_1 =   2022-11-30T02:11:57.523   2216500094.845
RECEIVE_FREQ_1 =   2022-11-30T02:12:07.546   2216500093.745
RECEIVE_FREQ_1 =   2022-11-30T02:12:17.568   2216500092.745
RECEIVE_FREQ_1 =   2022-11-30T02:12:27.504   2216500091.045
RECEIVE_FREQ_1 =   2022-11-30T02:12:37.526   2216500089.745
RECEIVE_FREQ_1 =   2022-11-30T02:12:47.549   2216500088.445
RECEIVE_FREQ_1 =   2022-11-30T02:12:57.485   2216500087.045
RECEIVE_FREQ_1 =   2022-11-30T02:13:07.507   2216500085.545
RECEIVE_FREQ_1 =   2022-11-30T02:13:17.530   2216500083.845
RECEIVE_FREQ_1 =   2022-11-30T02:13:27.552   2216500082.445
RECEIVE_FREQ_1 =   2022-11-30T02:13:37.488   2216500081.445
RECEIVE_FREQ_1 =   2022-11-30T02:13:47.510   2216500079.745
RECEIVE_FREQ_1 =   2022-11-30T02:14:27.514   2216500074.145
RECEIVE_FREQ_1 =   2022-11-30T02:14:37.536   2216500072.945
RECEIVE_FREQ_1 =   2022-11-30T02:14:47.472   2216500071.845
RECEIVE_FREQ_1 =   2022-11-30T02:14:57.494   2216500070.545
RECEIVE_FREQ_1 =   2022-11-30T02:15:07.517   2216500069.145
RECEIVE_FREQ_1 =   2022-11-30T02:15:17.539   2216500067.945
RECEIVE_FREQ_1 =   2022-11-30T02:15:27.475   2216500066.645
RECEIVE_FREQ_1 =   2022-11-30T02:15:37.498   2216500065.545
RECEIVE_FREQ_1 =   2022-11-30T02:15:47.520   2216500064.045
RECEIVE_FREQ_1 =   2022-11-30T02:15:57.542   2216500063.145
RECEIVE_FREQ_1 =   2022-11-30T02:16:17.501   2216500060.645
RECEIVE_FREQ_1 =   2022-11-30T02:16:37.546   2216500057.345
RECEIVE_FREQ_1 =   2022-11-30T02:16:47.482   2216500056.145
RECEIVE_FREQ_1 =   2022-11-30T02:17:07.526   2216500054.045
RECEIVE_FREQ_1 =   2022-11-30T02:17:27.485   2216500051.045
RECEIVE_FREQ_1 =   2022-11-30T02:17:47.530   2216500048.545
RECEIVE_FREQ_1 =   2022-11-30T02:18:27.533   2216500043.145
RECEIVE_FREQ_1 =   2022-11-30T02:18:47.491   2216500040.545
RECEIVE_FREQ_1 =   2022-11-30T02:18:57.514   2216500039.345
RECEIVE_FREQ_1 =   2022-11-30T02:19:07.536   2216500037.945
RECEIVE_FREQ_1 =   2022-11-30T02:19:17.472   2216500036.745
RECEIVE_FREQ_1 =   2022-11-30T02:19:37.517   2216500034.145
RECEIVE_FREQ_1 =   2022-11-30T02:19:47.539   2216500033.145
RECEIVE_FREQ_1 =   2022-11-30T02:19:57.475   2216500031.545
RECEIVE_FREQ_1 =   2022-11-30T02:20:07.498   2216500029.945
RECEIVE_FREQ_1 =   2022-11-30T02:20:17.520   2216500028.945
RECEIVE_FREQ_1 =   2022-11-30T02:20:47.501   2216500024.845
RECEIVE_FREQ_1 =   2022-11-30T02:21:17.482   2216500021.045
RECEIVE_FREQ_1 =   2022-11-30T02:21:27.504   2216500019.745
RECEIVE_FREQ_1 =   2022-11-30T02:22:47.510   2216500008.845
RECEIVE_FREQ_1 =   2022-11-30T02:23:07.469   2216500006.445
RECEIVE_FREQ_1 =   2022-11-30T02:23:57.494   2216499999.445
RECEIVE_FREQ_1 =   2022-11-30T02:24:07.517   2216499998.245
RECEIVE_FREQ_1 =   2022-11-30T02:24:27.475   2216499995.445
RECEIVE_FREQ_1 =   2022-11-30T02:25:57.504   2216499985.245
RECEIVE_FREQ_1 =   2022-11-30T02:26:17.462   2216499980.845
RECEIVE_FREQ_1 =   2022-11-30T02:26:37.507   2216499977.945
RECEIVE_FREQ_1 =   2022-11-30T02:26:47.530   2216499976.445
RECEIVE_FREQ_1 =   2022-11-30T02:27:07.488   2216499974.045
RECEIVE_FREQ_1 =   2022-11-30T02:27:27.533   2216499971.245
RECEIVE_FREQ_1 =   2022-11-30T02:30:17.482   2216499947.845
RECEIVE_FREQ_1 =   2022-11-30T02:30:47.462   2216499944.045
RECEIVE_FREQ_1 =   2022-11-30T02:31:27.466   2216499937.745
RECEIVE_FREQ_1 =   2022-11-30T02:52:47.482   2216499770.445
RECEIVE_FREQ_1 =   2022-11-30T02:52:57.504   2216499768.745
RECEIVE_FREQ_1 =   2022-11-30T02:54:07.488   2216499760.345
RECEIVE_FREQ_1 =   2022-11-30T02:55:27.494   2216499750.345
RECEIVE_FREQ_1 =   2022-11-30T02:55:37.517   2216499748.945
RECEIVE_FREQ_1 =   2022-11-30T02:55:47.539   2216499747.645
RECEIVE_FREQ_1 =   2022-11-30T02:55:57.475   2216499746.645
RECEIVE_FREQ_1 =   2022-11-30T02:56:17.520   2216499744.745
RECEIVE_FREQ_1 =   2022-11-30T02:56:37.478   2216499741.545
RECEIVE_FREQ_1 =   2022-11-30T02:56:57.523   2216499739.145
RECEIVE_FREQ_1 =   2022-11-30T02:57:17.482   2216499736.845
RECEIVE_FREQ_1 =   2022-11-30T02:57:27.504   2216499735.645
RECEIVE_FREQ_1 =   2022-11-30T02:57:37.526   2216499734.345
RECEIVE_FREQ_1 =   2022-11-30T02:57:47.462   2216499732.745
RECEIVE_FREQ_1 =   2022-11-30T02:57:57.485   2216499731.545
RECEIVE_FREQ_1 =   2022-11-30T02:58:17.530   2216499729.445
RECEIVE_FREQ_1 =   2022-11-30T02:58:27.552   2216499727.945
RECEIVE_FREQ_1 =   2022-11-30T02:58:47.510   2216499725.545
RECEIVE_FREQ_1 =   2022-11-30T02:58:57.533   2216499724.345
RECEIVE_FREQ_1 =   2022-11-30T02:59:27.514   2216499720.545
RECEIVE_FREQ_1 =   2022-11-30T02:59:47.472   2216499718.545
RECEIVE_FREQ_1 =   2022-11-30T03:00:27.475   2216499712.745
RECEIVE_FREQ_1 =   2022-11-30T03:00:37.498   2216499712.045
RECEIVE_FREQ_1 =   2022-11-30T03:00:47.520   2216499710.745
RECEIVE_FREQ_1 =   2022-11-30T03:00:57.542   2216499709.645
RECEIVE_FREQ_1 =   2022-11-30T03:01:07.478   2216499708.245
RECEIVE_FREQ_1 =   2022-11-30T03:01:17.501   2216499706.745
RECEIVE_FREQ_1 =   2022-11-30T03:01:27.523   2216499705.345
RECEIVE_FREQ_1 =   2022-11-30T03:01:37.546   2216499704.645
RECEIVE_FREQ_1 =   2022-11-30T03:01:47.482   2216499703.045
RECEIVE_FREQ_1 =   2022-11-30T03:01:57.504   2216499701.745
RECEIVE_FREQ_1 =   2022-11-30T03:02:17.549   2216499699.245
RECEIVE_FREQ_1 =   2022-11-30T03:02:57.552   2216499694.045
RECEIVE_FREQ_1 =   2022-11-30T03:03:07.574   2216499692.745
RECEIVE_FREQ_1 =   2022-11-30T03:03:27.533   2216499691.545
RECEIVE_FREQ_1 =   2022-11-30T03:03:37.469   2216499689.545
RECEIVE_FREQ_1 =   2022-11-30T03:03:57.514   2216499686.545
RECEIVE_FREQ_1 =   2022-11-30T03:04:07.536   2216499685.145
RECEIVE_FREQ_1 =   2022-11-30T03:04:17.558   2216499684.045
RECEIVE_FREQ_1 =   2022-11-30T03:04:27.581   2216499682.545
RECEIVE_FREQ_1 =   2022-11-30T03:04:47.539   2216499680.145
RECEIVE_FREQ_1 =   2022-11-30T03:05:07.498   2216499677.345
RECEIVE_FREQ_1 =   2022-11-30T03:05:27.542   2216499674.845
RECEIVE_FREQ_1 =   2022-11-30T03:05:37.478   2216499673.745
RECEIVE_FREQ_1 =   2022-11-30T03:05:47.501   2216499672.645
RECEIVE_FREQ_1 =   2022-11-30T03:05:57.523   2216499671.145
RECEIVE_FREQ_1 =   2022-11-30T03:06:07.546   2216499670.145
RECEIVE_FREQ_1 =   2022-11-30T03:06:17.482   2216499668.745
RECEIVE_FREQ_1 =   2022-11-30T03:06:27.504   2216499666.145
RECEIVE_FREQ_1 =   2022-11-30T03:06:47.549   2216499664.745
RECEIVE_FREQ_1 =   2022-11-30T03:06:57.485   2216499663.245
RECEIVE_FREQ_1 =   2022-11-30T03:07:57.533   2216499655.645
RECEIVE_FREQ_1 =   2022-11-30T03:08:07.469   2216499654.745
RECEIVE_FREQ_1 =   2022-11-30T03:08:17.491   2216499653.145
RECEIVE_FREQ_1 =   2022-11-30T03:08:37.536   2216499650.745
RECEIVE_FREQ_1 =   2022-11-30T03:08:47.558   2216499648.945
RECEIVE_FREQ_1 =   2022-11-30T03:08:57.494   2216499647.945
RECEIVE_FREQ_1 =   2022-11-30T03:09:07.517   2216499646.645
RECEIVE_FREQ_1 =   2022-11-30T03:09:37.498   2216499643.145
RECEIVE_FREQ_1 =   2022-11-30T03:09:47.520   2216499641.645
RECEIVE_FREQ_1 =   2022-11-30T03:09:57.542   2216499639.945
RECEIVE_FREQ_1 =   2022-11-30T03:10:27.523   2216499636.445
RECEIVE_FREQ_1 =   2022-11-30T03:10:57.504   2216499632.445
RECEIVE_FREQ_1 =   2022-11-30T03:11:07.526   2216499631.045
RECEIVE_FREQ_1 =   2022-11-30T03:11:17.549   2216499629.845
RECEIVE_FREQ_1 =   2022-11-30T03:12:17.510   2216499621.845
RECEIVE_FREQ_1 =   2022-11-30T03:12:27.533   2216499620.745
RECEIVE_FREQ_1 =   2022-11-30T03:13:07.536   2216499616.145
RECEIVE_FREQ_1 =   2022-11-30T03:13:17.472   2216499614.945
RECEIVE_FREQ_1 =   2022-11-30T03:13:27.494   2216499613.545
RECEIVE_FREQ_1 =   2022-11-30T03:14:07.498   2216499609.045
RECEIVE_FREQ_1 =   2022-11-30T03:15:07.459   2216499601.845
