nasa/2022-11-19_2022-156A_ScottTilley.tdm

CCSDS_TDM_VERS = 2.0
COMMENT TDM ARTEMIS 1 Doppler data by Scott Tilley for 2022-11-19 UTC
COMMENT Signal not demodulated, to low of SNR, centre carrier integrated in 10s by 0.1Hz bin and extracted for peak value.
CREATION_DATE = 2022-11-20T02:55:14Z
ORIGINATOR = SCOTT TILLEY

META_START
COMMENT 
COMMENT 
SYSTEM TIME = UTC
PARTICIPANT_1 = COSPAR 8049
PARTICIPANT_2 = 2022-156A
MODE = SEQUENTIAL
PATH = 2,1
INTEGRATION_INTERVAL = 10
INTEGRATION_REF = MIDDLE
FREQ_OFFSET = 0
TRANSMIT_DELAY_1 = 0
RECEIVE_DELAY_1 = 0
DATA_QUALITY = RAW
META_STOP

DATA_START
COMMENT TRANSMIT_FREQ_2 is spacecraft downlink provided by NASA
TRANSMIT_FREQ_2 = 2216500000.000
RECEIVE_FREQ_1 =   2022-11-19T14:33:30.499   2216497878.1
RECEIVE_FREQ_1 =   2022-11-19T14:33:40.522   2216497877.1
RECEIVE_FREQ_1 =   2022-11-19T14:33:50.544   2216497876.0
RECEIVE_FREQ_1 =   2022-11-19T14:34:00.480   2216497875.2
RECEIVE_FREQ_1 =   2022-11-19T14:34:20.525   2216497873.8
RECEIVE_FREQ_1 =   2022-11-19T14:34:40.483   2216497872.1
RECEIVE_FREQ_1 =   2022-11-19T14:34:50.506   2216497871.0
RECEIVE_FREQ_1 =   2022-11-19T14:35:00.528   2216497870.5
RECEIVE_FREQ_1 =   2022-11-19T14:35:10.550   2216497869.6
RECEIVE_FREQ_1 =   2022-11-19T14:35:20.486   2216497868.5
RECEIVE_FREQ_1 =   2022-11-19T14:35:30.509   2216497867.9
RECEIVE_FREQ_1 =   2022-11-19T14:35:40.531   2216497867.1
RECEIVE_FREQ_1 =   2022-11-19T14:35:50.467   2216497866.3
RECEIVE_FREQ_1 =   2022-11-19T14:36:00.490   2216497865.6
RECEIVE_FREQ_1 =   2022-11-19T14:36:10.512   2216497864.8
RECEIVE_FREQ_1 =   2022-11-19T14:36:20.534   2216497864.0
RECEIVE_FREQ_1 =   2022-11-19T14:36:30.470   2216497863.0
RECEIVE_FREQ_1 =   2022-11-19T14:36:40.493   2216497861.9
RECEIVE_FREQ_1 =   2022-11-19T14:36:50.515   2216497861.2
RECEIVE_FREQ_1 =   2022-11-19T14:37:00.538   2216497860.4
RECEIVE_FREQ_1 =   2022-11-19T14:37:10.474   2216497859.6
RECEIVE_FREQ_1 =   2022-11-19T14:37:20.496   2216497858.7
RECEIVE_FREQ_1 =   2022-11-19T14:37:30.518   2216497857.6
RECEIVE_FREQ_1 =   2022-11-19T14:37:40.541   2216497857.3
RECEIVE_FREQ_1 =   2022-11-19T14:37:50.477   2216497856.3
RECEIVE_FREQ_1 =   2022-11-19T14:38:00.499   2216497855.3
RECEIVE_FREQ_1 =   2022-11-19T14:38:10.522   2216497854.3
RECEIVE_FREQ_1 =   2022-11-19T14:38:20.544   2216497853.4
RECEIVE_FREQ_1 =   2022-11-19T14:38:30.480   2216497852.6
RECEIVE_FREQ_1 =   2022-11-19T14:38:40.502   2216497851.7
RECEIVE_FREQ_1 =   2022-11-19T14:38:50.525   2216497850.9
RECEIVE_FREQ_1 =   2022-11-19T14:39:00.547   2216497850.0
RECEIVE_FREQ_1 =   2022-11-19T14:39:10.483   2216497849.0
RECEIVE_FREQ_1 =   2022-11-19T14:39:20.506   2216497848.2
RECEIVE_FREQ_1 =   2022-11-19T14:39:30.528   2216497847.3
RECEIVE_FREQ_1 =   2022-11-19T14:39:40.550   2216497846.6
RECEIVE_FREQ_1 =   2022-11-19T14:39:50.486   2216497845.7
RECEIVE_FREQ_1 =   2022-11-19T14:40:00.509   2216497844.8
RECEIVE_FREQ_1 =   2022-11-19T14:40:10.531   2216497843.8
RECEIVE_FREQ_1 =   2022-11-19T14:40:20.554   2216497843.1
RECEIVE_FREQ_1 =   2022-11-19T14:40:30.490   2216497842.2
RECEIVE_FREQ_1 =   2022-11-19T14:40:40.512   2216497841.6
RECEIVE_FREQ_1 =   2022-11-19T14:40:50.534   2216497840.5
RECEIVE_FREQ_1 =   2022-11-19T14:41:00.470   2216497839.9
RECEIVE_FREQ_1 =   2022-11-19T14:41:10.493   2216497839.5
RECEIVE_FREQ_1 =   2022-11-19T14:41:20.515   2216497838.5
RECEIVE_FREQ_1 =   2022-11-19T14:41:30.538   2216497837.9
RECEIVE_FREQ_1 =   2022-11-19T14:41:40.474   2216497836.8
RECEIVE_FREQ_1 =   2022-11-19T14:41:50.496   2216497836.1
RECEIVE_FREQ_1 =   2022-11-19T14:42:00.518   2216497835.3
RECEIVE_FREQ_1 =   2022-11-19T14:42:10.541   2216497834.5
RECEIVE_FREQ_1 =   2022-11-19T14:42:20.477   2216497833.8
RECEIVE_FREQ_1 =   2022-11-19T14:42:30.499   2216497833.0
RECEIVE_FREQ_1 =   2022-11-19T14:42:40.522   2216497832.6
RECEIVE_FREQ_1 =   2022-11-19T14:42:50.544   2216497831.4
RECEIVE_FREQ_1 =   2022-11-19T14:43:00.480   2216497830.7
RECEIVE_FREQ_1 =   2022-11-19T14:43:10.502   2216497829.7
RECEIVE_FREQ_1 =   2022-11-19T14:43:20.525   2216497828.8
RECEIVE_FREQ_1 =   2022-11-19T14:43:30.547   2216497828.3
RECEIVE_FREQ_1 =   2022-11-19T14:43:40.483   2216497827.7
RECEIVE_FREQ_1 =   2022-11-19T14:43:50.506   2216497826.6
RECEIVE_FREQ_1 =   2022-11-19T14:44:00.528   2216497825.8
RECEIVE_FREQ_1 =   2022-11-19T14:44:10.550   2216497825.2
RECEIVE_FREQ_1 =   2022-11-19T14:44:20.486   2216497824.3
RECEIVE_FREQ_1 =   2022-11-19T14:44:30.509   2216497823.2
RECEIVE_FREQ_1 =   2022-11-19T14:44:40.531   2216497822.5
RECEIVE_FREQ_1 =   2022-11-19T14:44:50.554   2216497821.8
RECEIVE_FREQ_1 =   2022-11-19T14:45:00.490   2216497820.9
RECEIVE_FREQ_1 =   2022-11-19T14:45:10.512   2216497820.1
RECEIVE_FREQ_1 =   2022-11-19T14:45:20.534   2216497819.5
RECEIVE_FREQ_1 =   2022-11-19T14:45:30.470   2216497818.4
RECEIVE_FREQ_1 =   2022-11-19T14:45:40.493   2216497817.7
RECEIVE_FREQ_1 =   2022-11-19T14:45:50.515   2216497817.1
RECEIVE_FREQ_1 =   2022-11-19T14:46:00.538   2216497816.1
RECEIVE_FREQ_1 =   2022-11-19T14:46:10.474   2216497815.4
RECEIVE_FREQ_1 =   2022-11-19T14:46:20.496   2216497814.4
RECEIVE_FREQ_1 =   2022-11-19T14:46:30.518   2216497814.0
RECEIVE_FREQ_1 =   2022-11-19T14:46:40.541   2216497812.9
RECEIVE_FREQ_1 =   2022-11-19T14:46:50.477   2216497811.7
RECEIVE_FREQ_1 =   2022-11-19T14:47:00.499   2216497811.4
RECEIVE_FREQ_1 =   2022-11-19T14:47:10.522   2216497810.2
RECEIVE_FREQ_1 =   2022-11-19T14:47:20.544   2216497809.6
RECEIVE_FREQ_1 =   2022-11-19T14:47:20.544   2216497809.6
RECEIVE_FREQ_1 =   2022-11-19T14:47:30.480   2216497808.7
RECEIVE_FREQ_1 =   2022-11-19T14:47:40.502   2216497807.8
RECEIVE_FREQ_1 =   2022-11-19T14:47:50.525   2216497807.2
RECEIVE_FREQ_1 =   2022-11-19T14:48:00.547   2216497806.3
RECEIVE_FREQ_1 =   2022-11-19T14:48:10.483   2216497805.5
RECEIVE_FREQ_1 =   2022-11-19T14:48:20.506   2216497804.4
RECEIVE_FREQ_1 =   2022-11-19T14:48:30.528   2216497803.6
RECEIVE_FREQ_1 =   2022-11-19T14:48:40.550   2216497802.8
RECEIVE_FREQ_1 =   2022-11-19T14:48:50.486   2216497801.8
RECEIVE_FREQ_1 =   2022-11-19T14:49:00.509   2216497801.1
RECEIVE_FREQ_1 =   2022-11-19T14:49:10.531   2216497800.5
RECEIVE_FREQ_1 =   2022-11-19T14:49:20.554   2216497799.5
RECEIVE_FREQ_1 =   2022-11-19T14:49:30.490   2216497798.6
RECEIVE_FREQ_1 =   2022-11-19T14:49:40.512   2216497797.7
RECEIVE_FREQ_1 =   2022-11-19T14:50:00.557   2216497795.8
RECEIVE_FREQ_1 =   2022-11-19T14:50:10.493   2216497795.1
RECEIVE_FREQ_1 =   2022-11-19T14:50:20.515   2216497794.3
RECEIVE_FREQ_1 =   2022-11-19T14:50:30.538   2216497793.4
RECEIVE_FREQ_1 =   2022-11-19T14:50:50.496   2216497791.2
RECEIVE_FREQ_1 =   2022-11-19T14:51:10.541   2216497789.9
RECEIVE_FREQ_1 =   2022-11-19T14:51:20.477   2216497788.9
RECEIVE_FREQ_1 =   2022-11-19T14:51:30.499   2216497788.4
RECEIVE_FREQ_1 =   2022-11-19T14:51:40.522   2216497787.3
RECEIVE_FREQ_1 =   2022-11-19T14:51:50.544   2216497786.4
RECEIVE_FREQ_1 =   2022-11-19T14:52:00.480   2216497785.6
RECEIVE_FREQ_1 =   2022-11-19T14:52:10.502   2216497784.2
RECEIVE_FREQ_1 =   2022-11-19T14:52:20.525   2216497783.8
RECEIVE_FREQ_1 =   2022-11-19T14:52:30.547   2216497782.8
RECEIVE_FREQ_1 =   2022-11-19T14:52:40.483   2216497781.7
RECEIVE_FREQ_1 =   2022-11-19T14:52:50.506   2216497781.1
RECEIVE_FREQ_1 =   2022-11-19T14:53:00.528   2216497780.0
RECEIVE_FREQ_1 =   2022-11-19T14:53:10.550   2216497779.1
RECEIVE_FREQ_1 =   2022-11-19T14:53:20.486   2216497778.3
RECEIVE_FREQ_1 =   2022-11-19T14:53:30.509   2216497777.3
RECEIVE_FREQ_1 =   2022-11-19T14:53:40.531   2216497776.7
RECEIVE_FREQ_1 =   2022-11-19T14:53:50.554   2216497775.7
RECEIVE_FREQ_1 =   2022-11-19T14:54:00.490   2216497774.5
RECEIVE_FREQ_1 =   2022-11-19T14:54:10.512   2216497773.8
RECEIVE_FREQ_1 =   2022-11-19T14:54:20.534   2216497772.9
RECEIVE_FREQ_1 =   2022-11-19T14:54:30.557   2216497771.8
RECEIVE_FREQ_1 =   2022-11-19T14:54:40.493   2216497771.1
RECEIVE_FREQ_1 =   2022-11-19T14:54:50.515   2216497770.1
RECEIVE_FREQ_1 =   2022-11-19T14:55:00.538   2216497769.0
RECEIVE_FREQ_1 =   2022-11-19T14:55:10.474   2216497768.1
RECEIVE_FREQ_1 =   2022-11-19T14:55:20.496   2216497767.5
RECEIVE_FREQ_1 =   2022-11-19T14:55:30.518   2216497766.6
RECEIVE_FREQ_1 =   2022-11-19T14:55:40.541   2216497765.6
RECEIVE_FREQ_1 =   2022-11-19T14:55:50.477   2216497764.7
RECEIVE_FREQ_1 =   2022-11-19T14:56:00.499   2216497763.5
RECEIVE_FREQ_1 =   2022-11-19T14:56:10.522   2216497762.9
RECEIVE_FREQ_1 =   2022-11-19T14:56:20.544   2216497761.9
RECEIVE_FREQ_1 =   2022-11-19T14:56:30.480   2216497760.9
RECEIVE_FREQ_1 =   2022-11-19T14:56:40.502   2216497760.1
RECEIVE_FREQ_1 =   2022-11-19T14:56:50.525   2216497758.6
RECEIVE_FREQ_1 =   2022-11-19T14:57:00.547   2216497757.9
RECEIVE_FREQ_1 =   2022-11-19T14:57:10.483   2216497756.9
RECEIVE_FREQ_1 =   2022-11-19T14:57:20.506   2216497756.0
RECEIVE_FREQ_1 =   2022-11-19T14:57:30.528   2216497755.1
RECEIVE_FREQ_1 =   2022-11-19T14:57:40.550   2216497754.1
RECEIVE_FREQ_1 =   2022-11-19T14:57:50.486   2216497753.2
RECEIVE_FREQ_1 =   2022-11-19T14:58:00.509   2216497752.3
RECEIVE_FREQ_1 =   2022-11-19T14:58:10.531   2216497751.4
RECEIVE_FREQ_1 =   2022-11-19T14:58:20.467   2216497750.2
RECEIVE_FREQ_1 =   2022-11-19T14:58:30.490   2216497749.7
RECEIVE_FREQ_1 =   2022-11-19T14:58:40.512   2216497748.6
RECEIVE_FREQ_1 =   2022-11-19T14:58:50.534   2216497747.8
RECEIVE_FREQ_1 =   2022-11-19T14:59:00.557   2216497746.3
RECEIVE_FREQ_1 =   2022-11-19T14:59:10.493   2216497745.6
RECEIVE_FREQ_1 =   2022-11-19T14:59:20.515   2216497745.0
RECEIVE_FREQ_1 =   2022-11-19T14:59:30.538   2216497743.8
RECEIVE_FREQ_1 =   2022-11-19T14:59:40.474   2216497742.9
RECEIVE_FREQ_1 =   2022-11-19T14:59:50.496   2216497741.9
RECEIVE_FREQ_1 =   2022-11-19T15:00:00.518   2216497741.0
RECEIVE_FREQ_1 =   2022-11-19T15:00:10.541   2216497739.7
RECEIVE_FREQ_1 =   2022-11-19T15:00:20.477   2216497738.9
RECEIVE_FREQ_1 =   2022-11-19T15:00:30.499   2216497737.9
RECEIVE_FREQ_1 =   2022-11-19T15:00:40.522   2216497736.8
RECEIVE_FREQ_1 =   2022-11-19T15:00:50.544   2216497735.9
RECEIVE_FREQ_1 =   2022-11-19T15:01:00.480   2216497734.8
RECEIVE_FREQ_1 =   2022-11-19T15:01:10.502   2216497733.9
RECEIVE_FREQ_1 =   2022-11-19T15:01:20.525   2216497733.1
RECEIVE_FREQ_1 =   2022-11-19T15:01:30.547   2216497732.0
RECEIVE_FREQ_1 =   2022-11-19T15:01:40.483   2216497731.1
RECEIVE_FREQ_1 =   2022-11-19T15:01:50.506   2216497730.1
RECEIVE_FREQ_1 =   2022-11-19T15:02:00.528   2216497729.0
RECEIVE_FREQ_1 =   2022-11-19T15:02:10.550   2216497728.2
RECEIVE_FREQ_1 =   2022-11-19T15:02:20.486   2216497727.2
RECEIVE_FREQ_1 =   2022-11-19T15:02:30.509   2216497726.1
RECEIVE_FREQ_1 =   2022-11-19T15:02:40.531   2216497725.4
RECEIVE_FREQ_1 =   2022-11-19T15:02:50.554   2216497724.4
RECEIVE_FREQ_1 =   2022-11-19T15:03:00.490   2216497723.3
RECEIVE_FREQ_1 =   2022-11-19T15:03:10.512   2216497722.6
RECEIVE_FREQ_1 =   2022-11-19T15:03:20.534   2216497721.5
RECEIVE_FREQ_1 =   2022-11-19T15:03:30.557   2216497720.7
RECEIVE_FREQ_1 =   2022-11-19T15:03:40.493   2216497720.1
RECEIVE_FREQ_1 =   2022-11-19T15:03:50.515   2216497718.8
RECEIVE_FREQ_1 =   2022-11-19T15:04:00.538   2216497718.1
RECEIVE_FREQ_1 =   2022-11-19T15:04:10.560   2216497717.3
RECEIVE_FREQ_1 =   2022-11-19T15:04:20.496   2216497716.6
RECEIVE_FREQ_1 =   2022-11-19T15:04:30.518   2216497715.6
RECEIVE_FREQ_1 =   2022-11-19T15:04:40.541   2216497714.5
RECEIVE_FREQ_1 =   2022-11-19T15:04:50.477   2216497713.7
RECEIVE_FREQ_1 =   2022-11-19T15:05:00.499   2216497712.6
RECEIVE_FREQ_1 =   2022-11-19T15:05:10.522   2216497712.1
RECEIVE_FREQ_1 =   2022-11-19T15:05:20.544   2216497711.0
RECEIVE_FREQ_1 =   2022-11-19T15:05:30.480   2216497710.1
RECEIVE_FREQ_1 =   2022-11-19T15:05:40.502   2216497709.2
RECEIVE_FREQ_1 =   2022-11-19T15:05:50.525   2216497708.1
RECEIVE_FREQ_1 =   2022-11-19T15:06:00.547   2216497707.3
RECEIVE_FREQ_1 =   2022-11-19T15:06:10.483   2216497706.4
RECEIVE_FREQ_1 =   2022-11-19T15:06:20.506   2216497705.4
RECEIVE_FREQ_1 =   2022-11-19T15:06:30.528   2216497704.7
RECEIVE_FREQ_1 =   2022-11-19T15:06:40.550   2216497703.6
RECEIVE_FREQ_1 =   2022-11-19T15:06:50.486   2216497702.9
RECEIVE_FREQ_1 =   2022-11-19T15:07:00.509   2216497701.9
RECEIVE_FREQ_1 =   2022-11-19T15:07:10.531   2216497700.8
RECEIVE_FREQ_1 =   2022-11-19T15:07:20.554   2216497700.0
RECEIVE_FREQ_1 =   2022-11-19T15:07:30.490   2216497699.0
RECEIVE_FREQ_1 =   2022-11-19T15:07:40.512   2216497698.2
RECEIVE_FREQ_1 =   2022-11-19T15:07:50.534   2216497697.4
RECEIVE_FREQ_1 =   2022-11-19T15:08:00.470   2216497696.3
RECEIVE_FREQ_1 =   2022-11-19T15:08:10.493   2216497695.5
RECEIVE_FREQ_1 =   2022-11-19T15:08:20.515   2216497694.3
RECEIVE_FREQ_1 =   2022-11-19T15:08:30.538   2216497693.6
RECEIVE_FREQ_1 =   2022-11-19T15:08:40.474   2216497692.6
RECEIVE_FREQ_1 =   2022-11-19T15:08:50.496   2216497691.6
RECEIVE_FREQ_1 =   2022-11-19T15:09:00.518   2216497690.5
RECEIVE_FREQ_1 =   2022-11-19T15:09:10.541   2216497689.6
RECEIVE_FREQ_1 =   2022-11-19T15:09:20.563   2216497688.7
RECEIVE_FREQ_1 =   2022-11-19T15:09:40.522   2216497686.9
RECEIVE_FREQ_1 =   2022-11-19T15:09:50.544   2216497685.7
RECEIVE_FREQ_1 =   2022-11-19T15:10:00.480   2216497685.2
RECEIVE_FREQ_1 =   2022-11-19T15:10:10.502   2216497683.8
RECEIVE_FREQ_1 =   2022-11-19T15:10:20.525   2216497682.9
RECEIVE_FREQ_1 =   2022-11-19T15:10:30.547   2216497682.2
RECEIVE_FREQ_1 =   2022-11-19T15:10:40.483   2216497681.0
RECEIVE_FREQ_1 =   2022-11-19T15:10:50.506   2216497680.2
RECEIVE_FREQ_1 =   2022-11-19T15:11:00.528   2216497678.9
RECEIVE_FREQ_1 =   2022-11-19T15:11:10.550   2216497678.2
RECEIVE_FREQ_1 =   2022-11-19T15:11:20.486   2216497677.3
RECEIVE_FREQ_1 =   2022-11-19T15:11:30.509   2216497676.1
RECEIVE_FREQ_1 =   2022-11-19T15:11:40.531   2216497675.3
RECEIVE_FREQ_1 =   2022-11-19T15:11:50.554   2216497674.3
RECEIVE_FREQ_1 =   2022-11-19T15:12:00.490   2216497673.3
RECEIVE_FREQ_1 =   2022-11-19T15:12:10.512   2216497672.4
RECEIVE_FREQ_1 =   2022-11-19T15:12:20.534   2216497671.3
RECEIVE_FREQ_1 =   2022-11-19T15:12:30.557   2216497670.3
RECEIVE_FREQ_1 =   2022-11-19T15:12:40.493   2216497669.5
RECEIVE_FREQ_1 =   2022-11-19T15:12:50.515   2216497668.7
RECEIVE_FREQ_1 =   2022-11-19T15:13:10.560   2216497666.9
RECEIVE_FREQ_1 =   2022-11-19T15:13:20.496   2216497665.7
RECEIVE_FREQ_1 =   2022-11-19T15:13:30.518   2216497664.7
RECEIVE_FREQ_1 =   2022-11-19T15:13:40.541   2216497663.4
RECEIVE_FREQ_1 =   2022-11-19T15:13:50.477   2216497662.9
RECEIVE_FREQ_1 =   2022-11-19T15:14:00.499   2216497661.9
RECEIVE_FREQ_1 =   2022-11-19T15:14:10.522   2216497660.7
RECEIVE_FREQ_1 =   2022-11-19T15:14:20.544   2216497659.6
RECEIVE_FREQ_1 =   2022-11-19T15:14:30.480   2216497658.7
RECEIVE_FREQ_1 =   2022-11-19T15:14:40.502   2216497657.8
RECEIVE_FREQ_1 =   2022-11-19T15:14:50.525   2216497656.5
RECEIVE_FREQ_1 =   2022-11-19T15:15:00.547   2216497655.7
RECEIVE_FREQ_1 =   2022-11-19T15:15:10.483   2216497654.8
RECEIVE_FREQ_1 =   2022-11-19T15:15:20.506   2216497653.7
RECEIVE_FREQ_1 =   2022-11-19T15:15:30.528   2216497652.7
RECEIVE_FREQ_1 =   2022-11-19T15:15:40.550   2216497651.8
RECEIVE_FREQ_1 =   2022-11-19T15:15:50.486   2216497650.5
RECEIVE_FREQ_1 =   2022-11-19T15:16:00.509   2216497649.8
RECEIVE_FREQ_1 =   2022-11-19T15:16:10.531   2216497648.5
RECEIVE_FREQ_1 =   2022-11-19T15:16:20.467   2216497647.6
RECEIVE_FREQ_1 =   2022-11-19T15:16:30.490   2216497646.7
RECEIVE_FREQ_1 =   2022-11-19T15:16:40.512   2216497645.4
RECEIVE_FREQ_1 =   2022-11-19T15:16:40.512   2216497645.4
RECEIVE_FREQ_1 =   2022-11-19T15:16:50.534   2216497644.2
RECEIVE_FREQ_1 =   2022-11-19T15:17:00.470   2216497643.7
RECEIVE_FREQ_1 =   2022-11-19T15:17:10.493   2216497642.4
RECEIVE_FREQ_1 =   2022-11-19T15:17:20.515   2216497641.8
RECEIVE_FREQ_1 =   2022-11-19T15:17:30.538   2216497640.6
RECEIVE_FREQ_1 =   2022-11-19T15:17:40.474   2216497639.4
RECEIVE_FREQ_1 =   2022-11-19T15:17:50.496   2216497638.4
RECEIVE_FREQ_1 =   2022-11-19T15:18:00.518   2216497637.4
RECEIVE_FREQ_1 =   2022-11-19T15:18:10.541   2216497636.5
RECEIVE_FREQ_1 =   2022-11-19T15:18:20.477   2216497635.6
RECEIVE_FREQ_1 =   2022-11-19T15:18:30.499   2216497634.3
RECEIVE_FREQ_1 =   2022-11-19T15:18:40.522   2216497633.1
RECEIVE_FREQ_1 =   2022-11-19T15:18:50.544   2216497632.3
RECEIVE_FREQ_1 =   2022-11-19T15:19:00.566   2216497631.3
RECEIVE_FREQ_1 =   2022-11-19T15:19:10.502   2216497630.0
RECEIVE_FREQ_1 =   2022-11-19T15:19:20.525   2216497629.3
RECEIVE_FREQ_1 =   2022-11-19T15:19:30.547   2216497628.1
RECEIVE_FREQ_1 =   2022-11-19T15:19:40.483   2216497627.3
RECEIVE_FREQ_1 =   2022-11-19T15:19:50.506   2216497626.1
RECEIVE_FREQ_1 =   2022-11-19T15:20:00.528   2216497624.9
RECEIVE_FREQ_1 =   2022-11-19T15:20:10.550   2216497624.0
RECEIVE_FREQ_1 =   2022-11-19T15:20:20.486   2216497622.7
RECEIVE_FREQ_1 =   2022-11-19T15:20:30.509   2216497622.1
RECEIVE_FREQ_1 =   2022-11-19T15:20:40.531   2216497620.6
RECEIVE_FREQ_1 =   2022-11-19T15:20:50.554   2216497619.9
RECEIVE_FREQ_1 =   2022-11-19T15:21:00.490   2216497618.8
RECEIVE_FREQ_1 =   2022-11-19T15:21:10.512   2216497617.6
RECEIVE_FREQ_1 =   2022-11-19T15:21:20.534   2216497616.9
RECEIVE_FREQ_1 =   2022-11-19T15:21:30.470   2216497615.5
RECEIVE_FREQ_1 =   2022-11-19T15:21:40.493   2216497614.2
RECEIVE_FREQ_1 =   2022-11-19T15:21:50.515   2216497613.2
RECEIVE_FREQ_1 =   2022-11-19T15:22:00.538   2216497612.6
RECEIVE_FREQ_1 =   2022-11-19T15:22:10.474   2216497611.4
RECEIVE_FREQ_1 =   2022-11-19T15:22:20.496   2216497610.0
RECEIVE_FREQ_1 =   2022-11-19T15:22:30.518   2216497608.7
RECEIVE_FREQ_1 =   2022-11-19T15:22:40.541   2216497608.1
RECEIVE_FREQ_1 =   2022-11-19T15:22:50.477   2216497607.0
RECEIVE_FREQ_1 =   2022-11-19T15:23:00.499   2216497605.5
RECEIVE_FREQ_1 =   2022-11-19T15:23:10.522   2216497604.7
RECEIVE_FREQ_1 =   2022-11-19T15:23:20.544   2216497603.7
RECEIVE_FREQ_1 =   2022-11-19T15:23:30.480   2216497602.3
RECEIVE_FREQ_1 =   2022-11-19T15:23:40.502   2216497601.7
RECEIVE_FREQ_1 =   2022-11-19T15:24:00.547   2216497599.1
RECEIVE_FREQ_1 =   2022-11-19T15:24:10.483   2216497598.0
RECEIVE_FREQ_1 =   2022-11-19T15:24:20.506   2216497597.2
RECEIVE_FREQ_1 =   2022-11-19T15:24:30.528   2216497595.9
RECEIVE_FREQ_1 =   2022-11-19T15:24:40.550   2216497594.8
RECEIVE_FREQ_1 =   2022-11-19T15:24:50.486   2216497598.4
RECEIVE_FREQ_1 =   2022-11-19T15:25:00.509   2216497592.6
RECEIVE_FREQ_1 =   2022-11-19T15:25:10.531   2216497591.8
RECEIVE_FREQ_1 =   2022-11-19T15:25:20.467   2216497590.6
RECEIVE_FREQ_1 =   2022-11-19T15:25:30.490   2216497589.5
RECEIVE_FREQ_1 =   2022-11-19T15:25:40.512   2216497588.7
RECEIVE_FREQ_1 =   2022-11-19T15:25:50.534   2216497587.1
RECEIVE_FREQ_1 =   2022-11-19T15:26:00.470   2216497586.1
RECEIVE_FREQ_1 =   2022-11-19T15:26:10.493   2216497585.0
RECEIVE_FREQ_1 =   2022-11-19T15:26:20.515   2216497584.3
RECEIVE_FREQ_1 =   2022-11-19T15:26:30.538   2216497583.0
RECEIVE_FREQ_1 =   2022-11-19T15:26:40.474   2216497582.3
RECEIVE_FREQ_1 =   2022-11-19T15:26:50.496   2216497580.9
RECEIVE_FREQ_1 =   2022-11-19T15:27:00.518   2216497580.4
RECEIVE_FREQ_1 =   2022-11-19T15:27:10.541   2216497579.2
RECEIVE_FREQ_1 =   2022-11-19T15:27:20.477   2216497578.3
RECEIVE_FREQ_1 =   2022-11-19T15:27:30.499   2216497577.4
RECEIVE_FREQ_1 =   2022-11-19T15:27:40.522   2216497576.1
RECEIVE_FREQ_1 =   2022-11-19T15:27:50.544   2216497575.3
RECEIVE_FREQ_1 =   2022-11-19T15:28:00.480   2216497574.0
RECEIVE_FREQ_1 =   2022-11-19T15:28:10.502   2216497573.2
RECEIVE_FREQ_1 =   2022-11-19T15:28:20.525   2216497572.0
RECEIVE_FREQ_1 =   2022-11-19T15:28:30.547   2216497571.2
RECEIVE_FREQ_1 =   2022-11-19T15:28:40.483   2216497570.2
RECEIVE_FREQ_1 =   2022-11-19T15:28:50.506   2216497569.4
RECEIVE_FREQ_1 =   2022-11-19T15:29:00.528   2216497568.1
RECEIVE_FREQ_1 =   2022-11-19T15:29:10.550   2216497567.2
RECEIVE_FREQ_1 =   2022-11-19T15:29:20.486   2216497566.1
RECEIVE_FREQ_1 =   2022-11-19T15:29:30.509   2216497565.1
RECEIVE_FREQ_1 =   2022-11-19T15:29:40.531   2216497564.3
RECEIVE_FREQ_1 =   2022-11-19T15:29:50.554   2216497563.2
RECEIVE_FREQ_1 =   2022-11-19T15:30:00.490   2216497562.2
RECEIVE_FREQ_1 =   2022-11-19T15:30:10.512   2216497561.0
RECEIVE_FREQ_1 =   2022-11-19T15:30:20.534   2216497559.8
RECEIVE_FREQ_1 =   2022-11-19T15:30:30.470   2216497558.8
RECEIVE_FREQ_1 =   2022-11-19T15:30:40.493   2216497557.7
RECEIVE_FREQ_1 =   2022-11-19T15:30:50.515   2216497556.9
RECEIVE_FREQ_1 =   2022-11-19T15:31:00.538   2216497555.6
RECEIVE_FREQ_1 =   2022-11-19T15:31:10.474   2216497554.8
RECEIVE_FREQ_1 =   2022-11-19T15:31:20.496   2216497553.7
RECEIVE_FREQ_1 =   2022-11-19T15:31:30.518   2216497552.6
RECEIVE_FREQ_1 =   2022-11-19T15:31:40.541   2216497551.5
RECEIVE_FREQ_1 =   2022-11-19T15:31:50.477   2216497550.6
RECEIVE_FREQ_1 =   2022-11-19T15:32:00.499   2216497549.7
RECEIVE_FREQ_1 =   2022-11-19T15:32:10.522   2216497548.5
RECEIVE_FREQ_1 =   2022-11-19T15:32:20.544   2216497547.5
RECEIVE_FREQ_1 =   2022-11-19T15:32:30.480   2216497546.6
RECEIVE_FREQ_1 =   2022-11-19T15:32:40.502   2216497545.3
RECEIVE_FREQ_1 =   2022-11-19T15:32:50.525   2216497544.3
RECEIVE_FREQ_1 =   2022-11-19T15:33:00.547   2216497543.2
RECEIVE_FREQ_1 =   2022-11-19T15:33:10.483   2216497542.3
RECEIVE_FREQ_1 =   2022-11-19T15:33:20.506   2216497540.9
RECEIVE_FREQ_1 =   2022-11-19T15:33:30.528   2216497540.0
RECEIVE_FREQ_1 =   2022-11-19T15:33:40.550   2216497539.1
RECEIVE_FREQ_1 =   2022-11-19T15:33:50.486   2216497537.9
RECEIVE_FREQ_1 =   2022-11-19T15:34:00.509   2216497537.0
RECEIVE_FREQ_1 =   2022-11-19T15:34:00.509   2216497537.0
RECEIVE_FREQ_1 =   2022-11-19T15:34:10.531   2216497536.0
RECEIVE_FREQ_1 =   2022-11-19T15:34:20.467   2216497534.8
RECEIVE_FREQ_1 =   2022-11-19T15:34:30.490   2216497534.3
RECEIVE_FREQ_1 =   2022-11-19T15:34:40.512   2216497533.0
RECEIVE_FREQ_1 =   2022-11-19T15:34:50.534   2216497531.8
RECEIVE_FREQ_1 =   2022-11-19T15:35:00.557   2216497530.7
RECEIVE_FREQ_1 =   2022-11-19T15:35:10.493   2216497529.7
RECEIVE_FREQ_1 =   2022-11-19T15:35:20.515   2216497528.4
RECEIVE_FREQ_1 =   2022-11-19T15:35:30.538   2216497527.4
RECEIVE_FREQ_1 =   2022-11-19T15:35:40.474   2216497526.3
RECEIVE_FREQ_1 =   2022-11-19T15:35:50.496   2216497525.5
RECEIVE_FREQ_1 =   2022-11-19T15:36:00.518   2216497524.3
RECEIVE_FREQ_1 =   2022-11-19T15:36:10.541   2216497523.2
RECEIVE_FREQ_1 =   2022-11-19T15:36:20.477   2216497521.5
RECEIVE_FREQ_1 =   2022-11-19T15:36:30.499   2216497520.8
RECEIVE_FREQ_1 =   2022-11-19T15:36:40.522   2216497520.0
RECEIVE_FREQ_1 =   2022-11-19T15:36:50.544   2216497518.8
RECEIVE_FREQ_1 =   2022-11-19T15:37:00.480   2216497517.6
RECEIVE_FREQ_1 =   2022-11-19T15:37:10.502   2216497516.4
RECEIVE_FREQ_1 =   2022-11-19T15:37:20.525   2216497515.4
RECEIVE_FREQ_1 =   2022-11-19T15:37:30.547   2216497514.4
RECEIVE_FREQ_1 =   2022-11-19T15:37:40.483   2216497513.4
RECEIVE_FREQ_1 =   2022-11-19T15:37:50.506   2216497512.4
RECEIVE_FREQ_1 =   2022-11-19T15:38:00.528   2216497511.2
RECEIVE_FREQ_1 =   2022-11-19T15:38:10.550   2216497510.0
RECEIVE_FREQ_1 =   2022-11-19T15:38:20.486   2216497508.9
RECEIVE_FREQ_1 =   2022-11-19T15:38:30.509   2216497507.9
RECEIVE_FREQ_1 =   2022-11-19T15:38:40.531   2216497506.8
RECEIVE_FREQ_1 =   2022-11-19T15:38:50.554   2216497505.3
RECEIVE_FREQ_1 =   2022-11-19T15:39:00.490   2216497504.5
RECEIVE_FREQ_1 =   2022-11-19T15:39:10.512   2216497503.5
RECEIVE_FREQ_1 =   2022-11-19T15:39:20.534   2216497502.3
RECEIVE_FREQ_1 =   2022-11-19T15:39:30.470   2216497501.4
RECEIVE_FREQ_1 =   2022-11-19T15:39:40.493   2216497500.2
RECEIVE_FREQ_1 =   2022-11-19T15:39:50.515   2216497498.9
RECEIVE_FREQ_1 =   2022-11-19T15:40:00.538   2216497497.7
RECEIVE_FREQ_1 =   2022-11-19T15:40:10.474   2216497496.7
RECEIVE_FREQ_1 =   2022-11-19T15:40:20.496   2216497495.6
RECEIVE_FREQ_1 =   2022-11-19T15:40:30.518   2216497494.4
RECEIVE_FREQ_1 =   2022-11-19T15:40:40.541   2216497493.7
RECEIVE_FREQ_1 =   2022-11-19T15:40:50.477   2216497492.6
RECEIVE_FREQ_1 =   2022-11-19T15:41:00.499   2216497491.2
RECEIVE_FREQ_1 =   2022-11-19T15:41:10.522   2216497490.1
RECEIVE_FREQ_1 =   2022-11-19T15:41:20.544   2216497489.1
RECEIVE_FREQ_1 =   2022-11-19T15:41:30.480   2216497487.7
RECEIVE_FREQ_1 =   2022-11-19T15:41:40.502   2216497486.5
RECEIVE_FREQ_1 =   2022-11-19T15:41:50.525   2216497485.9
RECEIVE_FREQ_1 =   2022-11-19T15:42:00.547   2216497484.4
RECEIVE_FREQ_1 =   2022-11-19T15:42:10.483   2216497483.4
RECEIVE_FREQ_1 =   2022-11-19T15:42:20.506   2216497482.4
RECEIVE_FREQ_1 =   2022-11-19T15:42:30.528   2216497481.3
RECEIVE_FREQ_1 =   2022-11-19T15:42:40.550   2216497480.0
RECEIVE_FREQ_1 =   2022-11-19T15:42:50.486   2216497479.0
RECEIVE_FREQ_1 =   2022-11-19T15:43:00.509   2216497477.9
RECEIVE_FREQ_1 =   2022-11-19T15:43:10.531   2216497476.5
RECEIVE_FREQ_1 =   2022-11-19T15:43:20.467   2216497475.5
RECEIVE_FREQ_1 =   2022-11-19T15:43:30.490   2216497474.2
RECEIVE_FREQ_1 =   2022-11-19T15:43:40.512   2216497473.1
RECEIVE_FREQ_1 =   2022-11-19T15:43:50.534   2216497472.2
RECEIVE_FREQ_1 =   2022-11-19T15:44:00.557   2216497471.1
RECEIVE_FREQ_1 =   2022-11-19T15:44:10.493   2216497469.7
RECEIVE_FREQ_1 =   2022-11-19T15:44:20.515   2216497468.6
RECEIVE_FREQ_1 =   2022-11-19T15:44:30.538   2216497467.6
RECEIVE_FREQ_1 =   2022-11-19T15:44:40.474   2216497466.3
RECEIVE_FREQ_1 =   2022-11-19T15:44:50.496   2216497465.2
RECEIVE_FREQ_1 =   2022-11-19T15:45:00.518   2216497464.1
RECEIVE_FREQ_1 =   2022-11-19T15:45:10.541   2216497462.8
RECEIVE_FREQ_1 =   2022-11-19T15:45:20.477   2216497461.4
RECEIVE_FREQ_1 =   2022-11-19T15:45:30.499   2216497460.6
RECEIVE_FREQ_1 =   2022-11-19T15:45:40.522   2216497459.2
RECEIVE_FREQ_1 =   2022-11-19T15:45:50.544   2216497458.5
RECEIVE_FREQ_1 =   2022-11-19T15:46:00.480   2216497457.0
RECEIVE_FREQ_1 =   2022-11-19T15:46:10.502   2216497456.1
RECEIVE_FREQ_1 =   2022-11-19T15:46:20.525   2216497454.8
RECEIVE_FREQ_1 =   2022-11-19T15:46:30.547   2216497453.6
RECEIVE_FREQ_1 =   2022-11-19T15:46:40.483   2216497452.4
RECEIVE_FREQ_1 =   2022-11-19T15:46:50.506   2216497451.0
RECEIVE_FREQ_1 =   2022-11-19T15:47:00.528   2216497450.2
RECEIVE_FREQ_1 =   2022-11-19T15:47:10.464   2216497448.8
RECEIVE_FREQ_1 =   2022-11-19T15:47:20.486   2216497447.7
RECEIVE_FREQ_1 =   2022-11-19T15:47:30.509   2216497446.6
RECEIVE_FREQ_1 =   2022-11-19T15:47:40.531   2216497445.5
RECEIVE_FREQ_1 =   2022-11-19T15:47:50.467   2216497444.4
RECEIVE_FREQ_1 =   2022-11-19T15:48:00.490   2216497443.0
RECEIVE_FREQ_1 =   2022-11-19T15:48:10.512   2216497442.0
RECEIVE_FREQ_1 =   2022-11-19T15:48:20.534   2216497440.6
RECEIVE_FREQ_1 =   2022-11-19T15:48:30.557   2216497439.3
RECEIVE_FREQ_1 =   2022-11-19T15:48:40.493   2216497438.1
RECEIVE_FREQ_1 =   2022-11-19T15:48:50.515   2216497437.1
RECEIVE_FREQ_1 =   2022-11-19T15:49:00.538   2216497436.1
RECEIVE_FREQ_1 =   2022-11-19T15:49:10.474   2216497435.0
RECEIVE_FREQ_1 =   2022-11-19T15:49:20.496   2216497433.8
RECEIVE_FREQ_1 =   2022-11-19T15:49:30.518   2216497432.1
RECEIVE_FREQ_1 =   2022-11-19T15:49:40.541   2216497431.5
RECEIVE_FREQ_1 =   2022-11-19T15:49:50.477   2216497429.9
RECEIVE_FREQ_1 =   2022-11-19T15:50:00.499   2216497428.7
RECEIVE_FREQ_1 =   2022-11-19T15:50:10.522   2216497427.7
RECEIVE_FREQ_1 =   2022-11-19T15:50:20.544   2216497426.3
RECEIVE_FREQ_1 =   2022-11-19T15:50:30.480   2216497425.3
RECEIVE_FREQ_1 =   2022-11-19T15:50:30.480   2216497425.3
RECEIVE_FREQ_1 =   2022-11-19T15:50:40.502   2216497423.6
RECEIVE_FREQ_1 =   2022-11-19T15:50:50.525   2216497423.3
RECEIVE_FREQ_1 =   2022-11-19T15:51:00.547   2216497421.4
RECEIVE_FREQ_1 =   2022-11-19T15:51:10.483   2216497420.7
RECEIVE_FREQ_1 =   2022-11-19T15:51:20.506   2216497419.4
RECEIVE_FREQ_1 =   2022-11-19T15:51:30.528   2216497418.3
RECEIVE_FREQ_1 =   2022-11-19T15:51:40.550   2216497416.7
RECEIVE_FREQ_1 =   2022-11-19T15:51:50.486   2216497415.6
RECEIVE_FREQ_1 =   2022-11-19T15:52:00.509   2216497414.5
RECEIVE_FREQ_1 =   2022-11-19T15:52:10.531   2216497413.7
RECEIVE_FREQ_1 =   2022-11-19T15:52:20.467   2216497412.3
RECEIVE_FREQ_1 =   2022-11-19T15:52:30.490   2216497411.2
RECEIVE_FREQ_1 =   2022-11-19T15:52:40.512   2216497410.1
RECEIVE_FREQ_1 =   2022-11-19T15:52:50.534   2216497409.3
RECEIVE_FREQ_1 =   2022-11-19T15:53:00.557   2216497408.2
RECEIVE_FREQ_1 =   2022-11-19T15:53:10.493   2216497407.0
RECEIVE_FREQ_1 =   2022-11-19T15:53:20.515   2216497405.4
RECEIVE_FREQ_1 =   2022-11-19T15:53:30.538   2216497404.6
RECEIVE_FREQ_1 =   2022-11-19T15:53:40.474   2216497403.1
RECEIVE_FREQ_1 =   2022-11-19T15:53:50.496   2216497402.5
RECEIVE_FREQ_1 =   2022-11-19T15:54:00.518   2216497401.0
RECEIVE_FREQ_1 =   2022-11-19T15:54:10.541   2216497400.2
RECEIVE_FREQ_1 =   2022-11-19T15:54:20.477   2216497398.9
RECEIVE_FREQ_1 =   2022-11-19T15:54:30.499   2216497397.8
RECEIVE_FREQ_1 =   2022-11-19T15:54:40.522   2216497396.8
RECEIVE_FREQ_1 =   2022-11-19T15:54:50.544   2216497395.8
RECEIVE_FREQ_1 =   2022-11-19T15:55:00.480   2216497394.8
RECEIVE_FREQ_1 =   2022-11-19T15:55:10.502   2216497393.5
RECEIVE_FREQ_1 =   2022-11-19T15:55:30.547   2216497391.0
RECEIVE_FREQ_1 =   2022-11-19T15:55:40.483   2216497389.9
RECEIVE_FREQ_1 =   2022-11-19T15:56:10.550   2216497386.6
RECEIVE_FREQ_1 =   2022-11-19T15:56:20.486   2216497385.6
RECEIVE_FREQ_1 =   2022-11-19T15:56:30.509   2216497384.3
RECEIVE_FREQ_1 =   2022-11-19T15:57:00.490   2216497381.1
RECEIVE_FREQ_1 =   2022-11-19T15:57:20.534   2216497378.4
RECEIVE_FREQ_1 =   2022-11-19T15:57:30.470   2216497377.3
RECEIVE_FREQ_1 =   2022-11-19T15:57:40.493   2216497376.8
RECEIVE_FREQ_1 =   2022-11-19T15:58:00.538   2216497374.3
RECEIVE_FREQ_1 =   2022-11-19T15:58:10.474   2216497373.1
RECEIVE_FREQ_1 =   2022-11-19T15:58:30.518   2216497370.6
RECEIVE_FREQ_1 =   2022-11-19T15:58:40.541   2216497369.5
RECEIVE_FREQ_1 =   2022-11-19T15:58:50.563   2216497368.4
RECEIVE_FREQ_1 =   2022-11-19T15:59:10.522   2216497366.2
RECEIVE_FREQ_1 =   2022-11-19T15:59:20.544   2216497364.8
RECEIVE_FREQ_1 =   2022-11-19T16:00:00.547   2216497360.4
RECEIVE_FREQ_1 =   2022-11-19T16:00:10.483   2216497359.3
RECEIVE_FREQ_1 =   2022-11-19T16:00:20.506   2216497357.6
RECEIVE_FREQ_1 =   2022-11-19T16:00:30.528   2216497357.0
RECEIVE_FREQ_1 =   2022-11-19T16:00:40.550   2216497355.3
RECEIVE_FREQ_1 =   2022-11-19T16:01:00.509   2216497353.2
RECEIVE_FREQ_1 =   2022-11-19T16:01:10.531   2216497352.2
RECEIVE_FREQ_1 =   2022-11-19T16:01:20.467   2216497350.8
RECEIVE_FREQ_1 =   2022-11-19T16:01:30.490   2216497350.0
RECEIVE_FREQ_1 =   2022-11-19T16:01:50.534   2216497347.6
RECEIVE_FREQ_1 =   2022-11-19T16:02:00.557   2216497346.3
RECEIVE_FREQ_1 =   2022-11-19T16:02:10.493   2216497345.1
RECEIVE_FREQ_1 =   2022-11-19T16:02:20.515   2216497343.7
RECEIVE_FREQ_1 =   2022-11-19T16:04:00.480   2216497332.2
RECEIVE_FREQ_1 =   2022-11-19T16:04:20.525   2216497331.8
RECEIVE_FREQ_1 =   2022-11-19T16:04:50.506   2216497325.0
RECEIVE_FREQ_1 =   2022-11-19T16:05:30.509   2216497321.7
RECEIVE_FREQ_1 =   2022-11-19T16:06:10.512   2216497314.3
RECEIVE_FREQ_1 =   2022-11-19T16:06:30.557   2216497312.4
RECEIVE_FREQ_1 =   2022-11-19T16:06:40.493   2216497306.8
RECEIVE_FREQ_1 =   2022-11-19T16:07:40.541   2216497307.9
RECEIVE_FREQ_1 =   2022-11-19T16:08:50.525   2216497297.4
RECEIVE_FREQ_1 =   2022-11-19T16:09:10.483   2216497294.6
RECEIVE_FREQ_1 =   2022-11-19T16:09:30.528   2216497293.6
RECEIVE_FREQ_1 =   2022-11-19T16:10:20.554   2216497284.1
RECEIVE_FREQ_1 =   2022-11-19T16:10:50.534   2216497282.6
RECEIVE_FREQ_1 =   2022-11-19T16:11:10.493   2216497282.1
RECEIVE_FREQ_1 =   2022-11-19T16:11:20.515   2216497278.8
RECEIVE_FREQ_1 =   2022-11-19T16:12:00.518   2216497273.9
RECEIVE_FREQ_1 =   2022-11-19T16:13:20.525   2216497261.7
RECEIVE_FREQ_1 =   2022-11-19T16:14:10.550   2216497257.8
RECEIVE_FREQ_1 =   2022-11-19T16:14:30.509   2216497255.3
RECEIVE_FREQ_1 =   2022-11-19T16:14:40.531   2216497254.0
RECEIVE_FREQ_1 =   2022-11-19T16:14:50.554   2216497252.7
RECEIVE_FREQ_1 =   2022-11-19T16:15:00.490   2216497251.2
RECEIVE_FREQ_1 =   2022-11-19T16:15:30.470   2216497247.6
RECEIVE_FREQ_1 =   2022-11-19T16:15:40.493   2216497246.3
RECEIVE_FREQ_1 =   2022-11-19T16:15:50.515   2216497244.9
RECEIVE_FREQ_1 =   2022-11-19T16:16:00.538   2216497244.0
RECEIVE_FREQ_1 =   2022-11-19T16:16:20.496   2216497241.7
RECEIVE_FREQ_1 =   2022-11-19T16:16:30.518   2216497239.8
RECEIVE_FREQ_1 =   2022-11-19T16:16:40.541   2216497239.0
RECEIVE_FREQ_1 =   2022-11-19T16:16:50.477   2216497237.5
RECEIVE_FREQ_1 =   2022-11-19T16:17:00.499   2216497236.4
RECEIVE_FREQ_1 =   2022-11-19T16:17:30.480   2216497232.3
RECEIVE_FREQ_1 =   2022-11-19T16:17:50.525   2216497230.3
RECEIVE_FREQ_1 =   2022-11-19T16:18:10.483   2216497227.1
RECEIVE_FREQ_1 =   2022-11-19T16:18:30.528   2216497224.8
RECEIVE_FREQ_1 =   2022-11-19T16:18:40.550   2216497223.4
RECEIVE_FREQ_1 =   2022-11-19T16:18:50.486   2216497222.1
RECEIVE_FREQ_1 =   2022-11-19T16:19:00.509   2216497220.8
RECEIVE_FREQ_1 =   2022-11-19T16:19:10.531   2216497220.1
RECEIVE_FREQ_1 =   2022-11-19T16:19:20.554   2216497218.5
RECEIVE_FREQ_1 =   2022-11-19T16:19:30.490   2216497217.4
RECEIVE_FREQ_1 =   2022-11-19T16:19:40.512   2216497215.5
RECEIVE_FREQ_1 =   2022-11-19T16:19:50.534   2216497214.8
RECEIVE_FREQ_1 =   2022-11-19T16:20:00.470   2216497213.2
RECEIVE_FREQ_1 =   2022-11-19T16:20:10.493   2216497211.9
RECEIVE_FREQ_1 =   2022-11-19T16:20:30.538   2216497209.2
RECEIVE_FREQ_1 =   2022-11-19T16:20:40.560   2216497208.0
RECEIVE_FREQ_1 =   2022-11-19T16:20:50.496   2216497206.8
RECEIVE_FREQ_1 =   2022-11-19T16:21:00.518   2216497205.5
RECEIVE_FREQ_1 =   2022-11-19T16:21:10.541   2216497204.2
RECEIVE_FREQ_1 =   2022-11-19T16:21:30.499   2216497201.4
RECEIVE_FREQ_1 =   2022-11-19T16:21:40.522   2216497200.3
RECEIVE_FREQ_1 =   2022-11-19T16:21:50.544   2216497199.2
RECEIVE_FREQ_1 =   2022-11-19T16:22:10.502   2216497196.7
RECEIVE_FREQ_1 =   2022-11-19T16:23:00.528   2216497190.9
RECEIVE_FREQ_1 =   2022-11-19T16:23:20.486   2216497188.1
RECEIVE_FREQ_1 =   2022-11-19T16:23:30.509   2216497187.0
RECEIVE_FREQ_1 =   2022-11-19T16:23:50.554   2216497184.9
RECEIVE_FREQ_1 =   2022-11-19T16:24:00.490   2216497184.2
RECEIVE_FREQ_1 =   2022-11-19T16:24:20.534   2216497180.8
RECEIVE_FREQ_1 =   2022-11-19T16:24:50.515   2216497177.5
RECEIVE_FREQ_1 =   2022-11-19T16:25:00.538   2216497176.1
RECEIVE_FREQ_1 =   2022-11-19T16:25:10.474   2216497174.9
RECEIVE_FREQ_1 =   2022-11-19T16:25:30.518   2216497172.0
RECEIVE_FREQ_1 =   2022-11-19T16:25:40.541   2216497171.6
RECEIVE_FREQ_1 =   2022-11-19T16:25:50.477   2216497170.0
RECEIVE_FREQ_1 =   2022-11-19T16:26:10.522   2216497167.0
RECEIVE_FREQ_1 =   2022-11-19T16:26:20.544   2216497166.3
RECEIVE_FREQ_1 =   2022-11-19T16:26:40.502   2216497163.6
RECEIVE_FREQ_1 =   2022-11-19T16:26:50.525   2216497162.9
RECEIVE_FREQ_1 =   2022-11-19T16:27:20.506   2216497158.5
RECEIVE_FREQ_1 =   2022-11-19T16:27:30.528   2216497157.4
RECEIVE_FREQ_1 =   2022-11-19T16:27:50.486   2216497154.9
RECEIVE_FREQ_1 =   2022-11-19T16:28:20.467   2216497151.2
RECEIVE_FREQ_1 =   2022-11-19T16:28:30.490   2216497150.2
RECEIVE_FREQ_1 =   2022-11-19T16:28:40.512   2216497148.8
RECEIVE_FREQ_1 =   2022-11-19T16:28:50.534   2216497147.5
RECEIVE_FREQ_1 =   2022-11-19T16:30:20.477   2216497136.6
RECEIVE_FREQ_1 =   2022-11-19T16:30:40.522   2216497133.7
RECEIVE_FREQ_1 =   2022-11-19T16:31:20.525   2216497129.1
RECEIVE_FREQ_1 =   2022-11-19T16:31:30.547   2216497127.5
RECEIVE_FREQ_1 =   2022-11-19T16:31:50.506   2216497124.9
RECEIVE_FREQ_1 =   2022-11-19T16:32:30.509   2216497120.1
RECEIVE_FREQ_1 =   2022-11-19T16:32:50.554   2216497117.3
RECEIVE_FREQ_1 =   2022-11-19T16:33:00.490   2216497116.1
RECEIVE_FREQ_1 =   2022-11-19T16:33:10.512   2216497115.0
RECEIVE_FREQ_1 =   2022-11-19T16:33:20.534   2216497113.8
RECEIVE_FREQ_1 =   2022-11-19T16:33:30.470   2216497112.2
RECEIVE_FREQ_1 =   2022-11-19T16:34:20.496   2216497106.3
RECEIVE_FREQ_1 =   2022-11-19T16:34:40.541   2216497103.3
RECEIVE_FREQ_1 =   2022-11-19T16:34:50.477   2216497100.2
RECEIVE_FREQ_1 =   2022-11-19T16:35:50.525   2216497094.7
RECEIVE_FREQ_1 =   2022-11-19T16:36:00.547   2216497093.2
RECEIVE_FREQ_1 =   2022-11-19T16:37:00.509   2216497085.3
RECEIVE_FREQ_1 =   2022-11-19T16:37:10.531   2216497084.5
RECEIVE_FREQ_1 =   2022-11-19T16:37:20.467   2216497082.9
RECEIVE_FREQ_1 =   2022-11-19T16:37:30.490   2216497081.5
RECEIVE_FREQ_1 =   2022-11-19T16:37:50.534   2216497079.2
RECEIVE_FREQ_1 =   2022-11-19T16:38:00.470   2216497077.8
RECEIVE_FREQ_1 =   2022-11-19T16:38:10.493   2216497076.5
RECEIVE_FREQ_1 =   2022-11-19T16:38:30.538   2216497073.9
RECEIVE_FREQ_1 =   2022-11-19T16:38:40.474   2216497072.8
RECEIVE_FREQ_1 =   2022-11-19T16:38:50.496   2216497071.4
RECEIVE_FREQ_1 =   2022-11-19T16:39:00.518   2216497069.6
RECEIVE_FREQ_1 =   2022-11-19T16:39:10.541   2216497068.3
RECEIVE_FREQ_1 =   2022-11-19T16:39:20.477   2216497067.3
RECEIVE_FREQ_1 =   2022-11-19T16:39:30.499   2216497066.2
RECEIVE_FREQ_1 =   2022-11-19T16:39:40.522   2216497064.7
RECEIVE_FREQ_1 =   2022-11-19T16:39:50.544   2216497063.5
RECEIVE_FREQ_1 =   2022-11-19T16:40:10.502   2216497061.0
RECEIVE_FREQ_1 =   2022-11-19T16:40:20.525   2216497059.5
RECEIVE_FREQ_1 =   2022-11-19T16:40:50.506   2216497055.6
RECEIVE_FREQ_1 =   2022-11-19T16:41:00.528   2216497054.6
RECEIVE_FREQ_1 =   2022-11-19T16:41:20.486   2216497051.9
RECEIVE_FREQ_1 =   2022-11-19T16:41:40.531   2216497049.3
RECEIVE_FREQ_1 =   2022-11-19T16:42:30.557   2216497042.4
RECEIVE_FREQ_1 =   2022-11-19T16:42:40.493   2216497041.2
RECEIVE_FREQ_1 =   2022-11-19T16:43:10.474   2216497037.5
RECEIVE_FREQ_1 =   2022-11-19T16:43:20.496   2216497036.3
RECEIVE_FREQ_1 =   2022-11-19T16:43:20.496   2216497036.3
RECEIVE_FREQ_1 =   2022-11-19T16:43:30.518   2216497034.9
RECEIVE_FREQ_1 =   2022-11-19T16:43:40.541   2216497033.4
RECEIVE_FREQ_1 =   2022-11-19T16:43:50.477   2216497032.4
RECEIVE_FREQ_1 =   2022-11-19T16:44:00.499   2216497030.7
RECEIVE_FREQ_1 =   2022-11-19T16:44:10.522   2216497029.5
RECEIVE_FREQ_1 =   2022-11-19T16:44:40.502   2216497025.4
RECEIVE_FREQ_1 =   2022-11-19T16:45:00.547   2216497022.9
RECEIVE_FREQ_1 =   2022-11-19T16:45:10.483   2216497021.8
RECEIVE_FREQ_1 =   2022-11-19T16:45:20.506   2216497020.1
RECEIVE_FREQ_1 =   2022-11-19T16:45:30.528   2216497019.3
RECEIVE_FREQ_1 =   2022-11-19T16:46:00.509   2216497014.8
RECEIVE_FREQ_1 =   2022-11-19T16:46:10.531   2216497013.9
RECEIVE_FREQ_1 =   2022-11-19T16:46:20.467   2216497012.2
RECEIVE_FREQ_1 =   2022-11-19T16:47:00.470   2216497006.6
RECEIVE_FREQ_1 =   2022-11-19T16:47:10.493   2216497006.6
RECEIVE_FREQ_1 =   2022-11-19T16:48:00.518   2216496998.8
RECEIVE_FREQ_1 =   2022-11-19T16:48:10.541   2216496997.5
RECEIVE_FREQ_1 =   2022-11-19T16:48:50.544   2216496992.3
RECEIVE_FREQ_1 =   2022-11-19T16:49:20.525   2216496988.5
RECEIVE_FREQ_1 =   2022-11-19T16:50:40.531   2216496980.1
RECEIVE_FREQ_1 =   2022-11-19T16:51:00.490   2216496974.8
RECEIVE_FREQ_1 =   2022-11-19T16:51:10.512   2216496973.5
RECEIVE_FREQ_1 =   2022-11-19T16:51:50.515   2216496968.1
RECEIVE_FREQ_1 =   2022-11-19T16:52:10.560   2216496964.9
RECEIVE_FREQ_1 =   2022-11-19T16:52:30.518   2216496962.5
RECEIVE_FREQ_1 =   2022-11-19T16:52:40.541   2216496961.9
RECEIVE_FREQ_1 =   2022-11-19T16:52:50.477   2216496960.1
RECEIVE_FREQ_1 =   2022-11-19T16:53:10.522   2216496956.4
RECEIVE_FREQ_1 =   2022-11-19T16:54:20.506   2216496947.9
RECEIVE_FREQ_1 =   2022-11-19T16:54:30.528   2216496948.1
RECEIVE_FREQ_1 =   2022-11-19T16:54:40.550   2216496945.3
RECEIVE_FREQ_1 =   2022-11-19T16:54:50.486   2216496944.4
RECEIVE_FREQ_1 =   2022-11-19T16:55:10.531   2216496941.2
RECEIVE_FREQ_1 =   2022-11-19T16:55:50.534   2216496935.6
RECEIVE_FREQ_1 =   2022-11-19T16:56:10.493   2216496932.7
RECEIVE_FREQ_1 =   2022-11-19T16:56:20.515   2216496933.8
RECEIVE_FREQ_1 =   2022-11-19T16:56:30.538   2216496930.4
RECEIVE_FREQ_1 =   2022-11-19T16:57:30.499   2216496921.9
RECEIVE_FREQ_1 =   2022-11-19T16:58:10.502   2216496916.4
RECEIVE_FREQ_1 =   2022-11-19T16:58:30.547   2216496913.8
RECEIVE_FREQ_1 =   2022-11-19T16:59:30.509   2216496905.6
RECEIVE_FREQ_1 =   2022-11-19T16:59:40.531   2216496904.2
RECEIVE_FREQ_1 =   2022-11-19T17:00:30.470   2216496897.7
RECEIVE_FREQ_1 =   2022-11-19T17:00:50.515   2216496894.8
RECEIVE_FREQ_1 =   2022-11-19T17:01:00.538   2216496893.6
RECEIVE_FREQ_1 =   2022-11-19T17:01:30.518   2216496890.0
RECEIVE_FREQ_1 =   2022-11-19T17:01:50.563   2216496886.7
RECEIVE_FREQ_1 =   2022-11-19T17:02:00.499   2216496885.5
RECEIVE_FREQ_1 =   2022-11-19T17:02:10.522   2216496884.0
RECEIVE_FREQ_1 =   2022-11-19T17:02:10.522   2216496884.0
RECEIVE_FREQ_1 =   2022-11-19T17:02:30.480   2216496881.7
RECEIVE_FREQ_1 =   2022-11-19T17:02:40.502   2216496878.8
RECEIVE_FREQ_1 =   2022-11-19T17:02:50.525   2216496878.9
RECEIVE_FREQ_1 =   2022-11-19T17:03:00.547   2216496877.5
RECEIVE_FREQ_1 =   2022-11-19T17:04:10.531   2216496868.2
RECEIVE_FREQ_1 =   2022-11-19T17:04:20.467   2216496866.9
RECEIVE_FREQ_1 =   2022-11-19T17:05:20.515   2216496858.9
RECEIVE_FREQ_1 =   2022-11-19T17:05:30.538   2216496859.2
RECEIVE_FREQ_1 =   2022-11-19T17:05:40.474   2216496856.0
RECEIVE_FREQ_1 =   2022-11-19T17:06:30.499   2216496849.7
RECEIVE_FREQ_1 =   2022-11-19T17:06:50.458   2216496846.6
RECEIVE_FREQ_1 =   2022-11-19T17:07:30.547   2216496841.8
RECEIVE_FREQ_1 =   2022-11-19T17:07:50.506   2216496838.6
RECEIVE_FREQ_1 =   2022-11-19T17:08:10.550   2216496836.1
RECEIVE_FREQ_1 =   2022-11-19T17:08:50.467   2216496830.4
RECEIVE_FREQ_1 =   2022-11-19T17:09:50.515   2216496822.4
RECEIVE_FREQ_1 =   2022-11-19T17:10:40.541   2216496815.7
RECEIVE_FREQ_1 =   2022-11-19T17:11:00.499   2216496813.5
RECEIVE_FREQ_1 =   2022-11-19T17:11:10.522   2216496811.4
RECEIVE_FREQ_1 =   2022-11-19T17:12:00.461   2216496807.1
RECEIVE_FREQ_1 =   2022-11-19T17:14:00.470   2216496790.7
RECEIVE_FREQ_1 =   2022-11-19T17:14:10.493   2216496787.7
RECEIVE_FREQ_1 =   2022-11-19T17:14:20.515   2216496786.1
RECEIVE_FREQ_1 =   2022-11-19T17:16:10.502   2216496774.9
RECEIVE_FREQ_1 =   2022-11-19T17:16:20.525   2216496769.6
RECEIVE_FREQ_1 =   2022-11-19T17:17:00.528   2216496762.1
RECEIVE_FREQ_1 =   2022-11-19T17:17:10.550   2216496762.9
RECEIVE_FREQ_1 =   2022-11-19T17:18:10.512   2216496753.1
RECEIVE_FREQ_1 =   2022-11-19T17:19:10.560   2216496750.1
RECEIVE_FREQ_1 =   2022-11-19T17:20:20.544   2216496737.6
RECEIVE_FREQ_1 =   2022-11-19T17:20:30.480   2216496735.2
RECEIVE_FREQ_1 =   2022-11-19T17:20:40.502   2216496733.7
RECEIVE_FREQ_1 =   2022-11-19T17:20:50.525   2216496732.3
RECEIVE_FREQ_1 =   2022-11-19T17:21:00.547   2216496730.2
RECEIVE_FREQ_1 =   2022-11-19T17:21:20.506   2216496728.2
RECEIVE_FREQ_1 =   2022-11-19T17:21:40.464   2216496723.3
RECEIVE_FREQ_1 =   2022-11-19T17:21:50.486   2216496724.3
RECEIVE_FREQ_1 =   2022-11-19T17:22:00.509   2216496722.9
RECEIVE_FREQ_1 =   2022-11-19T17:22:20.554   2216496720.0
RECEIVE_FREQ_1 =   2022-11-19T17:22:20.554   2216496720.0
RECEIVE_FREQ_1 =   2022-11-19T17:22:30.490   2216496718.7
RECEIVE_FREQ_1 =   2022-11-19T17:23:00.470   2216496714.7
RECEIVE_FREQ_1 =   2022-11-19T17:23:10.493   2216496713.4
RECEIVE_FREQ_1 =   2022-11-19T17:23:20.515   2216496711.8
RECEIVE_FREQ_1 =   2022-11-19T17:23:30.538   2216496710.4
RECEIVE_FREQ_1 =   2022-11-19T17:23:40.474   2216496709.1
RECEIVE_FREQ_1 =   2022-11-19T17:24:10.541   2216496705.2
RECEIVE_FREQ_1 =   2022-11-19T17:24:20.477   2216496703.4
RECEIVE_FREQ_1 =   2022-11-19T17:24:30.499   2216496702.0
RECEIVE_FREQ_1 =   2022-11-19T17:24:40.522   2216496700.7
RECEIVE_FREQ_1 =   2022-11-19T17:24:50.544   2216496700.3
RECEIVE_FREQ_1 =   2022-11-19T17:25:20.525   2216496695.5
RECEIVE_FREQ_1 =   2022-11-19T17:25:40.483   2216496692.3
RECEIVE_FREQ_1 =   2022-11-19T17:25:50.506   2216496691.2
RECEIVE_FREQ_1 =   2022-11-19T17:25:50.506   2216496691.2
RECEIVE_FREQ_1 =   2022-11-19T17:26:00.528   2216496689.6
RECEIVE_FREQ_1 =   2022-11-19T17:26:10.550   2216496688.0
RECEIVE_FREQ_1 =   2022-11-19T17:26:20.486   2216496687.0
RECEIVE_FREQ_1 =   2022-11-19T17:26:40.531   2216496684.1
RECEIVE_FREQ_1 =   2022-11-19T17:26:50.467   2216496682.4
RECEIVE_FREQ_1 =   2022-11-19T17:27:00.490   2216496681.6
RECEIVE_FREQ_1 =   2022-11-19T17:28:00.538   2216496673.0
RECEIVE_FREQ_1 =   2022-11-19T17:28:50.477   2216496666.2
RECEIVE_FREQ_1 =   2022-11-19T17:29:30.480   2216496657.2
RECEIVE_FREQ_1 =   2022-11-19T17:30:20.506   2216496653.7
RECEIVE_FREQ_1 =   2022-11-19T17:32:10.493   2216496639.1
RECEIVE_FREQ_1 =   2022-11-19T17:32:30.538   2216496636.1
RECEIVE_FREQ_1 =   2022-11-19T17:32:40.474   2216496634.2
RECEIVE_FREQ_1 =   2022-11-19T17:33:10.541   2216496630.3
RECEIVE_FREQ_1 =   2022-11-19T17:33:20.477   2216496628.1
RECEIVE_FREQ_1 =   2022-11-19T17:33:50.544   2216496622.4
RECEIVE_FREQ_1 =   2022-11-19T17:34:20.525   2216496618.4
RECEIVE_FREQ_1 =   2022-11-19T17:34:40.483   2216496615.8
RECEIVE_FREQ_1 =   2022-11-19T17:35:10.464   2216496613.7
RECEIVE_FREQ_1 =   2022-11-19T17:36:00.490   2216496606.6
RECEIVE_FREQ_1 =   2022-11-19T17:36:30.557   2216496601.6
RECEIVE_FREQ_1 =   2022-11-19T17:36:50.515   2216496599.7
RECEIVE_FREQ_1 =   2022-11-19T17:37:00.538   2216496599.5
RECEIVE_FREQ_1 =   2022-11-19T17:37:30.518   2216496590.7
RECEIVE_FREQ_1 =   2022-11-19T17:38:20.544   2216496587.1
RECEIVE_FREQ_1 =   2022-11-19T17:39:40.464   2216496576.0
RECEIVE_FREQ_1 =   2022-11-19T17:39:50.486   2216496574.6
RECEIVE_FREQ_1 =   2022-11-19T17:40:10.531   2216496570.1
RECEIVE_FREQ_1 =   2022-11-19T17:40:40.512   2216496570.0
RECEIVE_FREQ_1 =   2022-11-19T17:40:50.534   2216496566.4
RECEIVE_FREQ_1 =   2022-11-19T17:42:10.541   2216496553.8
RECEIVE_FREQ_1 =   2022-11-19T17:42:20.477   2216496553.8
RECEIVE_FREQ_1 =   2022-11-19T17:42:30.499   2216496552.4
RECEIVE_FREQ_1 =   2022-11-19T17:43:00.480   2216496548.3
RECEIVE_FREQ_1 =   2022-11-19T17:44:10.550   2216496538.8
RECEIVE_FREQ_1 =   2022-11-19T17:45:30.470   2216496527.6
RECEIVE_FREQ_1 =   2022-11-19T17:45:40.493   2216496525.9
RECEIVE_FREQ_1 =   2022-11-19T17:45:50.515   2216496524.6
RECEIVE_FREQ_1 =   2022-11-19T17:46:10.474   2216496521.7
RECEIVE_FREQ_1 =   2022-11-19T17:46:50.477   2216496516.2
RECEIVE_FREQ_1 =   2022-11-19T17:47:30.480   2216496510.6
RECEIVE_FREQ_1 =   2022-11-19T17:47:50.525   2216496508.4
RECEIVE_FREQ_1 =   2022-11-19T17:48:10.483   2216496505.6
RECEIVE_FREQ_1 =   2022-11-19T17:48:20.506   2216496504.2
RECEIVE_FREQ_1 =   2022-11-19T17:48:40.464   2216496501.2
RECEIVE_FREQ_1 =   2022-11-19T17:49:00.509   2216496498.7
RECEIVE_FREQ_1 =   2022-11-19T17:49:10.531   2216496497.2
RECEIVE_FREQ_1 =   2022-11-19T17:49:30.490   2216496494.2
RECEIVE_FREQ_1 =   2022-11-19T17:50:20.515   2216496487.4
RECEIVE_FREQ_1 =   2022-11-19T17:50:30.538   2216496485.6
RECEIVE_FREQ_1 =   2022-11-19T17:51:00.518   2216496481.5
RECEIVE_FREQ_1 =   2022-11-19T17:51:10.541   2216496480.6
RECEIVE_FREQ_1 =   2022-11-19T17:51:20.477   2216496478.6
RECEIVE_FREQ_1 =   2022-11-19T17:51:30.499   2216496477.7
RECEIVE_FREQ_1 =   2022-11-19T17:51:40.522   2216496476.3
RECEIVE_FREQ_1 =   2022-11-19T17:51:50.544   2216496474.9
RECEIVE_FREQ_1 =   2022-11-19T17:51:50.544   2216496474.9
RECEIVE_FREQ_1 =   2022-11-19T17:52:00.480   2216496473.3
RECEIVE_FREQ_1 =   2022-11-19T17:52:10.502   2216496471.8
RECEIVE_FREQ_1 =   2022-11-19T17:52:20.525   2216496470.9
RECEIVE_FREQ_1 =   2022-11-19T17:52:40.483   2216496467.7
RECEIVE_FREQ_1 =   2022-11-19T17:52:50.506   2216496466.6
RECEIVE_FREQ_1 =   2022-11-19T17:53:00.528   2216496464.9
RECEIVE_FREQ_1 =   2022-11-19T17:53:10.464   2216496463.8
RECEIVE_FREQ_1 =   2022-11-19T17:53:20.486   2216496462.5
RECEIVE_FREQ_1 =   2022-11-19T17:53:50.467   2216496458.1
RECEIVE_FREQ_1 =   2022-11-19T17:54:00.490   2216496457.0
RECEIVE_FREQ_1 =   2022-11-19T17:54:10.512   2216496455.4
RECEIVE_FREQ_1 =   2022-11-19T17:54:30.470   2216496452.6
RECEIVE_FREQ_1 =   2022-11-19T17:54:40.493   2216496451.2
RECEIVE_FREQ_1 =   2022-11-19T17:54:50.515   2216496450.0
RECEIVE_FREQ_1 =   2022-11-19T17:55:00.538   2216496448.6
RECEIVE_FREQ_1 =   2022-11-19T17:55:10.474   2216496447.6
RECEIVE_FREQ_1 =   2022-11-19T17:55:20.496   2216496445.5
RECEIVE_FREQ_1 =   2022-11-19T17:55:40.541   2216496443.1
RECEIVE_FREQ_1 =   2022-11-19T17:55:50.477   2216496441.7
RECEIVE_FREQ_1 =   2022-11-19T17:56:00.499   2216496440.2
RECEIVE_FREQ_1 =   2022-11-19T17:56:10.522   2216496438.7
RECEIVE_FREQ_1 =   2022-11-19T17:56:20.544   2216496437.2
RECEIVE_FREQ_1 =   2022-11-19T17:56:30.480   2216496436.0
RECEIVE_FREQ_1 =   2022-11-19T17:56:40.502   2216496434.8
RECEIVE_FREQ_1 =   2022-11-19T17:56:50.525   2216496434.0
RECEIVE_FREQ_1 =   2022-11-19T17:57:00.547   2216496431.9
RECEIVE_FREQ_1 =   2022-11-19T17:57:10.483   2216496430.5
RECEIVE_FREQ_1 =   2022-11-19T17:57:20.506   2216496429.1
RECEIVE_FREQ_1 =   2022-11-19T17:57:30.528   2216496428.2
RECEIVE_FREQ_1 =   2022-11-19T17:57:40.550   2216496426.5
RECEIVE_FREQ_1 =   2022-11-19T17:57:50.486   2216496425.1
RECEIVE_FREQ_1 =   2022-11-19T17:58:00.509   2216496423.8
RECEIVE_FREQ_1 =   2022-11-19T17:58:10.531   2216496422.0
RECEIVE_FREQ_1 =   2022-11-19T17:58:20.554   2216496420.7
RECEIVE_FREQ_1 =   2022-11-19T17:58:30.490   2216496419.6
RECEIVE_FREQ_1 =   2022-11-19T17:58:40.512   2216496417.7
RECEIVE_FREQ_1 =   2022-11-19T17:58:50.534   2216496416.7
RECEIVE_FREQ_1 =   2022-11-19T17:59:00.470   2216496415.3
RECEIVE_FREQ_1 =   2022-11-19T17:59:10.493   2216496413.5
RECEIVE_FREQ_1 =   2022-11-19T17:59:20.515   2216496412.8
RECEIVE_FREQ_1 =   2022-11-19T17:59:30.538   2216496411.3
RECEIVE_FREQ_1 =   2022-11-19T17:59:40.474   2216496409.7
RECEIVE_FREQ_1 =   2022-11-19T17:59:50.496   2216496408.4
RECEIVE_FREQ_1 =   2022-11-19T18:00:00.518   2216496406.7
RECEIVE_FREQ_1 =   2022-11-19T18:00:10.541   2216496405.7
RECEIVE_FREQ_1 =   2022-11-19T18:00:20.477   2216496404.4
RECEIVE_FREQ_1 =   2022-11-19T18:00:30.499   2216496403.1
RECEIVE_FREQ_1 =   2022-11-19T18:00:40.522   2216496401.5
RECEIVE_FREQ_1 =   2022-11-19T18:00:50.544   2216496400.4
RECEIVE_FREQ_1 =   2022-11-19T18:01:00.480   2216496398.9
RECEIVE_FREQ_1 =   2022-11-19T18:01:10.502   2216496397.3
RECEIVE_FREQ_1 =   2022-11-19T18:01:20.525   2216496396.4
RECEIVE_FREQ_1 =   2022-11-19T18:01:30.547   2216496394.8
RECEIVE_FREQ_1 =   2022-11-19T18:01:40.483   2216496393.4
RECEIVE_FREQ_1 =   2022-11-19T18:01:50.506   2216496391.7
RECEIVE_FREQ_1 =   2022-11-19T18:02:00.528   2216496390.9
RECEIVE_FREQ_1 =   2022-11-19T18:02:10.550   2216496389.5
RECEIVE_FREQ_1 =   2022-11-19T18:02:20.486   2216496388.2
RECEIVE_FREQ_1 =   2022-11-19T18:02:30.509   2216496386.6
RECEIVE_FREQ_1 =   2022-11-19T18:02:40.531   2216496385.2
RECEIVE_FREQ_1 =   2022-11-19T18:02:50.467   2216496383.7
RECEIVE_FREQ_1 =   2022-11-19T18:03:00.490   2216496382.3
RECEIVE_FREQ_1 =   2022-11-19T18:03:10.512   2216496381.0
RECEIVE_FREQ_1 =   2022-11-19T18:03:20.534   2216496379.8
RECEIVE_FREQ_1 =   2022-11-19T18:03:30.470   2216496378.1
RECEIVE_FREQ_1 =   2022-11-19T18:03:40.493   2216496377.3
RECEIVE_FREQ_1 =   2022-11-19T18:03:50.515   2216496375.7
RECEIVE_FREQ_1 =   2022-11-19T18:04:00.538   2216496374.3
RECEIVE_FREQ_1 =   2022-11-19T18:04:10.560   2216496372.7
RECEIVE_FREQ_1 =   2022-11-19T18:04:20.496   2216496371.3
RECEIVE_FREQ_1 =   2022-11-19T18:04:30.518   2216496369.9
RECEIVE_FREQ_1 =   2022-11-19T18:04:40.541   2216496368.8
RECEIVE_FREQ_1 =   2022-11-19T18:04:50.477   2216496367.4
RECEIVE_FREQ_1 =   2022-11-19T18:05:00.499   2216496365.8
RECEIVE_FREQ_1 =   2022-11-19T18:05:10.522   2216496364.9
RECEIVE_FREQ_1 =   2022-11-19T18:05:20.544   2216496363.5
RECEIVE_FREQ_1 =   2022-11-19T18:05:30.480   2216496361.6
RECEIVE_FREQ_1 =   2022-11-19T18:05:40.502   2216496360.6
RECEIVE_FREQ_1 =   2022-11-19T18:05:40.502   2216496360.6
RECEIVE_FREQ_1 =   2022-11-19T18:05:50.525   2216496359.2
RECEIVE_FREQ_1 =   2022-11-19T18:06:00.547   2216496357.9
RECEIVE_FREQ_1 =   2022-11-19T18:06:10.483   2216496356.2
RECEIVE_FREQ_1 =   2022-11-19T18:06:20.506   2216496354.7
RECEIVE_FREQ_1 =   2022-11-19T18:06:30.528   2216496353.5
RECEIVE_FREQ_1 =   2022-11-19T18:06:40.464   2216496352.2
RECEIVE_FREQ_1 =   2022-11-19T18:06:50.486   2216496350.8
RECEIVE_FREQ_1 =   2022-11-19T18:07:00.509   2216496349.6
RECEIVE_FREQ_1 =   2022-11-19T18:07:10.531   2216496348.1
RECEIVE_FREQ_1 =   2022-11-19T18:07:20.554   2216496346.8
RECEIVE_FREQ_1 =   2022-11-19T18:07:30.490   2216496345.2
RECEIVE_FREQ_1 =   2022-11-19T18:07:40.512   2216496344.1
RECEIVE_FREQ_1 =   2022-11-19T18:07:50.534   2216496343.0
RECEIVE_FREQ_1 =   2022-11-19T18:08:00.470   2216496341.0
RECEIVE_FREQ_1 =   2022-11-19T18:08:10.493   2216496340.2
RECEIVE_FREQ_1 =   2022-11-19T18:08:20.515   2216496338.4
RECEIVE_FREQ_1 =   2022-11-19T18:08:30.538   2216496337.3
RECEIVE_FREQ_1 =   2022-11-19T18:08:40.474   2216496335.8
RECEIVE_FREQ_1 =   2022-11-19T18:08:50.496   2216496334.2
RECEIVE_FREQ_1 =   2022-11-19T18:09:00.518   2216496333.4
RECEIVE_FREQ_1 =   2022-11-19T18:09:10.541   2216496331.7
RECEIVE_FREQ_1 =   2022-11-19T18:09:20.477   2216496330.6
RECEIVE_FREQ_1 =   2022-11-19T18:09:30.499   2216496328.8
RECEIVE_FREQ_1 =   2022-11-19T18:09:40.522   2216496328.2
RECEIVE_FREQ_1 =   2022-11-19T18:09:50.544   2216496326.4
RECEIVE_FREQ_1 =   2022-11-19T18:10:00.480   2216496324.7
RECEIVE_FREQ_1 =   2022-11-19T18:10:10.502   2216496323.5
RECEIVE_FREQ_1 =   2022-11-19T18:10:20.525   2216496322.3
RECEIVE_FREQ_1 =   2022-11-19T18:10:30.547   2216496320.9
RECEIVE_FREQ_1 =   2022-11-19T18:10:40.483   2216496319.8
RECEIVE_FREQ_1 =   2022-11-19T18:10:50.506   2216496318.5
RECEIVE_FREQ_1 =   2022-11-19T18:11:00.528   2216496317.1
RECEIVE_FREQ_1 =   2022-11-19T18:11:10.550   2216496315.4
RECEIVE_FREQ_1 =   2022-11-19T18:11:20.486   2216496314.2
RECEIVE_FREQ_1 =   2022-11-19T18:11:30.509   2216496312.5
RECEIVE_FREQ_1 =   2022-11-19T18:11:40.531   2216496311.6
RECEIVE_FREQ_1 =   2022-11-19T18:11:50.467   2216496310.0
RECEIVE_FREQ_1 =   2022-11-19T18:12:00.490   2216496308.5
RECEIVE_FREQ_1 =   2022-11-19T18:12:10.512   2216496306.8
RECEIVE_FREQ_1 =   2022-11-19T18:12:20.534   2216496305.8
RECEIVE_FREQ_1 =   2022-11-19T18:12:30.470   2216496304.5
RECEIVE_FREQ_1 =   2022-11-19T18:12:40.493   2216496302.9
RECEIVE_FREQ_1 =   2022-11-19T18:12:50.515   2216496301.1
RECEIVE_FREQ_1 =   2022-11-19T18:13:00.538   2216496300.2
RECEIVE_FREQ_1 =   2022-11-19T18:13:10.474   2216496298.4
RECEIVE_FREQ_1 =   2022-11-19T18:13:20.496   2216496297.2
RECEIVE_FREQ_1 =   2022-11-19T18:13:30.518   2216496295.3
RECEIVE_FREQ_1 =   2022-11-19T18:13:40.541   2216496294.2
RECEIVE_FREQ_1 =   2022-11-19T18:13:50.477   2216496292.7
RECEIVE_FREQ_1 =   2022-11-19T18:13:50.477   2216496292.7
RECEIVE_FREQ_1 =   2022-11-19T18:14:00.499   2216496291.0
RECEIVE_FREQ_1 =   2022-11-19T18:14:10.522   2216496290.0
RECEIVE_FREQ_1 =   2022-11-19T18:14:20.544   2216496288.4
RECEIVE_FREQ_1 =   2022-11-19T18:14:30.480   2216496287.2
RECEIVE_FREQ_1 =   2022-11-19T18:14:40.502   2216496285.6
RECEIVE_FREQ_1 =   2022-11-19T18:14:50.525   2216496284.5
RECEIVE_FREQ_1 =   2022-11-19T18:15:00.547   2216496283.1
RECEIVE_FREQ_1 =   2022-11-19T18:15:10.483   2216496281.4
RECEIVE_FREQ_1 =   2022-11-19T18:15:20.506   2216496280.0
RECEIVE_FREQ_1 =   2022-11-19T18:15:30.528   2216496278.6
RECEIVE_FREQ_1 =   2022-11-19T18:15:40.464   2216496277.4
RECEIVE_FREQ_1 =   2022-11-19T18:15:50.486   2216496275.9
RECEIVE_FREQ_1 =   2022-11-19T18:16:00.509   2216496274.7
RECEIVE_FREQ_1 =   2022-11-19T18:16:10.531   2216496272.9
RECEIVE_FREQ_1 =   2022-11-19T18:16:20.554   2216496271.8
RECEIVE_FREQ_1 =   2022-11-19T18:16:30.490   2216496270.4
RECEIVE_FREQ_1 =   2022-11-19T18:16:40.512   2216496268.5
RECEIVE_FREQ_1 =   2022-11-19T18:16:50.534   2216496267.2
RECEIVE_FREQ_1 =   2022-11-19T18:17:00.470   2216496265.7
RECEIVE_FREQ_1 =   2022-11-19T18:17:10.493   2216496264.7
RECEIVE_FREQ_1 =   2022-11-19T18:17:20.515   2216496263.1
RECEIVE_FREQ_1 =   2022-11-19T18:17:30.538   2216496261.5
RECEIVE_FREQ_1 =   2022-11-19T18:17:40.560   2216496260.3
RECEIVE_FREQ_1 =   2022-11-19T18:17:50.496   2216496259.2
RECEIVE_FREQ_1 =   2022-11-19T18:18:00.518   2216496257.5
RECEIVE_FREQ_1 =   2022-11-19T18:18:10.541   2216496256.1
RECEIVE_FREQ_1 =   2022-11-19T18:18:20.477   2216496254.9
RECEIVE_FREQ_1 =   2022-11-19T18:18:30.499   2216496253.4
RECEIVE_FREQ_1 =   2022-11-19T18:18:40.522   2216496252.0
RECEIVE_FREQ_1 =   2022-11-19T18:18:50.544   2216496250.5
RECEIVE_FREQ_1 =   2022-11-19T18:19:00.480   2216496248.8
RECEIVE_FREQ_1 =   2022-11-19T18:19:10.502   2216496247.6
RECEIVE_FREQ_1 =   2022-11-19T18:19:20.525   2216496246.3
RECEIVE_FREQ_1 =   2022-11-19T18:19:30.547   2216496244.9
RECEIVE_FREQ_1 =   2022-11-19T18:19:40.570   2216496243.5
RECEIVE_FREQ_1 =   2022-11-19T18:19:50.506   2216496241.9
RECEIVE_FREQ_1 =   2022-11-19T18:20:00.528   2216496240.6
RECEIVE_FREQ_1 =   2022-11-19T18:20:10.464   2216496239.3
RECEIVE_FREQ_1 =   2022-11-19T18:20:20.486   2216496237.8
RECEIVE_FREQ_1 =   2022-11-19T18:20:30.509   2216496236.3
RECEIVE_FREQ_1 =   2022-11-19T18:20:40.531   2216496235.1
RECEIVE_FREQ_1 =   2022-11-19T18:20:50.467   2216496233.7
RECEIVE_FREQ_1 =   2022-11-19T18:21:00.490   2216496232.2
RECEIVE_FREQ_1 =   2022-11-19T18:21:10.512   2216496231.0
RECEIVE_FREQ_1 =   2022-11-19T18:21:20.534   2216496229.5
RECEIVE_FREQ_1 =   2022-11-19T18:21:30.557   2216496227.8
RECEIVE_FREQ_1 =   2022-11-19T18:21:30.557   2216496227.8
RECEIVE_FREQ_1 =   2022-11-19T18:21:40.493   2216496226.6
RECEIVE_FREQ_1 =   2022-11-19T18:21:50.515   2216496225.4
RECEIVE_FREQ_1 =   2022-11-19T18:22:00.538   2216496223.7
RECEIVE_FREQ_1 =   2022-11-19T18:22:10.560   2216496222.3
RECEIVE_FREQ_1 =   2022-11-19T18:22:20.496   2216496220.8
RECEIVE_FREQ_1 =   2022-11-19T18:22:30.518   2216496219.7
RECEIVE_FREQ_1 =   2022-11-19T18:22:40.541   2216496217.9
RECEIVE_FREQ_1 =   2022-11-19T18:22:50.477   2216496217.0
RECEIVE_FREQ_1 =   2022-11-19T18:23:00.499   2216496215.6
RECEIVE_FREQ_1 =   2022-11-19T18:23:10.522   2216496214.1
RECEIVE_FREQ_1 =   2022-11-19T18:23:20.544   2216496212.7
RECEIVE_FREQ_1 =   2022-11-19T18:23:30.480   2216496211.1
RECEIVE_FREQ_1 =   2022-11-19T18:23:40.502   2216496210.2
RECEIVE_FREQ_1 =   2022-11-19T18:23:50.525   2216496208.4
RECEIVE_FREQ_1 =   2022-11-19T18:24:00.547   2216496207.1
RECEIVE_FREQ_1 =   2022-11-19T18:24:10.483   2216496205.9
RECEIVE_FREQ_1 =   2022-11-19T18:24:20.506   2216496204.3
RECEIVE_FREQ_1 =   2022-11-19T18:24:30.528   2216496202.9
RECEIVE_FREQ_1 =   2022-11-19T18:24:40.550   2216496201.4
RECEIVE_FREQ_1 =   2022-11-19T18:24:50.486   2216496200.2
RECEIVE_FREQ_1 =   2022-11-19T18:25:00.509   2216496198.7
RECEIVE_FREQ_1 =   2022-11-19T18:25:10.531   2216496199.3
RECEIVE_FREQ_1 =   2022-11-19T18:25:20.554   2216496197.4
RECEIVE_FREQ_1 =   2022-11-19T18:25:30.490   2216496196.6
RECEIVE_FREQ_1 =   2022-11-19T18:25:40.512   2216496195.0
RECEIVE_FREQ_1 =   2022-11-19T18:25:50.534   2216496193.6
RECEIVE_FREQ_1 =   2022-11-19T18:26:00.470   2216496192.1
RECEIVE_FREQ_1 =   2022-11-19T18:26:10.493   2216496190.9
RECEIVE_FREQ_1 =   2022-11-19T18:26:20.515   2216496189.9
RECEIVE_FREQ_1 =   2022-11-19T18:26:30.538   2216496187.8
RECEIVE_FREQ_1 =   2022-11-19T18:26:40.474   2216496186.7
RECEIVE_FREQ_1 =   2022-11-19T18:26:50.496   2216496185.4
RECEIVE_FREQ_1 =   2022-11-19T18:27:00.518   2216496183.5
RECEIVE_FREQ_1 =   2022-11-19T18:27:10.541   2216496182.7
RECEIVE_FREQ_1 =   2022-11-19T18:27:20.477   2216496181.1
RECEIVE_FREQ_1 =   2022-11-19T18:27:30.499   2216496179.7
RECEIVE_FREQ_1 =   2022-11-19T18:27:40.522   2216496178.3
RECEIVE_FREQ_1 =   2022-11-19T18:27:50.544   2216496176.8
RECEIVE_FREQ_1 =   2022-11-19T18:28:00.480   2216496175.5
RECEIVE_FREQ_1 =   2022-11-19T18:28:10.502   2216496174.1
RECEIVE_FREQ_1 =   2022-11-19T18:28:20.525   2216496172.4
RECEIVE_FREQ_1 =   2022-11-19T18:28:30.547   2216496171.1
RECEIVE_FREQ_1 =   2022-11-19T18:28:40.483   2216496169.8
RECEIVE_FREQ_1 =   2022-11-19T18:28:50.506   2216496168.7
RECEIVE_FREQ_1 =   2022-11-19T18:29:00.528   2216496167.2
RECEIVE_FREQ_1 =   2022-11-19T18:29:10.550   2216496165.7
RECEIVE_FREQ_1 =   2022-11-19T18:29:20.486   2216496164.3
RECEIVE_FREQ_1 =   2022-11-19T18:29:30.509   2216496162.5
RECEIVE_FREQ_1 =   2022-11-19T18:29:40.531   2216496161.2
