nasa/2022-11-20_2022-156A_ScottTilley.tdm

CCSDS_TDM_VERS = 2.0
COMMENT TDM ARTEMIS 1 Doppler data by Scott Tilley for 2022-11-20 UTC
COMMENT Signal not demodulated, to low of SNR, centre carrier integrated in 10s by 0.1Hz bin and extracted for peak value.
CREATION_DATE = 2022-11-30T06:47:35Z
ORIGINATOR = SCOTT TILLEY

META_START
COMMENT 
COMMENT 
SYSTEM TIME = UTC
PARTICIPANT_1 = COSPAR 8049
PARTICIPANT_2 = 2022-156A
MODE = SEQUENTIAL
PATH = 2,1
INTEGRATION_INTERVAL = 10
INTEGRATION_REF = MIDDLE
FREQ_OFFSET = 0
TRANSMIT_DELAY_1 = 0
RECEIVE_DELAY_1 = 0
DATA_QUALITY = RAW
META_STOP

DATA_START
RECEIVE_FREQ_1 =   2022-11-20T14:35:50.986   2216499741.0
RECEIVE_FREQ_1 =   2022-11-20T14:36:01.526   2216499740.3
RECEIVE_FREQ_1 =   2022-11-20T14:36:12.067   2216499739.5
RECEIVE_FREQ_1 =   2022-11-20T14:36:22.608   2216499738.5
RECEIVE_FREQ_1 =   2022-11-20T14:36:33.062   2216499737.7
RECEIVE_FREQ_1 =   2022-11-20T14:36:43.603   2216499736.8
RECEIVE_FREQ_1 =   2022-11-20T14:36:54.144   2216499736.0
RECEIVE_FREQ_1 =   2022-11-20T14:37:46.589   2216499731.9
RECEIVE_FREQ_1 =   2022-11-20T14:37:57.130   2216499731.2
RECEIVE_FREQ_1 =   2022-11-20T14:38:28.666   2216499728.6
RECEIVE_FREQ_1 =   2022-11-20T14:38:49.747   2216499726.9
RECEIVE_FREQ_1 =   2022-11-20T14:39:21.283   2216499724.0
RECEIVE_FREQ_1 =   2022-11-20T14:39:31.824   2216499723.2
RECEIVE_FREQ_1 =   2022-11-20T14:39:42.278   2216499722.5
RECEIVE_FREQ_1 =   2022-11-20T14:40:03.360   2216499720.6
RECEIVE_FREQ_1 =   2022-11-20T14:40:13.814   2216499719.8
RECEIVE_FREQ_1 =   2022-11-20T14:40:24.355   2216499719.2
RECEIVE_FREQ_1 =   2022-11-20T14:40:45.350   2216499717.1
RECEIVE_FREQ_1 =   2022-11-20T14:41:06.346   2216499715.2
RECEIVE_FREQ_1 =   2022-11-20T14:41:16.886   2216499714.7
RECEIVE_FREQ_1 =   2022-11-20T14:41:27.341   2216499713.6
RECEIVE_FREQ_1 =   2022-11-20T14:41:48.336   2216499711.8
RECEIVE_FREQ_1 =   2022-11-20T14:41:58.877   2216499710.8
RECEIVE_FREQ_1 =   2022-11-20T14:42:19.872   2216499709.2
RECEIVE_FREQ_1 =   2022-11-20T14:42:40.867   2216499707.4
RECEIVE_FREQ_1 =   2022-11-20T14:42:51.408   2216499706.2
RECEIVE_FREQ_1 =   2022-11-20T14:43:01.862   2216499705.6
RECEIVE_FREQ_1 =   2022-11-20T14:43:12.403   2216499704.4
RECEIVE_FREQ_1 =   2022-11-20T14:43:54.566   2216499700.7
RECEIVE_FREQ_1 =   2022-11-20T14:44:15.562   2216499699.0
RECEIVE_FREQ_1 =   2022-11-20T14:44:26.102   2216499698.1
RECEIVE_FREQ_1 =   2022-11-20T14:44:36.557   2216499697.0
RECEIVE_FREQ_1 =   2022-11-20T14:44:57.638   2216499695.5
RECEIVE_FREQ_1 =   2022-11-20T14:45:08.179   2216499694.6
RECEIVE_FREQ_1 =   2022-11-20T14:45:18.720   2216499693.4
RECEIVE_FREQ_1 =   2022-11-20T14:45:29.174   2216499692.6
RECEIVE_FREQ_1 =   2022-11-20T14:45:39.715   2216499691.8
RECEIVE_FREQ_1 =   2022-11-20T14:45:50.256   2216499690.3
RECEIVE_FREQ_1 =   2022-11-20T14:46:00.710   2216499689.6
RECEIVE_FREQ_1 =   2022-11-20T14:46:11.251   2216499688.7
RECEIVE_FREQ_1 =   2022-11-20T14:46:21.792   2216499687.8
RECEIVE_FREQ_1 =   2022-11-20T14:46:32.246   2216499686.9
RECEIVE_FREQ_1 =   2022-11-20T14:46:42.787   2216499686.2
RECEIVE_FREQ_1 =   2022-11-20T14:46:53.328   2216499684.9
RECEIVE_FREQ_1 =   2022-11-20T14:47:03.869   2216499683.9
RECEIVE_FREQ_1 =   2022-11-20T14:47:14.410   2216499682.8
RECEIVE_FREQ_1 =   2022-11-20T14:47:24.864   2216499681.9
RECEIVE_FREQ_1 =   2022-11-20T14:47:35.405   2216499681.0
RECEIVE_FREQ_1 =   2022-11-20T14:47:45.859   2216499680.2
RECEIVE_FREQ_1 =   2022-11-20T14:47:56.400   2216499679.1
RECEIVE_FREQ_1 =   2022-11-20T14:48:06.854   2216499678.1
RECEIVE_FREQ_1 =   2022-11-20T14:48:17.309   2216499677.2
RECEIVE_FREQ_1 =   2022-11-20T14:48:27.850   2216499676.1
RECEIVE_FREQ_1 =   2022-11-20T14:48:38.304   2216499675.1
RECEIVE_FREQ_1 =   2022-11-20T14:48:48.845   2216499674.5
RECEIVE_FREQ_1 =   2022-11-20T14:48:59.386   2216499673.6
RECEIVE_FREQ_1 =   2022-11-20T14:49:09.840   2216499672.7
RECEIVE_FREQ_1 =   2022-11-20T14:49:20.381   2216499671.8
RECEIVE_FREQ_1 =   2022-11-20T14:49:30.835   2216499671.3
RECEIVE_FREQ_1 =   2022-11-20T14:49:41.376   2216499670.0
RECEIVE_FREQ_1 =   2022-11-20T14:49:51.917   2216499669.0
RECEIVE_FREQ_1 =   2022-11-20T14:50:02.458   2216499668.2
RECEIVE_FREQ_1 =   2022-11-20T14:50:12.912   2216499667.8
RECEIVE_FREQ_1 =   2022-11-20T14:50:23.453   2216499666.7
RECEIVE_FREQ_1 =   2022-11-20T14:50:33.994   2216499665.8
RECEIVE_FREQ_1 =   2022-11-20T14:50:44.534   2216499665.2
RECEIVE_FREQ_1 =   2022-11-20T14:50:55.075   2216499663.9
RECEIVE_FREQ_1 =   2022-11-20T14:51:16.070   2216499662.5
RECEIVE_FREQ_1 =   2022-11-20T14:51:26.525   2216499661.4
RECEIVE_FREQ_1 =   2022-11-20T14:51:37.066   2216499660.6
RECEIVE_FREQ_1 =   2022-11-20T14:51:58.061   2216499658.7
RECEIVE_FREQ_1 =   2022-11-20T14:52:08.515   2216499658.2
RECEIVE_FREQ_1 =   2022-11-20T14:52:19.056   2216499657.2
RECEIVE_FREQ_1 =   2022-11-20T14:52:29.510   2216499656.0
RECEIVE_FREQ_1 =   2022-11-20T14:52:40.051   2216499655.0
RECEIVE_FREQ_1 =   2022-11-20T14:52:50.506   2216499654.5
RECEIVE_FREQ_1 =   2022-11-20T14:53:01.046   2216499653.6
RECEIVE_FREQ_1 =   2022-11-20T14:53:11.587   2216499652.5
RECEIVE_FREQ_1 =   2022-11-20T14:53:22.042   2216499651.6
RECEIVE_FREQ_1 =   2022-11-20T14:53:32.582   2216499650.8
RECEIVE_FREQ_1 =   2022-11-20T14:53:43.037   2216499649.8
RECEIVE_FREQ_1 =   2022-11-20T14:53:53.578   2216499649.0
RECEIVE_FREQ_1 =   2022-11-20T14:54:04.118   2216499648.0
RECEIVE_FREQ_1 =   2022-11-20T14:54:14.573   2216499647.2
RECEIVE_FREQ_1 =   2022-11-20T14:54:25.114   2216499646.3
RECEIVE_FREQ_1 =   2022-11-20T14:54:35.654   2216499645.2
RECEIVE_FREQ_1 =   2022-11-20T14:54:46.109   2216499644.3
RECEIVE_FREQ_1 =   2022-11-20T14:54:56.650   2216499643.6
RECEIVE_FREQ_1 =   2022-11-20T14:55:07.190   2216499642.8
RECEIVE_FREQ_1 =   2022-11-20T14:55:17.731   2216499641.7
RECEIVE_FREQ_1 =   2022-11-20T14:55:28.186   2216499640.6
RECEIVE_FREQ_1 =   2022-11-20T14:55:38.640   2216499640.1
RECEIVE_FREQ_1 =   2022-11-20T14:55:49.181   2216499639.1
RECEIVE_FREQ_1 =   2022-11-20T14:55:59.635   2216499638.2
RECEIVE_FREQ_1 =   2022-11-20T14:56:10.176   2216499637.1
RECEIVE_FREQ_1 =   2022-11-20T14:56:20.630   2216499636.4
RECEIVE_FREQ_1 =   2022-11-20T14:56:41.626   2216499633.8
RECEIVE_FREQ_1 =   2022-11-20T14:57:02.621   2216499632.6
RECEIVE_FREQ_1 =   2022-11-20T14:57:13.162   2216499631.7
RECEIVE_FREQ_1 =   2022-11-20T14:57:23.702   2216499630.6
RECEIVE_FREQ_1 =   2022-11-20T14:57:34.157   2216499629.3
RECEIVE_FREQ_1 =   2022-11-20T14:57:44.698   2216499628.6
RECEIVE_FREQ_1 =   2022-11-20T14:57:55.152   2216499627.5
RECEIVE_FREQ_1 =   2022-11-20T14:58:05.693   2216499626.7
RECEIVE_FREQ_1 =   2022-11-20T14:58:16.234   2216499625.5
RECEIVE_FREQ_1 =   2022-11-20T14:58:26.774   2216499624.7
RECEIVE_FREQ_1 =   2022-11-20T14:58:37.315   2216499623.9
RECEIVE_FREQ_1 =   2022-11-20T14:58:47.770   2216499622.9
RECEIVE_FREQ_1 =   2022-11-20T14:58:58.310   2216499622.1
RECEIVE_FREQ_1 =   2022-11-20T14:59:08.765   2216499620.7
RECEIVE_FREQ_1 =   2022-11-20T14:59:19.306   2216499620.1
RECEIVE_FREQ_1 =   2022-11-20T14:59:19.306   2216499620.1
RECEIVE_FREQ_1 =   2022-11-20T14:59:29.760   2216499619.1
RECEIVE_FREQ_1 =   2022-11-20T14:59:40.301   2216499618.0
RECEIVE_FREQ_1 =   2022-11-20T14:59:50.755   2216499617.0
RECEIVE_FREQ_1 =   2022-11-20T15:00:01.296   2216499616.3
RECEIVE_FREQ_1 =   2022-11-20T15:00:11.750   2216499615.2
RECEIVE_FREQ_1 =   2022-11-20T15:00:22.291   2216499614.2
RECEIVE_FREQ_1 =   2022-11-20T15:00:32.832   2216499613.4
RECEIVE_FREQ_1 =   2022-11-20T15:00:43.286   2216499612.2
RECEIVE_FREQ_1 =   2022-11-20T15:00:53.741   2216499611.2
RECEIVE_FREQ_1 =   2022-11-20T15:01:04.282   2216499610.2
RECEIVE_FREQ_1 =   2022-11-20T15:01:14.736   2216499609.1
RECEIVE_FREQ_1 =   2022-11-20T15:01:25.277   2216499608.6
RECEIVE_FREQ_1 =   2022-11-20T15:01:35.731   2216499607.1
RECEIVE_FREQ_1 =   2022-11-20T15:01:46.186   2216499606.0
RECEIVE_FREQ_1 =   2022-11-20T15:01:56.726   2216499605.4
RECEIVE_FREQ_1 =   2022-11-20T15:02:07.181   2216499604.4
RECEIVE_FREQ_1 =   2022-11-20T15:02:17.722   2216499603.2
RECEIVE_FREQ_1 =   2022-11-20T15:02:28.262   2216499602.2
RECEIVE_FREQ_1 =   2022-11-20T15:02:38.803   2216499601.1
RECEIVE_FREQ_1 =   2022-11-20T15:02:49.344   2216499600.1
RECEIVE_FREQ_1 =   2022-11-20T15:02:59.798   2216499599.2
RECEIVE_FREQ_1 =   2022-11-20T15:03:10.339   2216499598.3
RECEIVE_FREQ_1 =   2022-11-20T15:03:20.880   2216499597.1
RECEIVE_FREQ_1 =   2022-11-20T15:03:31.334   2216499596.3
RECEIVE_FREQ_1 =   2022-11-20T15:03:41.875   2216499595.3
RECEIVE_FREQ_1 =   2022-11-20T15:03:52.416   2216499594.5
RECEIVE_FREQ_1 =   2022-11-20T15:04:02.870   2216499593.4
RECEIVE_FREQ_1 =   2022-11-20T15:04:13.411   2216499592.4
RECEIVE_FREQ_1 =   2022-11-20T15:04:23.866   2216499591.1
RECEIVE_FREQ_1 =   2022-11-20T15:04:34.406   2216499590.1
RECEIVE_FREQ_1 =   2022-11-20T15:05:05.856   2216499587.0
RECEIVE_FREQ_1 =   2022-11-20T15:05:37.392   2216499583.7
RECEIVE_FREQ_1 =   2022-11-20T15:06:50.918   2216499576.7
RECEIVE_FREQ_1 =   2022-11-20T15:07:11.914   2216499574.4
RECEIVE_FREQ_1 =   2022-11-20T15:07:32.909   2216499572.4
RECEIVE_FREQ_1 =   2022-11-20T15:07:43.450   2216499571.4
RECEIVE_FREQ_1 =   2022-11-20T15:07:53.904   2216499570.3
RECEIVE_FREQ_1 =   2022-11-20T15:08:04.445   2216499569.6
RECEIVE_FREQ_1 =   2022-11-20T15:08:14.899   2216499568.2
RECEIVE_FREQ_1 =   2022-11-20T15:08:25.440   2216499567.1
RECEIVE_FREQ_1 =   2022-11-20T15:08:25.440   2216499567.1
RECEIVE_FREQ_1 =   2022-11-20T15:08:35.894   2216499566.4
RECEIVE_FREQ_1 =   2022-11-20T15:08:46.349   2216499564.7
RECEIVE_FREQ_1 =   2022-11-20T15:10:52.579   2216499552.1
RECEIVE_FREQ_1 =   2022-11-20T15:11:03.120   2216499551.1
RECEIVE_FREQ_1 =   2022-11-20T15:11:13.661   2216499550.1
RECEIVE_FREQ_1 =   2022-11-20T15:49:14.880   2216499308.8
RECEIVE_FREQ_1 =   2022-11-20T15:49:35.875   2216499306.1
RECEIVE_FREQ_1 =   2022-11-20T15:50:07.498   2216499302.6
RECEIVE_FREQ_1 =   2022-11-20T15:50:17.952   2216499301.2
RECEIVE_FREQ_1 =   2022-11-20T15:52:23.750   2216499286.5
RECEIVE_FREQ_1 =   2022-11-20T15:52:55.200   2216499282.7
RECEIVE_FREQ_1 =   2022-11-20T15:53:16.195   2216499280.2
RECEIVE_FREQ_1 =   2022-11-20T15:55:11.798   2216499267.1
RECEIVE_FREQ_1 =   2022-11-20T15:55:22.339   2216499265.5
RECEIVE_FREQ_1 =   2022-11-20T16:01:19.430   2216499222.0
RECEIVE_FREQ_1 =   2022-11-20T16:01:40.426   2216499219.1
RECEIVE_FREQ_1 =   2022-11-20T16:01:50.880   2216499217.9
RECEIVE_FREQ_1 =   2022-11-20T16:02:32.870   2216499213.5
RECEIVE_FREQ_1 =   2022-11-20T16:02:53.866   2216499211.5
RECEIVE_FREQ_1 =   2022-11-20T16:03:14.947   2216499208.4
RECEIVE_FREQ_1 =   2022-11-20T16:04:39.014   2216499198.7
RECEIVE_FREQ_1 =   2022-11-20T16:04:49.469   2216499197.5
RECEIVE_FREQ_1 =   2022-11-20T16:05:00.010   2216499196.4
RECEIVE_FREQ_1 =   2022-11-20T16:05:10.464   2216499195.0
RECEIVE_FREQ_1 =   2022-11-20T16:05:21.005   2216499193.9
RECEIVE_FREQ_1 =   2022-11-20T16:05:52.454   2216499189.8
RECEIVE_FREQ_1 =   2022-11-20T16:06:02.909   2216499188.9
RECEIVE_FREQ_1 =   2022-11-20T16:06:13.450   2216499187.8
RECEIVE_FREQ_1 =   2022-11-20T16:06:23.904   2216499186.4
RECEIVE_FREQ_1 =   2022-11-20T16:06:34.445   2216499185.3
RECEIVE_FREQ_1 =   2022-11-20T16:06:44.986   2216499183.9
RECEIVE_FREQ_1 =   2022-11-20T16:06:55.440   2216499182.5
RECEIVE_FREQ_1 =   2022-11-20T16:07:05.981   2216499181.4
RECEIVE_FREQ_1 =   2022-11-20T16:07:16.435   2216499180.4
RECEIVE_FREQ_1 =   2022-11-20T16:07:58.512   2216499175.8
RECEIVE_FREQ_1 =   2022-11-20T16:08:40.589   2216499170.2
RECEIVE_FREQ_1 =   2022-11-20T16:08:51.043   2216499168.9
RECEIVE_FREQ_1 =   2022-11-20T16:09:33.034   2216499163.9
RECEIVE_FREQ_1 =   2022-11-20T16:09:43.488   2216499162.7
RECEIVE_FREQ_1 =   2022-11-20T16:09:53.942   2216499161.5
RECEIVE_FREQ_1 =   2022-11-20T16:10:14.938   2216499159.2
RECEIVE_FREQ_1 =   2022-11-20T16:10:25.478   2216499157.3
RECEIVE_FREQ_1 =   2022-11-20T16:10:57.014   2216499153.9
RECEIVE_FREQ_1 =   2022-11-20T16:11:18.096   2216499151.6
RECEIVE_FREQ_1 =   2022-11-20T16:12:00.086   2216499145.9
RECEIVE_FREQ_1 =   2022-11-20T16:12:10.541   2216499145.0
RECEIVE_FREQ_1 =   2022-11-20T16:12:21.082   2216499143.4
RECEIVE_FREQ_1 =   2022-11-20T16:12:31.622   2216499142.3
RECEIVE_FREQ_1 =   2022-11-20T16:12:42.163   2216499141.2
RECEIVE_FREQ_1 =   2022-11-20T16:12:52.618   2216499140.1
RECEIVE_FREQ_1 =   2022-11-20T16:13:45.062   2216499133.5
RECEIVE_FREQ_1 =   2022-11-20T16:14:16.598   2216499129.5
RECEIVE_FREQ_1 =   2022-11-20T16:14:48.048   2216499126.6
RECEIVE_FREQ_1 =   2022-11-20T16:14:58.502   2216499124.3
RECEIVE_FREQ_1 =   2022-11-20T16:15:09.043   2216499123.2
RECEIVE_FREQ_1 =   2022-11-20T16:15:30.038   2216499120.2
RECEIVE_FREQ_1 =   2022-11-20T16:16:11.942   2216499114.9
RECEIVE_FREQ_1 =   2022-11-20T16:16:22.483   2216499114.1
RECEIVE_FREQ_1 =   2022-11-20T16:16:33.024   2216499112.9
RECEIVE_FREQ_1 =   2022-11-20T16:16:43.478   2216499111.6
RECEIVE_FREQ_1 =   2022-11-20T16:17:15.014   2216499107.6
RECEIVE_FREQ_1 =   2022-11-20T16:17:46.464   2216499103.4
RECEIVE_FREQ_1 =   2022-11-20T16:18:07.546   2216499100.9
RECEIVE_FREQ_1 =   2022-11-20T16:18:38.995   2216499097.0
RECEIVE_FREQ_1 =   2022-11-20T16:18:49.536   2216499095.9
RECEIVE_FREQ_1 =   2022-11-20T16:19:52.522   2216499087.6
RECEIVE_FREQ_1 =   2022-11-20T16:20:02.976   2216499086.3
RECEIVE_FREQ_1 =   2022-11-20T16:20:13.517   2216499085.4
RECEIVE_FREQ_1 =   2022-11-20T16:21:05.962   2216499078.3
RECEIVE_FREQ_1 =   2022-11-20T16:21:58.493   2216499071.8
RECEIVE_FREQ_1 =   2022-11-20T16:23:01.392   2216499063.6
RECEIVE_FREQ_1 =   2022-11-20T16:23:43.296   2216499058.3
RECEIVE_FREQ_1 =   2022-11-20T16:24:14.832   2216499054.4
RECEIVE_FREQ_1 =   2022-11-20T16:24:25.373   2216499052.9
RECEIVE_FREQ_1 =   2022-11-20T16:24:35.914   2216499051.5
RECEIVE_FREQ_1 =   2022-11-20T16:24:56.909   2216499049.0
RECEIVE_FREQ_1 =   2022-11-20T16:27:23.789   2216499029.8
RECEIVE_FREQ_1 =   2022-11-20T16:27:34.330   2216499028.5
RECEIVE_FREQ_1 =   2022-11-20T16:27:44.870   2216499026.9
RECEIVE_FREQ_1 =   2022-11-20T16:27:55.325   2216499026.0
RECEIVE_FREQ_1 =   2022-11-20T16:28:37.315   2216499020.2
RECEIVE_FREQ_1 =   2022-11-20T16:28:47.856   2216499018.9
RECEIVE_FREQ_1 =   2022-11-20T16:28:58.310   2216499017.8
RECEIVE_FREQ_1 =   2022-11-20T16:29:19.306   2216499014.9
RECEIVE_FREQ_1 =   2022-11-20T16:29:29.846   2216499013.4
RECEIVE_FREQ_1 =   2022-11-20T16:29:40.301   2216499011.9
RECEIVE_FREQ_1 =   2022-11-20T16:30:11.837   2216499007.7
RECEIVE_FREQ_1 =   2022-11-20T16:30:32.746   2216499004.7
RECEIVE_FREQ_1 =   2022-11-20T16:30:43.286   2216499003.4
RECEIVE_FREQ_1 =   2022-11-20T16:31:04.282   2216499000.6
RECEIVE_FREQ_1 =   2022-11-20T16:31:14.736   2216498999.3
RECEIVE_FREQ_1 =   2022-11-20T16:31:25.277   2216498998.0
RECEIVE_FREQ_1 =   2022-11-20T16:31:35.731   2216498996.7
RECEIVE_FREQ_1 =   2022-11-20T16:32:07.267   2216498992.5
RECEIVE_FREQ_1 =   2022-11-20T16:32:17.808   2216498991.1
RECEIVE_FREQ_1 =   2022-11-20T16:32:28.262   2216498989.7
RECEIVE_FREQ_1 =   2022-11-20T16:35:05.770   2216498970.1
RECEIVE_FREQ_1 =   2022-11-20T16:35:47.846   2216498965.0
RECEIVE_FREQ_1 =   2022-11-20T16:37:43.277   2216498949.8
RECEIVE_FREQ_1 =   2022-11-20T16:37:53.731   2216498948.7
RECEIVE_FREQ_1 =   2022-11-20T16:38:46.262   2216498941.9
RECEIVE_FREQ_1 =   2022-11-20T16:39:07.258   2216498939.2
RECEIVE_FREQ_1 =   2022-11-20T16:39:49.334   2216498933.9
RECEIVE_FREQ_1 =   2022-11-20T16:39:49.334   2216498933.9
RECEIVE_FREQ_1 =   2022-11-20T16:40:20.784   2216498929.1
RECEIVE_FREQ_1 =   2022-11-20T16:40:31.325   2216498928.3
RECEIVE_FREQ_1 =   2022-11-20T16:40:41.779   2216498926.9
RECEIVE_FREQ_1 =   2022-11-20T16:40:52.320   2216498925.6
RECEIVE_FREQ_1 =   2022-11-20T16:41:34.310   2216498920.4
RECEIVE_FREQ_1 =   2022-11-20T16:42:37.296   2216498912.0
RECEIVE_FREQ_1 =   2022-11-20T16:42:58.291   2216498909.2
RECEIVE_FREQ_1 =   2022-11-20T16:43:08.746   2216498908.1
RECEIVE_FREQ_1 =   2022-11-20T16:43:19.286   2216498906.5
RECEIVE_FREQ_1 =   2022-11-20T16:44:32.726   2216498896.2
RECEIVE_FREQ_1 =   2022-11-20T16:45:04.262   2216498892.7
RECEIVE_FREQ_1 =   2022-11-20T16:45:35.798   2216498889.0
RECEIVE_FREQ_1 =   2022-11-20T16:46:38.784   2216498880.2
RECEIVE_FREQ_1 =   2022-11-20T16:46:59.779   2216498877.6
RECEIVE_FREQ_1 =   2022-11-20T16:47:20.774   2216498874.7
RECEIVE_FREQ_1 =   2022-11-20T16:47:31.229   2216498873.3
RECEIVE_FREQ_1 =   2022-11-20T16:47:52.138   2216498870.9
RECEIVE_FREQ_1 =   2022-11-20T16:48:23.674   2216498866.8
RECEIVE_FREQ_1 =   2022-11-20T16:48:34.128   2216498865.4
RECEIVE_FREQ_1 =   2022-11-20T16:48:44.582   2216498863.5
RECEIVE_FREQ_1 =   2022-11-20T16:49:05.578   2216498860.8
RECEIVE_FREQ_1 =   2022-11-20T16:49:16.118   2216498859.9
RECEIVE_FREQ_1 =   2022-11-20T16:51:22.003   2216498843.1
RECEIVE_FREQ_1 =   2022-11-20T16:51:42.998   2216498840.0
RECEIVE_FREQ_1 =   2022-11-20T16:52:35.443   2216498833.2
RECEIVE_FREQ_1 =   2022-11-20T17:09:43.776   2216498692.7
RECEIVE_FREQ_1 =   2022-11-20T17:10:36.221   2216498686.1
RECEIVE_FREQ_1 =   2022-11-20T17:12:21.197   2216498670.6
RECEIVE_FREQ_1 =   2022-11-20T17:12:31.738   2216498669.1
RECEIVE_FREQ_1 =   2022-11-20T17:12:42.192   2216498667.9
RECEIVE_FREQ_1 =   2022-11-20T17:13:13.728   2216498663.2
RECEIVE_FREQ_1 =   2022-11-20T17:13:24.182   2216498661.8
RECEIVE_FREQ_1 =   2022-11-20T17:13:45.178   2216498659.2
RECEIVE_FREQ_1 =   2022-11-20T17:14:06.173   2216498656.3
RECEIVE_FREQ_1 =   2022-11-20T17:14:27.168   2216498653.2
RECEIVE_FREQ_1 =   2022-11-20T17:15:09.072   2216498647.0
RECEIVE_FREQ_1 =   2022-11-20T17:17:25.584   2216498629.0
RECEIVE_FREQ_1 =   2022-11-20T17:17:36.038   2216498627.2
RECEIVE_FREQ_1 =   2022-11-20T17:18:07.574   2216498622.9
RECEIVE_FREQ_1 =   2022-11-20T17:18:18.029   2216498621.7
RECEIVE_FREQ_1 =   2022-11-20T17:18:28.483   2216498620.5
RECEIVE_FREQ_1 =   2022-11-20T17:18:39.024   2216498618.8
RECEIVE_FREQ_1 =   2022-11-20T17:18:49.478   2216498617.5
RECEIVE_FREQ_1 =   2022-11-20T17:19:00.019   2216498615.9
RECEIVE_FREQ_1 =   2022-11-20T17:19:31.469   2216498611.7
RECEIVE_FREQ_1 =   2022-11-20T17:20:02.918   2216498607.2
RECEIVE_FREQ_1 =   2022-11-20T17:20:13.373   2216498605.5
RECEIVE_FREQ_1 =   2022-11-20T17:21:37.354   2216498594.7
RECEIVE_FREQ_1 =   2022-11-20T17:21:58.349   2216498591.2
RECEIVE_FREQ_1 =   2022-11-20T17:22:50.880   2216498584.1
RECEIVE_FREQ_1 =   2022-11-20T17:23:01.334   2216498582.4
RECEIVE_FREQ_1 =   2022-11-20T17:23:53.779   2216498575.1
RECEIVE_FREQ_1 =   2022-11-20T17:25:49.296   2216498559.6
RECEIVE_FREQ_1 =   2022-11-20T17:26:10.291   2216498556.7
RECEIVE_FREQ_1 =   2022-11-20T17:26:31.286   2216498553.5
RECEIVE_FREQ_1 =   2022-11-20T17:28:58.080   2216498533.4
RECEIVE_FREQ_1 =   2022-11-20T17:29:18.989   2216498530.1
RECEIVE_FREQ_1 =   2022-11-20T17:29:29.530   2216498529.3
RECEIVE_FREQ_1 =   2022-11-20T17:30:11.434   2216498523.1
RECEIVE_FREQ_1 =   2022-11-20T17:30:21.974   2216498521.7
RECEIVE_FREQ_1 =   2022-11-20T17:30:32.429   2216498520.1
RECEIVE_FREQ_1 =   2022-11-20T17:30:32.429   2216498520.1
RECEIVE_FREQ_1 =   2022-11-20T17:30:53.338   2216498517.2
RECEIVE_FREQ_1 =   2022-11-20T17:32:38.227   2216498502.9
RECEIVE_FREQ_1 =   2022-11-20T17:33:20.131   2216498496.8
RECEIVE_FREQ_1 =   2022-11-20T17:33:30.672   2216498495.6
RECEIVE_FREQ_1 =   2022-11-20T17:33:41.126   2216498493.9
RECEIVE_FREQ_1 =   2022-11-20T17:33:51.581   2216498492.8
RECEIVE_FREQ_1 =   2022-11-20T17:34:02.035   2216498491.1
RECEIVE_FREQ_1 =   2022-11-20T17:34:12.576   2216498489.7
RECEIVE_FREQ_1 =   2022-11-20T17:34:23.030   2216498488.5
RECEIVE_FREQ_1 =   2022-11-20T17:34:54.566   2216498483.9
RECEIVE_FREQ_1 =   2022-11-20T17:35:05.021   2216498482.2
RECEIVE_FREQ_1 =   2022-11-20T17:35:26.016   2216498479.7
RECEIVE_FREQ_1 =   2022-11-20T17:35:36.470   2216498477.8
RECEIVE_FREQ_1 =   2022-11-20T17:36:18.461   2216498472.1
RECEIVE_FREQ_1 =   2022-11-20T17:36:28.915   2216498470.7
RECEIVE_FREQ_1 =   2022-11-20T17:36:39.456   2216498469.1
RECEIVE_FREQ_1 =   2022-11-20T17:37:21.360   2216498463.3
RECEIVE_FREQ_1 =   2022-11-20T17:37:31.901   2216498462.3
RECEIVE_FREQ_1 =   2022-11-20T17:37:52.810   2216498458.8
RECEIVE_FREQ_1 =   2022-11-20T17:38:03.350   2216498457.7
RECEIVE_FREQ_1 =   2022-11-20T17:38:34.800   2216498453.1
RECEIVE_FREQ_1 =   2022-11-20T17:38:34.800   2216498453.1
RECEIVE_FREQ_1 =   2022-11-20T17:38:45.254   2216498451.6
RECEIVE_FREQ_1 =   2022-11-20T17:38:55.795   2216498449.9
RECEIVE_FREQ_1 =   2022-11-20T17:39:06.250   2216498449.0
RECEIVE_FREQ_1 =   2022-11-20T17:39:16.790   2216498447.3
RECEIVE_FREQ_1 =   2022-11-20T17:39:27.245   2216498445.9
RECEIVE_FREQ_1 =   2022-11-20T17:39:37.786   2216498444.3
RECEIVE_FREQ_1 =   2022-11-20T17:39:48.240   2216498442.8
RECEIVE_FREQ_1 =   2022-11-20T17:39:58.781   2216498441.5
RECEIVE_FREQ_1 =   2022-11-20T17:40:09.235   2216498439.8
RECEIVE_FREQ_1 =   2022-11-20T17:40:19.776   2216498439.0
RECEIVE_FREQ_1 =   2022-11-20T17:40:30.317   2216498437.1
RECEIVE_FREQ_1 =   2022-11-20T17:40:40.771   2216498435.8
RECEIVE_FREQ_1 =   2022-11-20T17:40:51.312   2216498433.8
RECEIVE_FREQ_1 =   2022-11-20T17:41:01.766   2216498432.2
RECEIVE_FREQ_1 =   2022-11-20T17:41:54.298   2216498425.4
RECEIVE_FREQ_1 =   2022-11-20T17:42:04.752   2216498422.0
RECEIVE_FREQ_1 =   2022-11-20T17:42:15.293   2216498422.4
RECEIVE_FREQ_1 =   2022-11-20T17:42:25.834   2216498421.0
RECEIVE_FREQ_1 =   2022-11-20T17:42:36.288   2216498419.3
RECEIVE_FREQ_1 =   2022-11-20T17:42:46.829   2216498418.1
RECEIVE_FREQ_1 =   2022-11-20T17:42:57.283   2216498416.9
RECEIVE_FREQ_1 =   2022-11-20T17:43:07.824   2216498415.1
RECEIVE_FREQ_1 =   2022-11-20T17:43:18.278   2216498413.6
RECEIVE_FREQ_1 =   2022-11-20T17:43:28.819   2216498412.4
RECEIVE_FREQ_1 =   2022-11-20T17:43:39.360   2216498410.9
RECEIVE_FREQ_1 =   2022-11-20T17:43:49.814   2216498409.3
RECEIVE_FREQ_1 =   2022-11-20T17:44:00.355   2216498407.9
RECEIVE_FREQ_1 =   2022-11-20T17:44:10.810   2216498406.5
RECEIVE_FREQ_1 =   2022-11-20T17:44:21.350   2216498405.2
RECEIVE_FREQ_1 =   2022-11-20T17:44:31.805   2216498403.4
RECEIVE_FREQ_1 =   2022-11-20T17:44:42.346   2216498402.2
RECEIVE_FREQ_1 =   2022-11-20T17:44:52.800   2216498400.5
RECEIVE_FREQ_1 =   2022-11-20T17:45:03.254   2216498398.8
RECEIVE_FREQ_1 =   2022-11-20T17:45:13.795   2216498397.5
RECEIVE_FREQ_1 =   2022-11-20T17:45:24.336   2216498395.9
RECEIVE_FREQ_1 =   2022-11-20T17:45:34.790   2216498394.7
RECEIVE_FREQ_1 =   2022-11-20T17:45:45.331   2216498392.9
RECEIVE_FREQ_1 =   2022-11-20T17:45:55.786   2216498391.5
RECEIVE_FREQ_1 =   2022-11-20T17:46:06.326   2216498390.4
RECEIVE_FREQ_1 =   2022-11-20T17:46:16.781   2216498388.6
RECEIVE_FREQ_1 =   2022-11-20T17:46:27.235   2216498387.3
RECEIVE_FREQ_1 =   2022-11-20T17:46:37.776   2216498385.8
RECEIVE_FREQ_1 =   2022-11-20T17:46:48.317   2216498384.3
RECEIVE_FREQ_1 =   2022-11-20T17:46:58.771   2216498382.8
RECEIVE_FREQ_1 =   2022-11-20T17:47:09.312   2216498381.5
RECEIVE_FREQ_1 =   2022-11-20T17:47:19.766   2216498379.7
RECEIVE_FREQ_1 =   2022-11-20T17:47:30.221   2216498378.6
RECEIVE_FREQ_1 =   2022-11-20T17:47:40.762   2216498377.0
RECEIVE_FREQ_1 =   2022-11-20T17:47:51.216   2216498375.9
RECEIVE_FREQ_1 =   2022-11-20T17:48:01.757   2216498374.3
RECEIVE_FREQ_1 =   2022-11-20T17:48:12.298   2216498372.4
RECEIVE_FREQ_1 =   2022-11-20T17:48:22.752   2216498371.1
RECEIVE_FREQ_1 =   2022-11-20T17:48:33.293   2216498370.2
RECEIVE_FREQ_1 =   2022-11-20T17:48:43.834   2216498368.4
RECEIVE_FREQ_1 =   2022-11-20T17:48:54.288   2216498366.8
RECEIVE_FREQ_1 =   2022-11-20T17:49:04.829   2216498365.6
RECEIVE_FREQ_1 =   2022-11-20T17:49:15.283   2216498363.8
RECEIVE_FREQ_1 =   2022-11-20T17:49:25.738   2216498362.5
RECEIVE_FREQ_1 =   2022-11-20T17:49:36.278   2216498361.2
RECEIVE_FREQ_1 =   2022-11-20T17:49:46.819   2216498359.6
RECEIVE_FREQ_1 =   2022-11-20T17:49:57.274   2216498357.9
RECEIVE_FREQ_1 =   2022-11-20T17:50:07.814   2216498356.9
RECEIVE_FREQ_1 =   2022-11-20T17:50:18.355   2216498355.1
RECEIVE_FREQ_1 =   2022-11-20T17:50:28.810   2216498353.8
RECEIVE_FREQ_1 =   2022-11-20T17:50:39.350   2216498352.3
RECEIVE_FREQ_1 =   2022-11-20T17:50:49.805   2216498350.9
RECEIVE_FREQ_1 =   2022-11-20T17:51:00.259   2216498349.6
RECEIVE_FREQ_1 =   2022-11-20T17:51:10.800   2216498347.6
RECEIVE_FREQ_1 =   2022-11-20T17:51:21.341   2216498346.2
RECEIVE_FREQ_1 =   2022-11-20T17:51:31.882   2216498344.9
RECEIVE_FREQ_1 =   2022-11-20T17:51:42.336   2216498343.3
RECEIVE_FREQ_1 =   2022-11-20T17:51:52.877   2216498342.0
RECEIVE_FREQ_1 =   2022-11-20T17:52:03.418   2216498340.4
RECEIVE_FREQ_1 =   2022-11-20T17:52:13.872   2216498338.9
RECEIVE_FREQ_1 =   2022-11-20T17:52:24.413   2216498337.5
RECEIVE_FREQ_1 =   2022-11-20T17:52:34.867   2216498336.0
RECEIVE_FREQ_1 =   2022-11-20T17:52:45.408   2216498334.6
RECEIVE_FREQ_1 =   2022-11-20T17:52:55.862   2216498333.3
RECEIVE_FREQ_1 =   2022-11-20T17:53:06.403   2216498331.8
RECEIVE_FREQ_1 =   2022-11-20T17:53:16.858   2216498330.1
RECEIVE_FREQ_1 =   2022-11-20T17:53:27.398   2216498328.6
RECEIVE_FREQ_1 =   2022-11-20T17:53:37.853   2216498327.3
RECEIVE_FREQ_1 =   2022-11-20T17:53:48.394   2216498325.9
RECEIVE_FREQ_1 =   2022-11-20T17:53:58.848   2216498324.3
RECEIVE_FREQ_1 =   2022-11-20T17:54:09.389   2216498323.0
RECEIVE_FREQ_1 =   2022-11-20T17:54:19.843   2216498321.6
RECEIVE_FREQ_1 =   2022-11-20T17:54:30.384   2216498319.9
RECEIVE_FREQ_1 =   2022-11-20T17:54:40.838   2216498318.5
RECEIVE_FREQ_1 =   2022-11-20T17:54:51.293   2216498316.9
RECEIVE_FREQ_1 =   2022-11-20T17:55:01.834   2216498315.3
RECEIVE_FREQ_1 =   2022-11-20T17:55:12.288   2216498313.9
RECEIVE_FREQ_1 =   2022-11-20T17:55:22.742   2216498312.6
RECEIVE_FREQ_1 =   2022-11-20T17:55:33.283   2216498310.7
RECEIVE_FREQ_1 =   2022-11-20T17:55:43.738   2216498309.5
RECEIVE_FREQ_1 =   2022-11-20T17:55:54.192   2216498307.9
RECEIVE_FREQ_1 =   2022-11-20T17:56:04.733   2216498306.6
RECEIVE_FREQ_1 =   2022-11-20T17:56:15.274   2216498304.8
RECEIVE_FREQ_1 =   2022-11-20T17:56:25.728   2216498303.5
RECEIVE_FREQ_1 =   2022-11-20T17:56:36.269   2216498301.9
RECEIVE_FREQ_1 =   2022-11-20T17:56:46.810   2216498300.5
RECEIVE_FREQ_1 =   2022-11-20T17:56:57.264   2216498299.2
RECEIVE_FREQ_1 =   2022-11-20T17:57:07.805   2216498297.2
RECEIVE_FREQ_1 =   2022-11-20T17:57:18.259   2216498295.7
RECEIVE_FREQ_1 =   2022-11-20T17:57:28.800   2216498294.3
RECEIVE_FREQ_1 =   2022-11-20T17:57:39.254   2216498293.3
RECEIVE_FREQ_1 =   2022-11-20T17:57:49.795   2216498291.7
RECEIVE_FREQ_1 =   2022-11-20T17:58:00.336   2216498289.5
RECEIVE_FREQ_1 =   2022-11-20T17:58:10.790   2216498288.6
RECEIVE_FREQ_1 =   2022-11-20T17:58:21.331   2216498286.9
RECEIVE_FREQ_1 =   2022-11-20T17:58:31.786   2216498285.6
RECEIVE_FREQ_1 =   2022-11-20T17:58:42.240   2216498283.5
RECEIVE_FREQ_1 =   2022-11-20T17:58:52.781   2216498282.6
RECEIVE_FREQ_1 =   2022-11-20T17:59:03.235   2216498280.9
RECEIVE_FREQ_1 =   2022-11-20T17:59:13.776   2216498279.8
RECEIVE_FREQ_1 =   2022-11-20T17:59:24.230   2216498277.7
RECEIVE_FREQ_1 =   2022-11-20T17:59:34.771   2216498276.3
RECEIVE_FREQ_1 =   2022-11-20T17:59:45.226   2216498274.9
RECEIVE_FREQ_1 =   2022-11-20T17:59:55.766   2216498273.0
RECEIVE_FREQ_1 =   2022-11-20T18:00:06.221   2216498272.2
RECEIVE_FREQ_1 =   2022-11-20T18:00:16.762   2216498270.3
RECEIVE_FREQ_1 =   2022-11-20T18:00:27.216   2216498268.6
RECEIVE_FREQ_1 =   2022-11-20T18:00:37.757   2216498267.6
RECEIVE_FREQ_1 =   2022-11-20T18:00:48.211   2216498266.2
RECEIVE_FREQ_1 =   2022-11-20T18:00:58.752   2216498264.3
RECEIVE_FREQ_1 =   2022-11-20T18:01:09.293   2216498263.1
RECEIVE_FREQ_1 =   2022-11-20T18:01:19.747   2216498261.4
RECEIVE_FREQ_1 =   2022-11-20T18:01:30.202   2216498259.8
RECEIVE_FREQ_1 =   2022-11-20T18:01:40.742   2216498258.3
RECEIVE_FREQ_1 =   2022-11-20T18:01:51.197   2216498257.1
RECEIVE_FREQ_1 =   2022-11-20T18:02:01.651   2216498255.3
RECEIVE_FREQ_1 =   2022-11-20T18:02:12.106   2216498253.9
RECEIVE_FREQ_1 =   2022-11-20T18:02:22.560   2216498252.5
RECEIVE_FREQ_1 =   2022-11-20T18:02:33.101   2216498251.0
RECEIVE_FREQ_1 =   2022-11-20T18:02:43.555   2216498249.3
RECEIVE_FREQ_1 =   2022-11-20T18:02:54.010   2216498248.1
RECEIVE_FREQ_1 =   2022-11-20T18:03:04.464   2216498246.3
RECEIVE_FREQ_1 =   2022-11-20T18:03:15.005   2216498244.6
RECEIVE_FREQ_1 =   2022-11-20T18:03:25.459   2216498243.1
RECEIVE_FREQ_1 =   2022-11-20T18:03:36.000   2216498241.7
RECEIVE_FREQ_1 =   2022-11-20T18:03:46.454   2216498240.4
RECEIVE_FREQ_1 =   2022-11-20T18:03:56.995   2216498238.6
RECEIVE_FREQ_1 =   2022-11-20T18:04:07.450   2216498237.6
RECEIVE_FREQ_1 =   2022-11-20T18:04:17.990   2216498236.1
RECEIVE_FREQ_1 =   2022-11-20T18:04:28.445   2216498234.4
RECEIVE_FREQ_1 =   2022-11-20T18:04:38.986   2216498233.1
RECEIVE_FREQ_1 =   2022-11-20T18:04:49.440   2216498231.5
RECEIVE_FREQ_1 =   2022-11-20T18:04:59.981   2216498230.0
RECEIVE_FREQ_1 =   2022-11-20T18:05:10.435   2216498228.5
RECEIVE_FREQ_1 =   2022-11-20T18:05:20.890   2216498226.9
RECEIVE_FREQ_1 =   2022-11-20T18:05:31.344   2216498225.4
RECEIVE_FREQ_1 =   2022-11-20T18:06:13.334   2216498219.6
RECEIVE_FREQ_1 =   2022-11-20T18:06:23.789   2216498218.2
RECEIVE_FREQ_1 =   2022-11-20T18:06:44.784   2216498215.3
RECEIVE_FREQ_1 =   2022-11-20T18:07:26.861   2216498209.0
RECEIVE_FREQ_1 =   2022-11-20T18:10:04.282   2216498186.7
RECEIVE_FREQ_1 =   2022-11-20T18:10:14.736   2216498185.4
RECEIVE_FREQ_1 =   2022-11-20T18:10:14.736   2216498185.4
RECEIVE_FREQ_1 =   2022-11-20T18:10:25.277   2216498183.9
RECEIVE_FREQ_1 =   2022-11-20T18:10:35.731   2216498182.0
RECEIVE_FREQ_1 =   2022-11-20T18:10:46.272   2216498180.8
RECEIVE_FREQ_1 =   2022-11-20T18:10:56.726   2216498179.5
RECEIVE_FREQ_1 =   2022-11-20T18:11:07.267   2216498178.0
RECEIVE_FREQ_1 =   2022-11-20T18:11:17.722   2216498176.4
RECEIVE_FREQ_1 =   2022-11-20T18:11:28.262   2216498174.7
RECEIVE_FREQ_1 =   2022-11-20T18:11:38.717   2216498173.8
RECEIVE_FREQ_1 =   2022-11-20T18:11:49.258   2216498171.4
RECEIVE_FREQ_1 =   2022-11-20T18:11:59.712   2216498170.5
RECEIVE_FREQ_1 =   2022-11-20T18:12:10.253   2216498169.0
RECEIVE_FREQ_1 =   2022-11-20T18:12:20.707   2216498167.3
RECEIVE_FREQ_1 =   2022-11-20T18:12:31.162   2216498165.7
RECEIVE_FREQ_1 =   2022-11-20T18:12:41.616   2216498164.8
RECEIVE_FREQ_1 =   2022-11-20T18:12:52.157   2216498163.0
RECEIVE_FREQ_1 =   2022-11-20T18:13:02.611   2216498161.4
RECEIVE_FREQ_1 =   2022-11-20T18:13:13.066   2216498160.4
RECEIVE_FREQ_1 =   2022-11-20T18:13:23.520   2216498158.7
RECEIVE_FREQ_1 =   2022-11-20T18:13:34.061   2216498157.3
RECEIVE_FREQ_1 =   2022-11-20T18:13:44.515   2216498155.8
RECEIVE_FREQ_1 =   2022-11-20T18:13:54.970   2216498153.9
RECEIVE_FREQ_1 =   2022-11-20T18:14:05.510   2216498152.6
RECEIVE_FREQ_1 =   2022-11-20T18:14:15.965   2216498151.1
RECEIVE_FREQ_1 =   2022-11-20T18:14:26.506   2216498149.8
RECEIVE_FREQ_1 =   2022-11-20T18:14:36.960   2216498148.1
RECEIVE_FREQ_1 =   2022-11-20T18:14:47.501   2216498147.0
RECEIVE_FREQ_1 =   2022-11-20T18:14:57.955   2216498145.2
RECEIVE_FREQ_1 =   2022-11-20T18:15:08.496   2216498143.9
RECEIVE_FREQ_1 =   2022-11-20T18:15:18.950   2216498142.7
RECEIVE_FREQ_1 =   2022-11-20T18:15:29.405   2216498140.9
RECEIVE_FREQ_1 =   2022-11-20T18:15:39.946   2216498139.4
RECEIVE_FREQ_1 =   2022-11-20T18:15:50.400   2216498138.0
RECEIVE_FREQ_1 =   2022-11-20T18:16:00.941   2216498136.4
RECEIVE_FREQ_1 =   2022-11-20T18:16:11.395   2216498135.0
RECEIVE_FREQ_1 =   2022-11-20T18:16:21.850   2216498133.3
RECEIVE_FREQ_1 =   2022-11-20T18:16:32.390   2216498132.2
RECEIVE_FREQ_1 =   2022-11-20T18:16:42.845   2216498130.6
RECEIVE_FREQ_1 =   2022-11-20T18:16:53.299   2216498129.2
RECEIVE_FREQ_1 =   2022-11-20T18:17:03.840   2216498127.8
RECEIVE_FREQ_1 =   2022-11-20T18:17:14.294   2216498126.5
RECEIVE_FREQ_1 =   2022-11-20T18:17:24.835   2216498124.9
RECEIVE_FREQ_1 =   2022-11-20T18:17:35.290   2216498123.3
RECEIVE_FREQ_1 =   2022-11-20T18:17:45.830   2216498121.5
RECEIVE_FREQ_1 =   2022-11-20T18:17:56.371   2216498120.3
RECEIVE_FREQ_1 =   2022-11-20T18:18:17.366   2216498117.3
RECEIVE_FREQ_1 =   2022-11-20T18:18:27.821   2216498115.9
RECEIVE_FREQ_1 =   2022-11-20T18:18:38.362   2216498114.4
RECEIVE_FREQ_1 =   2022-11-20T18:18:38.362   2216498114.4
RECEIVE_FREQ_1 =   2022-11-20T18:18:48.816   2216498113.2
RECEIVE_FREQ_1 =   2022-11-20T18:18:59.270   2216498111.3
RECEIVE_FREQ_1 =   2022-11-20T18:19:09.811   2216498110.1
RECEIVE_FREQ_1 =   2022-11-20T18:19:20.266   2216498108.8
RECEIVE_FREQ_1 =   2022-11-20T18:19:30.806   2216498107.0
RECEIVE_FREQ_1 =   2022-11-20T18:19:41.261   2216498105.7
RECEIVE_FREQ_1 =   2022-11-20T18:19:51.802   2216498104.1
RECEIVE_FREQ_1 =   2022-11-20T18:20:02.342   2216498102.7
RECEIVE_FREQ_1 =   2022-11-20T18:20:12.883   2216498101.2
RECEIVE_FREQ_1 =   2022-11-20T18:20:23.338   2216498099.7
RECEIVE_FREQ_1 =   2022-11-20T18:20:33.878   2216498098.4
RECEIVE_FREQ_1 =   2022-11-20T18:20:44.419   2216498096.7
RECEIVE_FREQ_1 =   2022-11-20T18:20:54.874   2216498095.7
RECEIVE_FREQ_1 =   2022-11-20T18:21:05.328   2216498093.9
RECEIVE_FREQ_1 =   2022-11-20T18:21:15.869   2216498092.7
RECEIVE_FREQ_1 =   2022-11-20T18:21:26.410   2216498090.9
RECEIVE_FREQ_1 =   2022-11-20T18:21:36.864   2216498089.8
RECEIVE_FREQ_1 =   2022-11-20T18:21:47.318   2216498088.2
RECEIVE_FREQ_1 =   2022-11-20T18:21:57.859   2216498086.7
RECEIVE_FREQ_1 =   2022-11-20T18:22:08.400   2216498085.0
RECEIVE_FREQ_1 =   2022-11-20T18:22:18.854   2216498083.9
RECEIVE_FREQ_1 =   2022-11-20T18:22:29.395   2216498082.4
RECEIVE_FREQ_1 =   2022-11-20T18:22:39.850   2216498080.6
RECEIVE_FREQ_1 =   2022-11-20T18:22:50.304   2216498079.4
RECEIVE_FREQ_1 =   2022-11-20T18:23:00.845   2216498077.7
RECEIVE_FREQ_1 =   2022-11-20T18:23:11.299   2216498076.5
RECEIVE_FREQ_1 =   2022-11-20T18:23:21.754   2216498074.9
RECEIVE_FREQ_1 =   2022-11-20T18:23:32.294   2216498073.7
RECEIVE_FREQ_1 =   2022-11-20T18:23:42.749   2216498072.0
RECEIVE_FREQ_1 =   2022-11-20T18:23:53.290   2216498070.7
RECEIVE_FREQ_1 =   2022-11-20T18:24:03.744   2216498069.4
RECEIVE_FREQ_1 =   2022-11-20T18:24:14.198   2216498067.8
RECEIVE_FREQ_1 =   2022-11-20T18:24:24.653   2216498066.4
RECEIVE_FREQ_1 =   2022-11-20T18:24:35.194   2216498064.8
RECEIVE_FREQ_1 =   2022-11-20T18:24:45.734   2216498063.4
RECEIVE_FREQ_1 =   2022-11-20T18:24:56.189   2216498061.9
RECEIVE_FREQ_1 =   2022-11-20T18:25:06.730   2216498062.1
RECEIVE_FREQ_1 =   2022-11-20T18:25:17.184   2216498061.1
RECEIVE_FREQ_1 =   2022-11-20T18:25:27.725   2216498059.4
RECEIVE_FREQ_1 =   2022-11-20T18:25:38.179   2216498057.9
RECEIVE_FREQ_1 =   2022-11-20T18:25:48.720   2216498056.5
RECEIVE_FREQ_1 =   2022-11-20T18:25:59.261   2216498055.0
RECEIVE_FREQ_1 =   2022-11-20T18:26:09.715   2216498053.5
RECEIVE_FREQ_1 =   2022-11-20T18:26:20.256   2216498051.8
RECEIVE_FREQ_1 =   2022-11-20T18:26:30.797   2216498050.5
RECEIVE_FREQ_1 =   2022-11-20T18:26:41.251   2216498049.2
RECEIVE_FREQ_1 =   2022-11-20T18:26:51.792   2216498047.6
RECEIVE_FREQ_1 =   2022-11-20T18:27:02.333   2216498045.9
RECEIVE_FREQ_1 =   2022-11-20T18:27:12.874   2216498044.4
RECEIVE_FREQ_1 =   2022-11-20T18:27:23.328   2216498043.1
RECEIVE_FREQ_1 =   2022-11-20T18:27:33.869   2216498041.8
RECEIVE_FREQ_1 =   2022-11-20T18:27:44.323   2216498040.0
RECEIVE_FREQ_1 =   2022-11-20T18:27:54.778   2216498038.8
RECEIVE_FREQ_1 =   2022-11-20T18:28:05.318   2216498037.0
RECEIVE_FREQ_1 =   2022-11-20T18:28:15.773   2216498035.5
RECEIVE_FREQ_1 =   2022-11-20T18:28:26.314   2216498034.2
RECEIVE_FREQ_1 =   2022-11-20T18:28:36.768   2216498032.7
RECEIVE_FREQ_1 =   2022-11-20T18:28:47.309   2216498031.2
RECEIVE_FREQ_1 =   2022-11-20T18:28:57.763   2216498029.6
RECEIVE_FREQ_1 =   2022-11-20T18:29:08.304   2216498028.3
RECEIVE_FREQ_1 =   2022-11-20T18:29:18.845   2216498026.9
RECEIVE_FREQ_1 =   2022-11-20T18:29:29.299   2216498025.1
RECEIVE_FREQ_1 =   2022-11-20T18:29:39.840   2216498023.5
RECEIVE_FREQ_1 =   2022-11-20T18:29:50.381   2216498022.2
RECEIVE_FREQ_1 =   2022-11-20T18:30:00.835   2216498020.9
RECEIVE_FREQ_1 =   2022-11-20T18:30:11.376   2216498019.1
RECEIVE_FREQ_1 =   2022-11-20T18:30:21.830   2216498017.4
RECEIVE_FREQ_1 =   2022-11-20T18:30:32.371   2216498016.4
RECEIVE_FREQ_1 =   2022-11-20T18:30:42.826   2216498014.2
RECEIVE_FREQ_1 =   2022-11-20T18:30:53.366   2216498012.8
RECEIVE_FREQ_1 =   2022-11-20T18:31:03.907   2216498011.6
RECEIVE_FREQ_1 =   2022-11-20T18:31:14.362   2216498009.9
RECEIVE_FREQ_1 =   2022-11-20T18:31:24.902   2216498008.3
RECEIVE_FREQ_1 =   2022-11-20T18:31:35.357   2216498007.1
RECEIVE_FREQ_1 =   2022-11-20T18:31:45.898   2216498005.5
RECEIVE_FREQ_1 =   2022-11-20T18:31:56.352   2216498004.0
RECEIVE_FREQ_1 =   2022-11-20T18:32:06.893   2216498002.4
RECEIVE_FREQ_1 =   2022-11-20T18:32:17.347   2216498000.8
RECEIVE_FREQ_1 =   2022-11-20T18:32:27.888   2216497999.5
RECEIVE_FREQ_1 =   2022-11-20T18:32:38.429   2216497997.7
RECEIVE_FREQ_1 =   2022-11-20T18:32:48.883   2216497996.3
RECEIVE_FREQ_1 =   2022-11-20T18:32:59.338   2216497994.8
RECEIVE_FREQ_1 =   2022-11-20T18:33:09.878   2216497993.2
RECEIVE_FREQ_1 =   2022-11-20T18:33:20.333   2216497991.6
RECEIVE_FREQ_1 =   2022-11-20T18:33:30.874   2216497990.1
RECEIVE_FREQ_1 =   2022-11-20T18:33:41.328   2216497988.5
RECEIVE_FREQ_1 =   2022-11-20T18:33:51.782   2216497987.0
RECEIVE_FREQ_1 =   2022-11-20T18:34:02.323   2216497985.7
RECEIVE_FREQ_1 =   2022-11-20T18:34:12.778   2216497984.5
RECEIVE_FREQ_1 =   2022-11-20T18:34:23.232   2216497983.1
RECEIVE_FREQ_1 =   2022-11-20T18:34:33.773   2216497981.8
RECEIVE_FREQ_1 =   2022-11-20T18:34:44.227   2216497980.4
RECEIVE_FREQ_1 =   2022-11-20T18:34:54.768   2216497978.9
RECEIVE_FREQ_1 =   2022-11-20T18:35:05.222   2216497977.3
RECEIVE_FREQ_1 =   2022-11-20T18:35:15.763   2216497976.0
RECEIVE_FREQ_1 =   2022-11-20T18:35:26.218   2216497974.9
RECEIVE_FREQ_1 =   2022-11-20T18:35:36.672   2216497973.4
RECEIVE_FREQ_1 =   2022-11-20T18:35:47.213   2216497971.9
RECEIVE_FREQ_1 =   2022-11-20T18:35:57.754   2216497970.5
RECEIVE_FREQ_1 =   2022-11-20T18:36:08.208   2216497969.5
RECEIVE_FREQ_1 =   2022-11-20T18:36:18.749   2216497967.7
RECEIVE_FREQ_1 =   2022-11-20T18:36:29.290   2216497966.5
RECEIVE_FREQ_1 =   2022-11-20T18:36:39.744   2216497965.0
RECEIVE_FREQ_1 =   2022-11-20T18:36:50.285   2216497963.7
RECEIVE_FREQ_1 =   2022-11-20T18:37:00.739   2216497962.5
RECEIVE_FREQ_1 =   2022-11-20T18:37:11.280   2216497960.8
RECEIVE_FREQ_1 =   2022-11-20T18:37:21.821   2216497959.5
RECEIVE_FREQ_1 =   2022-11-20T18:37:32.275   2216497958.0
RECEIVE_FREQ_1 =   2022-11-20T18:37:42.816   2216497956.4
RECEIVE_FREQ_1 =   2022-11-20T18:37:53.270   2216497955.1
RECEIVE_FREQ_1 =   2022-11-20T18:38:03.811   2216497953.9
RECEIVE_FREQ_1 =   2022-11-20T18:38:14.266   2216497952.4
RECEIVE_FREQ_1 =   2022-11-20T18:38:24.806   2216497950.9
RECEIVE_FREQ_1 =   2022-11-20T18:38:35.261   2216497949.2
RECEIVE_FREQ_1 =   2022-11-20T18:38:45.802   2216497948.0
RECEIVE_FREQ_1 =   2022-11-20T18:38:56.256   2216497946.5
RECEIVE_FREQ_1 =   2022-11-20T18:39:06.797   2216497945.2
RECEIVE_FREQ_1 =   2022-11-20T18:39:17.251   2216497944.0
RECEIVE_FREQ_1 =   2022-11-20T18:39:27.792   2216497942.5
RECEIVE_FREQ_1 =   2022-11-20T18:39:38.246   2216497941.0
RECEIVE_FREQ_1 =   2022-11-20T18:39:48.787   2216497939.6
RECEIVE_FREQ_1 =   2022-11-20T18:39:59.242   2216497938.4
RECEIVE_FREQ_1 =   2022-11-20T18:40:09.696   2216497936.6
RECEIVE_FREQ_1 =   2022-11-20T18:40:20.237   2216497935.6
RECEIVE_FREQ_1 =   2022-11-20T18:40:30.691   2216497934.0
RECEIVE_FREQ_1 =   2022-11-20T18:40:41.232   2216497932.6
RECEIVE_FREQ_1 =   2022-11-20T18:40:51.773   2216497930.9
RECEIVE_FREQ_1 =   2022-11-20T18:41:02.227   2216497929.6
RECEIVE_FREQ_1 =   2022-11-20T18:41:12.768   2216497927.9
RECEIVE_FREQ_1 =   2022-11-20T18:41:23.309   2216497926.5
RECEIVE_FREQ_1 =   2022-11-20T18:41:33.763   2216497925.2
RECEIVE_FREQ_1 =   2022-11-20T18:41:44.304   2216497924.1
RECEIVE_FREQ_1 =   2022-11-20T18:41:54.758   2216497922.3
RECEIVE_FREQ_1 =   2022-11-20T18:42:05.299   2216497921.2
RECEIVE_FREQ_1 =   2022-11-20T18:42:15.754   2216497919.6
RECEIVE_FREQ_1 =   2022-11-20T18:42:26.294   2216497918.2
RECEIVE_FREQ_1 =   2022-11-20T18:42:36.749   2216497916.7
RECEIVE_FREQ_1 =   2022-11-20T18:42:36.749   2216497916.7
RECEIVE_FREQ_1 =   2022-11-20T18:42:47.290   2216497915.0
RECEIVE_FREQ_1 =   2022-11-20T18:42:57.744   2216497913.9
RECEIVE_FREQ_1 =   2022-11-20T18:43:08.198   2216497912.4
RECEIVE_FREQ_1 =   2022-11-20T18:43:18.739   2216497910.9
RECEIVE_FREQ_1 =   2022-11-20T18:43:29.194   2216497909.3
RECEIVE_FREQ_1 =   2022-11-20T18:43:39.734   2216497908.0
RECEIVE_FREQ_1 =   2022-11-20T18:43:50.275   2216497906.2
RECEIVE_FREQ_1 =   2022-11-20T18:44:00.730   2216497905.1
RECEIVE_FREQ_1 =   2022-11-20T18:44:11.270   2216497903.6
RECEIVE_FREQ_1 =   2022-11-20T18:44:21.811   2216497902.2
RECEIVE_FREQ_1 =   2022-11-20T18:44:32.266   2216497900.9
RECEIVE_FREQ_1 =   2022-11-20T18:45:24.710   2216497893.4
RECEIVE_FREQ_1 =   2022-11-20T18:47:20.400   2216497877.0
RECEIVE_FREQ_1 =   2022-11-20T18:47:41.395   2216497874.6
RECEIVE_FREQ_1 =   2022-11-20T18:48:44.381   2216497865.4
RECEIVE_FREQ_1 =   2022-11-20T18:48:54.835   2216497862.8
RECEIVE_FREQ_1 =   2022-11-20T18:51:32.170   2216497841.0
RECEIVE_FREQ_1 =   2022-11-20T18:51:53.165   2216497838.2
RECEIVE_FREQ_1 =   2022-11-20T18:52:03.619   2216497837.0
RECEIVE_FREQ_1 =   2022-11-20T19:22:19.920   2216497596.3
RECEIVE_FREQ_1 =   2022-11-20T19:23:02.256   2216497591.1
RECEIVE_FREQ_1 =   2022-11-20T19:23:23.251   2216497587.3
RECEIVE_FREQ_1 =   2022-11-20T19:23:54.787   2216497583.8
RECEIVE_FREQ_1 =   2022-11-20T19:24:57.773   2216497575.9
RECEIVE_FREQ_1 =   2022-11-20T19:25:18.854   2216497573.1
RECEIVE_FREQ_1 =   2022-11-20T19:29:31.402   2216497539.3
RECEIVE_FREQ_1 =   2022-11-20T19:31:37.459   2216497523.9
RECEIVE_FREQ_1 =   2022-11-20T19:34:04.685   2216497505.7
RECEIVE_FREQ_1 =   2022-11-20T19:34:15.226   2216497504.4
RECEIVE_FREQ_1 =   2022-11-20T19:34:25.766   2216497502.9
RECEIVE_FREQ_1 =   2022-11-20T19:34:46.762   2216497501.0
RECEIVE_FREQ_1 =   2022-11-20T19:34:57.302   2216497499.1
RECEIVE_FREQ_1 =   2022-11-20T19:34:57.302   2216497499.1
RECEIVE_FREQ_1 =   2022-11-20T19:35:07.843   2216497498.1
RECEIVE_FREQ_1 =   2022-11-20T19:35:18.384   2216497496.6
RECEIVE_FREQ_1 =   2022-11-20T19:35:39.466   2216497494.0
RECEIVE_FREQ_1 =   2022-11-20T19:35:49.920   2216497493.2
RECEIVE_FREQ_1 =   2022-11-20T19:36:00.461   2216497491.4
RECEIVE_FREQ_1 =   2022-11-20T19:36:21.542   2216497489.1
RECEIVE_FREQ_1 =   2022-11-20T19:37:03.706   2216497483.4
RECEIVE_FREQ_1 =   2022-11-20T19:37:24.787   2216497481.2
RECEIVE_FREQ_1 =   2022-11-20T19:37:45.869   2216497478.1
RECEIVE_FREQ_1 =   2022-11-20T19:38:06.864   2216497475.4
RECEIVE_FREQ_1 =   2022-11-20T19:38:27.859   2216497473.1
RECEIVE_FREQ_1 =   2022-11-20T19:38:48.941   2216497470.2
RECEIVE_FREQ_1 =   2022-11-20T19:39:09.936   2216497467.9
RECEIVE_FREQ_1 =   2022-11-20T19:39:20.477   2216497466.3
RECEIVE_FREQ_1 =   2022-11-20T19:39:30.931   2216497466.0
RECEIVE_FREQ_1 =   2022-11-20T19:40:02.467   2216497461.3
RECEIVE_FREQ_1 =   2022-11-20T19:40:23.462   2216497458.3
RECEIVE_FREQ_1 =   2022-11-20T19:40:34.003   2216497456.9
RECEIVE_FREQ_1 =   2022-11-20T19:40:55.085   2216497454.1
RECEIVE_FREQ_1 =   2022-11-20T19:41:37.853   2216497448.4
RECEIVE_FREQ_1 =   2022-11-20T19:42:20.275   2216497443.0
RECEIVE_FREQ_1 =   2022-11-20T19:42:30.816   2216497442.1
RECEIVE_FREQ_1 =   2022-11-20T19:42:41.443   2216497440.8
RECEIVE_FREQ_1 =   2022-11-20T19:42:51.984   2216497440.1
RECEIVE_FREQ_1 =   2022-11-20T19:43:13.066   2216497436.9
RECEIVE_FREQ_1 =   2022-11-20T19:43:45.120   2216497431.8
RECEIVE_FREQ_1 =   2022-11-20T19:43:55.661   2216497431.5
RECEIVE_FREQ_1 =   2022-11-20T19:44:06.288   2216497430.1
RECEIVE_FREQ_1 =   2022-11-20T19:44:27.456   2216497427.6
RECEIVE_FREQ_1 =   2022-11-20T19:44:37.997   2216497426.2
RECEIVE_FREQ_1 =   2022-11-20T19:46:02.150   2216497415.2
RECEIVE_FREQ_1 =   2022-11-20T19:48:50.544   2216497394.9
RECEIVE_FREQ_1 =   2022-11-20T19:50:14.611   2216497384.6
RECEIVE_FREQ_1 =   2022-11-20T19:50:25.066   2216497383.2
RECEIVE_FREQ_1 =   2022-11-20T19:50:35.606   2216497382.1
RECEIVE_FREQ_1 =   2022-11-20T19:50:56.688   2216497380.0
RECEIVE_FREQ_1 =   2022-11-20T19:50:56.688   2216497380.0
RECEIVE_FREQ_1 =   2022-11-20T19:51:07.229   2216497378.4
RECEIVE_FREQ_1 =   2022-11-20T19:51:17.683   2216497376.3
RECEIVE_FREQ_1 =   2022-11-20T19:51:28.224   2216497376.0
RECEIVE_FREQ_1 =   2022-11-20T19:51:38.765   2216497374.8
RECEIVE_FREQ_1 =   2022-11-20T19:51:49.306   2216497373.3
RECEIVE_FREQ_1 =   2022-11-20T19:51:59.846   2216497372.5
RECEIVE_FREQ_1 =   2022-11-20T19:52:10.474   2216497371.4
RECEIVE_FREQ_1 =   2022-11-20T19:52:31.814   2216497368.3
RECEIVE_FREQ_1 =   2022-11-20T19:53:03.869   2216497364.6
RECEIVE_FREQ_1 =   2022-11-20T19:53:14.496   2216497363.7
RECEIVE_FREQ_1 =   2022-11-20T19:54:17.654   2216497356.0
RECEIVE_FREQ_1 =   2022-11-20T19:54:28.195   2216497354.9
RECEIVE_FREQ_1 =   2022-11-20T19:54:59.645   2216497351.3
RECEIVE_FREQ_1 =   2022-11-20T19:55:20.640   2216497348.5
RECEIVE_FREQ_1 =   2022-11-20T19:55:31.181   2216497347.5
RECEIVE_FREQ_1 =   2022-11-20T19:55:52.262   2216497345.2
RECEIVE_FREQ_1 =   2022-11-20T19:56:13.258   2216497342.4
RECEIVE_FREQ_1 =   2022-11-20T19:56:55.507   2216497337.3
RECEIVE_FREQ_1 =   2022-11-20T19:57:27.389   2216497333.9
RECEIVE_FREQ_1 =   2022-11-20T19:58:30.806   2216497327.4
RECEIVE_FREQ_1 =   2022-11-20T19:58:51.802   2216497323.6
RECEIVE_FREQ_1 =   2022-11-20T19:59:54.960   2216497317.1
RECEIVE_FREQ_1 =   2022-11-20T20:00:36.950   2216497310.7
RECEIVE_FREQ_1 =   2022-11-20T20:01:18.941   2216497305.8
RECEIVE_FREQ_1 =   2022-11-20T20:04:18.307   2216497283.7
RECEIVE_FREQ_1 =   2022-11-20T20:04:28.934   2216497282.9
RECEIVE_FREQ_1 =   2022-11-20T20:04:50.102   2216497279.1
RECEIVE_FREQ_1 =   2022-11-20T20:05:00.643   2216497278.8
RECEIVE_FREQ_1 =   2022-11-20T20:05:32.093   2216497273.2
RECEIVE_FREQ_1 =   2022-11-20T20:05:53.088   2216497272.2
RECEIVE_FREQ_1 =   2022-11-20T20:06:45.446   2216497266.2
RECEIVE_FREQ_1 =   2022-11-20T20:07:17.414   2216497262.6
RECEIVE_FREQ_1 =   2022-11-20T20:07:28.214   2216497261.3
RECEIVE_FREQ_1 =   2022-11-20T20:07:38.755   2216497260.3
RECEIVE_FREQ_1 =   2022-11-20T20:09:13.882   2216497249.8
RECEIVE_FREQ_1 =   2022-11-20T20:10:27.754   2216497241.7
RECEIVE_FREQ_1 =   2022-11-20T20:10:38.381   2216497240.4
RECEIVE_FREQ_1 =   2022-11-20T20:11:31.085   2216497235.0
RECEIVE_FREQ_1 =   2022-11-20T20:12:02.621   2216497230.9
RECEIVE_FREQ_1 =   2022-11-20T20:12:23.616   2216497228.9
RECEIVE_FREQ_1 =   2022-11-20T20:12:34.070   2216497227.6
RECEIVE_FREQ_1 =   2022-11-20T20:12:44.525   2216497226.5
RECEIVE_FREQ_1 =   2022-11-20T20:13:05.520   2216497224.2
RECEIVE_FREQ_1 =   2022-11-20T20:13:26.602   2216497222.0
RECEIVE_FREQ_1 =   2022-11-20T20:13:58.138   2216497218.5
RECEIVE_FREQ_1 =   2022-11-20T20:14:08.592   2216497216.3
RECEIVE_FREQ_1 =   2022-11-20T20:15:01.296   2216497211.6
RECEIVE_FREQ_1 =   2022-11-20T20:15:12.010   2216497210.7
RECEIVE_FREQ_1 =   2022-11-20T20:15:33.264   2216497207.8
RECEIVE_FREQ_1 =   2022-11-20T20:16:26.054   2216497201.6
RECEIVE_FREQ_1 =   2022-11-20T20:17:39.754   2216497194.2
RECEIVE_FREQ_1 =   2022-11-20T20:18:00.835   2216497191.1
RECEIVE_FREQ_1 =   2022-11-20T20:18:21.917   2216497188.9
RECEIVE_FREQ_1 =   2022-11-20T20:19:35.702   2216497177.8
RECEIVE_FREQ_1 =   2022-11-20T20:19:56.698   2216497176.5
RECEIVE_FREQ_1 =   2022-11-20T20:22:03.014   2216497165.1
RECEIVE_FREQ_1 =   2022-11-20T20:22:55.632   2216497158.0
RECEIVE_FREQ_1 =   2022-11-20T20:23:37.622   2216497154.3
RECEIVE_FREQ_1 =   2022-11-20T20:24:51.235   2216497144.8
RECEIVE_FREQ_1 =   2022-11-20T20:25:12.403   2216497142.5
RECEIVE_FREQ_1 =   2022-11-20T20:25:23.117   2216497141.2
RECEIVE_FREQ_1 =   2022-11-20T20:25:44.458   2216497138.8
RECEIVE_FREQ_1 =   2022-11-20T20:25:54.998   2216497137.6
RECEIVE_FREQ_1 =   2022-11-20T20:26:05.539   2216497136.3
RECEIVE_FREQ_1 =   2022-11-20T20:26:26.707   2216497133.9
RECEIVE_FREQ_1 =   2022-11-20T20:26:47.702   2216497131.5
RECEIVE_FREQ_1 =   2022-11-20T20:27:19.325   2216497128.4
RECEIVE_FREQ_1 =   2022-11-20T20:28:01.574   2216497124.3
RECEIVE_FREQ_1 =   2022-11-20T20:28:12.029   2216497123.3
RECEIVE_FREQ_1 =   2022-11-20T20:28:33.024   2216497121.0
RECEIVE_FREQ_1 =   2022-11-20T20:28:53.933   2216497119.0
RECEIVE_FREQ_1 =   2022-11-20T20:29:15.014   2216497116.6
RECEIVE_FREQ_1 =   2022-11-20T20:29:25.469   2216497115.7
RECEIVE_FREQ_1 =   2022-11-20T20:29:36.010   2216497114.6
RECEIVE_FREQ_1 =   2022-11-20T20:29:46.550   2216497113.9
RECEIVE_FREQ_1 =   2022-11-20T20:30:18.173   2216497110.6
RECEIVE_FREQ_1 =   2022-11-20T20:30:28.714   2216497109.3
RECEIVE_FREQ_1 =   2022-11-20T20:31:00.336   2216497106.1
RECEIVE_FREQ_1 =   2022-11-20T20:32:03.494   2216497099.6
RECEIVE_FREQ_1 =   2022-11-20T20:32:35.030   2216497096.4
RECEIVE_FREQ_1 =   2022-11-20T20:32:45.571   2216497095.2
RECEIVE_FREQ_1 =   2022-11-20T20:32:56.026   2216497094.0
RECEIVE_FREQ_1 =   2022-11-20T20:33:06.566   2216497092.8
RECEIVE_FREQ_1 =   2022-11-20T20:33:06.566   2216497092.8
RECEIVE_FREQ_1 =   2022-11-20T20:33:27.562   2216497090.8
RECEIVE_FREQ_1 =   2022-11-20T20:33:38.016   2216497089.9
RECEIVE_FREQ_1 =   2022-11-20T20:33:48.557   2216497089.0
RECEIVE_FREQ_1 =   2022-11-20T20:33:59.098   2216497087.7
RECEIVE_FREQ_1 =   2022-11-20T20:34:09.638   2216497087.1
RECEIVE_FREQ_1 =   2022-11-20T20:34:20.093   2216497085.7
RECEIVE_FREQ_1 =   2022-11-20T20:35:23.338   2216497079.2
RECEIVE_FREQ_1 =   2022-11-20T20:37:08.746   2216497067.9
RECEIVE_FREQ_1 =   2022-11-20T20:37:19.200   2216497067.4
RECEIVE_FREQ_1 =   2022-11-20T20:38:32.726   2216497057.5
RECEIVE_FREQ_1 =   2022-11-20T20:39:14.803   2216497055.1
RECEIVE_FREQ_1 =   2022-11-20T20:39:25.344   2216497054.2
RECEIVE_FREQ_1 =   2022-11-20T20:39:46.339   2216497051.9
RECEIVE_FREQ_1 =   2022-11-20T20:39:56.880   2216497050.8
RECEIVE_FREQ_1 =   2022-11-20T20:40:28.330   2216497047.8
RECEIVE_FREQ_1 =   2022-11-20T20:40:38.870   2216497046.8
RECEIVE_FREQ_1 =   2022-11-20T20:40:49.325   2216497045.6
RECEIVE_FREQ_1 =   2022-11-20T20:40:59.866   2216497044.3
RECEIVE_FREQ_1 =   2022-11-20T20:41:20.947   2216497042.4
RECEIVE_FREQ_1 =   2022-11-20T20:42:03.024   2216497037.9
RECEIVE_FREQ_1 =   2022-11-20T20:42:24.106   2216497035.6
RECEIVE_FREQ_1 =   2022-11-20T20:43:16.723   2216497029.8
RECEIVE_FREQ_1 =   2022-11-20T20:43:27.178   2216497029.1
RECEIVE_FREQ_1 =   2022-11-20T20:43:37.718   2216497027.9
RECEIVE_FREQ_1 =   2022-11-20T20:43:48.346   2216497026.9
RECEIVE_FREQ_1 =   2022-11-20T20:44:09.254   2216497024.4
RECEIVE_FREQ_1 =   2022-11-20T20:44:19.795   2216497023.5
RECEIVE_FREQ_1 =   2022-11-20T20:44:30.336   2216497022.6
RECEIVE_FREQ_1 =   2022-11-20T20:44:40.790   2216497021.5
RECEIVE_FREQ_1 =   2022-11-20T20:44:51.331   2216497020.4
RECEIVE_FREQ_1 =   2022-11-20T20:45:12.413   2216497017.8
RECEIVE_FREQ_1 =   2022-11-20T20:45:22.954   2216497017.1
RECEIVE_FREQ_1 =   2022-11-20T20:45:33.408   2216497015.8
RECEIVE_FREQ_1 =   2022-11-20T20:45:43.862   2216497014.4
RECEIVE_FREQ_1 =   2022-11-20T20:45:54.403   2216497013.3
RECEIVE_FREQ_1 =   2022-11-20T20:46:04.858   2216497012.5
RECEIVE_FREQ_1 =   2022-11-20T20:46:15.398   2216497011.4
RECEIVE_FREQ_1 =   2022-11-20T20:46:25.853   2216497010.3
RECEIVE_FREQ_1 =   2022-11-20T20:46:36.394   2216497009.5
RECEIVE_FREQ_1 =   2022-11-20T20:46:57.475   2216497007.2
RECEIVE_FREQ_1 =   2022-11-20T20:47:07.930   2216497006.2
RECEIVE_FREQ_1 =   2022-11-20T20:47:18.470   2216497004.9
RECEIVE_FREQ_1 =   2022-11-20T20:47:28.925   2216497004.0
RECEIVE_FREQ_1 =   2022-11-20T20:47:39.466   2216497002.9
RECEIVE_FREQ_1 =   2022-11-20T20:47:50.093   2216497001.9
RECEIVE_FREQ_1 =   2022-11-20T20:48:11.174   2216497000.0
RECEIVE_FREQ_1 =   2022-11-20T20:48:21.629   2216496999.0
RECEIVE_FREQ_1 =   2022-11-20T20:48:32.170   2216496998.3
RECEIVE_FREQ_1 =   2022-11-20T20:48:42.797   2216496997.2
RECEIVE_FREQ_1 =   2022-11-20T20:48:53.424   2216496996.2
RECEIVE_FREQ_1 =   2022-11-20T20:49:03.965   2216496995.4
RECEIVE_FREQ_1 =   2022-11-20T20:49:14.506   2216496994.3
RECEIVE_FREQ_1 =   2022-11-20T20:49:25.046   2216496993.3
RECEIVE_FREQ_1 =   2022-11-20T20:49:35.501   2216496992.5
RECEIVE_FREQ_1 =   2022-11-20T20:49:45.955   2216496991.5
RECEIVE_FREQ_1 =   2022-11-20T20:49:56.496   2216496990.1
RECEIVE_FREQ_1 =   2022-11-20T20:50:06.950   2216496989.4
RECEIVE_FREQ_1 =   2022-11-20T20:50:17.578   2216496988.3
RECEIVE_FREQ_1 =   2022-11-20T20:50:28.118   2216496987.6
RECEIVE_FREQ_1 =   2022-11-20T20:50:49.200   2216496985.5
RECEIVE_FREQ_1 =   2022-11-20T20:50:59.741   2216496984.5
RECEIVE_FREQ_1 =   2022-11-20T20:51:10.282   2216496983.6
RECEIVE_FREQ_1 =   2022-11-20T20:51:20.822   2216496982.9
RECEIVE_FREQ_1 =   2022-11-20T20:51:31.363   2216496981.7
RECEIVE_FREQ_1 =   2022-11-20T20:51:41.904   2216496980.6
RECEIVE_FREQ_1 =   2022-11-20T20:51:52.531   2216496979.6
RECEIVE_FREQ_1 =   2022-11-20T20:52:03.072   2216496978.6
RECEIVE_FREQ_1 =   2022-11-20T20:52:24.067   2216496977.0
RECEIVE_FREQ_1 =   2022-11-20T20:52:34.522   2216496975.9
RECEIVE_FREQ_1 =   2022-11-20T20:52:55.517   2216496974.0
RECEIVE_FREQ_1 =   2022-11-20T20:53:16.512   2216496971.9
RECEIVE_FREQ_1 =   2022-11-20T20:53:27.053   2216496971.1
RECEIVE_FREQ_1 =   2022-11-20T20:53:37.594   2216496970.0
RECEIVE_FREQ_1 =   2022-11-20T20:53:48.134   2216496969.0
RECEIVE_FREQ_1 =   2022-11-20T20:53:58.589   2216496967.9
RECEIVE_FREQ_1 =   2022-11-20T20:54:09.130   2216496967.0
RECEIVE_FREQ_1 =   2022-11-20T20:54:19.670   2216496966.3
RECEIVE_FREQ_1 =   2022-11-20T20:54:40.838   2216496964.0
RECEIVE_FREQ_1 =   2022-11-20T20:54:51.293   2216496963.1
RECEIVE_FREQ_1 =   2022-11-20T20:54:51.293   2216496963.1
RECEIVE_FREQ_1 =   2022-11-20T20:55:01.747   2216496962.3
RECEIVE_FREQ_1 =   2022-11-20T20:55:12.288   2216496961.1
RECEIVE_FREQ_1 =   2022-11-20T20:55:22.915   2216496960.2
RECEIVE_FREQ_1 =   2022-11-20T20:55:33.370   2216496959.2
RECEIVE_FREQ_1 =   2022-11-20T20:55:54.451   2216496957.4
RECEIVE_FREQ_1 =   2022-11-20T20:56:04.992   2216496956.4
RECEIVE_FREQ_1 =   2022-11-20T20:56:15.446   2216496955.5
RECEIVE_FREQ_1 =   2022-11-20T20:56:25.987   2216496954.4
RECEIVE_FREQ_1 =   2022-11-20T20:56:36.442   2216496953.5
RECEIVE_FREQ_1 =   2022-11-20T20:56:47.069   2216496952.5
RECEIVE_FREQ_1 =   2022-11-20T20:56:57.610   2216496951.5
RECEIVE_FREQ_1 =   2022-11-20T20:57:18.605   2216496949.6
RECEIVE_FREQ_1 =   2022-11-20T20:57:29.059   2216496948.5
RECEIVE_FREQ_1 =   2022-11-20T20:57:39.600   2216496947.7
RECEIVE_FREQ_1 =   2022-11-20T20:57:50.054   2216496946.6
RECEIVE_FREQ_1 =   2022-11-20T20:58:00.595   2216496945.9
RECEIVE_FREQ_1 =   2022-11-20T20:58:11.136   2216496944.8
RECEIVE_FREQ_1 =   2022-11-20T20:58:21.677   2216496943.9
RECEIVE_FREQ_1 =   2022-11-20T20:58:32.131   2216496942.8
RECEIVE_FREQ_1 =   2022-11-20T20:58:42.586   2216496941.8
RECEIVE_FREQ_1 =   2022-11-20T20:58:53.126   2216496940.6
RECEIVE_FREQ_1 =   2022-11-20T20:59:03.667   2216496939.7
RECEIVE_FREQ_1 =   2022-11-20T20:59:14.208   2216496938.8
RECEIVE_FREQ_1 =   2022-11-20T20:59:24.749   2216496938.0
RECEIVE_FREQ_1 =   2022-11-20T20:59:35.290   2216496936.9
RECEIVE_FREQ_1 =   2022-11-20T20:59:45.830   2216496935.6
RECEIVE_FREQ_1 =   2022-11-20T20:59:56.285   2216496934.7
RECEIVE_FREQ_1 =   2022-11-20T21:00:06.826   2216496933.7
RECEIVE_FREQ_1 =   2022-11-20T21:00:17.280   2216496932.9
RECEIVE_FREQ_1 =   2022-11-20T21:00:27.821   2216496932.0
RECEIVE_FREQ_1 =   2022-11-20T21:01:10.330   2216496927.9
RECEIVE_FREQ_1 =   2022-11-20T21:01:20.957   2216496926.9
RECEIVE_FREQ_1 =   2022-11-20T21:01:31.670   2216496925.9
RECEIVE_FREQ_1 =   2022-11-20T21:01:42.211   2216496924.8
RECEIVE_FREQ_1 =   2022-11-20T21:02:03.379   2216496922.8
RECEIVE_FREQ_1 =   2022-11-20T21:02:13.920   2216496921.8
RECEIVE_FREQ_1 =   2022-11-20T21:02:24.374   2216496921.2
RECEIVE_FREQ_1 =   2022-11-20T21:02:45.370   2216496919.3
RECEIVE_FREQ_1 =   2022-11-20T21:02:55.824   2216496918.0
RECEIVE_FREQ_1 =   2022-11-20T21:03:06.365   2216496917.0
RECEIVE_FREQ_1 =   2022-11-20T21:03:16.819   2216496916.2
RECEIVE_FREQ_1 =   2022-11-20T21:03:27.360   2216496915.2
RECEIVE_FREQ_1 =   2022-11-20T21:03:37.814   2216496914.3
RECEIVE_FREQ_1 =   2022-11-20T21:03:48.269   2216496913.1
RECEIVE_FREQ_1 =   2022-11-20T21:03:58.723   2216496912.1
RECEIVE_FREQ_1 =   2022-11-20T21:04:09.264   2216496911.0
RECEIVE_FREQ_1 =   2022-11-20T21:04:19.718   2216496910.1
RECEIVE_FREQ_1 =   2022-11-20T21:04:30.259   2216496909.5
RECEIVE_FREQ_1 =   2022-11-20T21:05:12.250   2216496905.3
RECEIVE_FREQ_1 =   2022-11-20T21:05:33.245   2216496903.3
RECEIVE_FREQ_1 =   2022-11-20T21:05:43.699   2216496902.4
RECEIVE_FREQ_1 =   2022-11-20T21:05:54.240   2216496901.2
RECEIVE_FREQ_1 =   2022-11-20T21:06:04.781   2216496900.2
RECEIVE_FREQ_1 =   2022-11-20T21:06:46.771   2216496896.9
RECEIVE_FREQ_1 =   2022-11-20T21:07:39.302   2216496891.4
RECEIVE_FREQ_1 =   2022-11-20T21:08:00.384   2216496889.7
RECEIVE_FREQ_1 =   2022-11-20T21:08:10.925   2216496888.4
RECEIVE_FREQ_1 =   2022-11-20T14:23:46.435   2216499795.63
RECEIVE_FREQ_1 =   2022-11-20T14:23:56.890   2216499794.73
RECEIVE_FREQ_1 =   2022-11-20T14:24:07.430   2216499793.93
RECEIVE_FREQ_1 =   2022-11-20T14:24:28.339   2216499792.33
RECEIVE_FREQ_1 =   2022-11-20T14:24:38.794   2216499791.63
RECEIVE_FREQ_1 =   2022-11-20T14:24:49.334   2216499790.63
RECEIVE_FREQ_1 =   2022-11-20T14:24:59.789   2216499789.63
RECEIVE_FREQ_1 =   2022-11-20T14:25:10.243   2216499788.93
RECEIVE_FREQ_1 =   2022-11-20T14:25:20.784   2216499788.03
RECEIVE_FREQ_1 =   2022-11-20T14:25:31.325   2216499787.03
RECEIVE_FREQ_1 =   2022-11-20T14:25:52.320   2216499785.83
RECEIVE_FREQ_1 =   2022-11-20T14:26:02.861   2216499784.73
RECEIVE_FREQ_1 =   2022-11-20T14:26:13.315   2216499783.83
RECEIVE_FREQ_1 =   2022-11-20T14:26:23.856   2216499783.13
RECEIVE_FREQ_1 =   2022-11-20T14:26:34.397   2216499782.23
RECEIVE_FREQ_1 =   2022-11-20T14:26:55.392   2216499780.53
RECEIVE_FREQ_1 =   2022-11-20T14:27:05.846   2216499779.63
RECEIVE_FREQ_1 =   2022-11-20T14:27:26.755   2216499777.93
RECEIVE_FREQ_1 =   2022-11-20T14:27:37.296   2216499777.13
RECEIVE_FREQ_1 =   2022-11-20T14:27:47.750   2216499776.63
RECEIVE_FREQ_1 =   2022-11-20T14:27:58.291   2216499775.53
RECEIVE_FREQ_1 =   2022-11-20T14:28:19.286   2216499774.33
RECEIVE_FREQ_1 =   2022-11-20T14:28:29.827   2216499773.73
RECEIVE_FREQ_1 =   2022-11-20T14:28:40.282   2216499773.03
RECEIVE_FREQ_1 =   2022-11-20T14:28:50.822   2216499772.13
RECEIVE_FREQ_1 =   2022-11-20T14:29:01.277   2216499771.53
RECEIVE_FREQ_1 =   2022-11-20T14:29:11.818   2216499770.53
RECEIVE_FREQ_1 =   2022-11-20T14:29:22.272   2216499770.03
RECEIVE_FREQ_1 =   2022-11-20T14:29:43.267   2216499768.43
RECEIVE_FREQ_1 =   2022-11-20T14:29:53.808   2216499767.73
RECEIVE_FREQ_1 =   2022-11-20T14:30:04.349   2216499766.83
RECEIVE_FREQ_1 =   2022-11-20T14:30:14.890   2216499766.63
RECEIVE_FREQ_1 =   2022-11-20T14:30:25.344   2216499765.63
RECEIVE_FREQ_1 =   2022-11-20T14:30:35.885   2216499764.73
RECEIVE_FREQ_1 =   2022-11-20T14:30:46.426   2216499764.03
RECEIVE_FREQ_1 =   2022-11-20T14:30:56.966   2216499763.43
RECEIVE_FREQ_1 =   2022-11-20T14:31:07.421   2216499762.43
RECEIVE_FREQ_1 =   2022-11-20T14:31:17.875   2216499761.63
RECEIVE_FREQ_1 =   2022-11-20T14:31:28.416   2216499760.83
RECEIVE_FREQ_1 =   2022-11-20T14:31:38.957   2216499760.03
RECEIVE_FREQ_1 =   2022-11-20T14:31:49.411   2216499759.53
RECEIVE_FREQ_1 =   2022-11-20T14:31:59.952   2216499758.63
RECEIVE_FREQ_1 =   2022-11-20T14:32:10.406   2216499757.93
RECEIVE_FREQ_1 =   2022-11-20T14:32:20.947   2216499757.03
RECEIVE_FREQ_1 =   2022-11-20T14:32:31.488   2216499756.23
RECEIVE_FREQ_1 =   2022-11-20T14:32:41.942   2216499755.53
RECEIVE_FREQ_1 =   2022-11-20T14:32:52.397   2216499754.73
RECEIVE_FREQ_1 =   2022-11-20T14:33:02.938   2216499753.93
RECEIVE_FREQ_1 =   2022-11-20T14:33:13.392   2216499752.93
