nasa/2022-11-18_2022-156A_ScottTilley.tdm

CCSDS_TDM_VERS = 2.0
COMMENT TDM ARTEMIS 1 Doppler data by Scott Tilley for 2022-11-18 UTC
COMMENT Signal not demodulated, to low of SNR, centre carrier integrated in 10s by 0.1Hz bin and extracted for peak value.
CREATION_DATE = 2022-11-20T02:54:52Z
ORIGINATOR = SCOTT TILLEY

META_START
COMMENT 
COMMENT 
SYSTEM TIME = UTC
PARTICIPANT_1 = COSPAR 8049
PARTICIPANT_2 = 2022-156A
MODE = SEQUENTIAL
PATH = 2,1
INTEGRATION_INTERVAL = 10
INTEGRATION_REF = MIDDLE
FREQ_OFFSET = 0
TRANSMIT_DELAY_1 = 0
RECEIVE_DELAY_1 = 0
DATA_QUALITY = RAW
META_STOP

DATA_START
COMMENT TRANSMIT_FREQ_2 is spacecraft downlink provided by NASA
TRANSMIT_FREQ_2 = 2216500000.000
RECEIVE_FREQ_1 =   2022-11-18T13:27:51.869   2216495821.2
RECEIVE_FREQ_1 =   2022-11-18T13:28:01.891   2216495820.8
RECEIVE_FREQ_1 =   2022-11-18T13:28:11.914   2216495820.6
RECEIVE_FREQ_1 =   2022-11-18T13:28:21.850   2216495820.3
RECEIVE_FREQ_1 =   2022-11-18T13:28:31.872   2216495820.1
RECEIVE_FREQ_1 =   2022-11-18T13:28:41.894   2216495819.6
RECEIVE_FREQ_1 =   2022-11-18T13:28:51.830   2216495819.4
RECEIVE_FREQ_1 =   2022-11-18T13:29:01.853   2216495819.1
RECEIVE_FREQ_1 =   2022-11-18T13:29:11.875   2216495818.8
RECEIVE_FREQ_1 =   2022-11-18T13:29:21.898   2216495818.3
RECEIVE_FREQ_1 =   2022-11-18T13:29:31.920   2216495818.3
RECEIVE_FREQ_1 =   2022-11-18T13:29:41.856   2216495817.9
RECEIVE_FREQ_1 =   2022-11-18T13:29:51.878   2216495817.7
RECEIVE_FREQ_1 =   2022-11-18T13:30:01.901   2216495817.4
RECEIVE_FREQ_1 =   2022-11-18T13:30:11.837   2216495817.1
RECEIVE_FREQ_1 =   2022-11-18T13:30:21.859   2216495816.7
RECEIVE_FREQ_1 =   2022-11-18T13:30:31.882   2216495816.4
RECEIVE_FREQ_1 =   2022-11-18T13:30:41.904   2216495816.2
RECEIVE_FREQ_1 =   2022-11-18T13:30:51.840   2216495815.7
RECEIVE_FREQ_1 =   2022-11-18T13:31:01.862   2216495815.3
RECEIVE_FREQ_1 =   2022-11-18T13:31:11.885   2216495815.1
RECEIVE_FREQ_1 =   2022-11-18T13:31:21.821   2216495814.8
RECEIVE_FREQ_1 =   2022-11-18T13:31:31.843   2216495814.5
RECEIVE_FREQ_1 =   2022-11-18T13:31:41.866   2216495814.2
RECEIVE_FREQ_1 =   2022-11-18T13:31:51.888   2216495813.7
RECEIVE_FREQ_1 =   2022-11-18T13:32:01.910   2216495813.4
RECEIVE_FREQ_1 =   2022-11-18T13:32:21.869   2216495812.7
RECEIVE_FREQ_1 =   2022-11-18T13:32:31.891   2216495812.5
RECEIVE_FREQ_1 =   2022-11-18T13:32:41.914   2216495811.9
RECEIVE_FREQ_1 =   2022-11-18T13:33:01.872   2216495811.5
RECEIVE_FREQ_1 =   2022-11-18T13:33:11.894   2216495811.0
RECEIVE_FREQ_1 =   2022-11-18T13:34:01.834   2216495809.1
RECEIVE_FREQ_1 =   2022-11-18T13:34:11.856   2216495808.8
RECEIVE_FREQ_1 =   2022-11-18T13:34:21.878   2216495808.7
RECEIVE_FREQ_1 =   2022-11-18T13:34:31.901   2216495808.2
RECEIVE_FREQ_1 =   2022-11-18T13:34:41.837   2216495807.8
RECEIVE_FREQ_1 =   2022-11-18T13:34:51.859   2216495807.4
RECEIVE_FREQ_1 =   2022-11-18T13:35:01.882   2216495807.1
RECEIVE_FREQ_1 =   2022-11-18T13:35:11.904   2216495806.7
RECEIVE_FREQ_1 =   2022-11-18T13:35:21.840   2216495806.3
RECEIVE_FREQ_1 =   2022-11-18T13:35:31.862   2216495805.7
RECEIVE_FREQ_1 =   2022-11-18T13:35:41.885   2216495805.5
RECEIVE_FREQ_1 =   2022-11-18T13:35:51.907   2216495805.0
RECEIVE_FREQ_1 =   2022-11-18T13:36:01.843   2216495804.8
RECEIVE_FREQ_1 =   2022-11-18T13:36:11.866   2216495804.4
RECEIVE_FREQ_1 =   2022-11-18T13:36:21.888   2216495803.9
RECEIVE_FREQ_1 =   2022-11-18T13:36:31.824   2216495803.4
RECEIVE_FREQ_1 =   2022-11-18T13:36:41.846   2216495803.1
RECEIVE_FREQ_1 =   2022-11-18T13:37:01.891   2216495802.3
RECEIVE_FREQ_1 =   2022-11-18T13:37:11.827   2216495801.8
RECEIVE_FREQ_1 =   2022-11-18T13:37:31.872   2216495801.2
RECEIVE_FREQ_1 =   2022-11-18T13:37:41.894   2216495800.8
RECEIVE_FREQ_1 =   2022-11-18T13:37:51.917   2216495800.1
RECEIVE_FREQ_1 =   2022-11-18T13:38:01.853   2216495799.7
RECEIVE_FREQ_1 =   2022-11-18T13:38:11.875   2216495799.3
RECEIVE_FREQ_1 =   2022-11-18T13:38:21.898   2216495798.9
RECEIVE_FREQ_1 =   2022-11-18T13:38:31.834   2216495798.6
RECEIVE_FREQ_1 =   2022-11-18T13:38:41.856   2216495798.0
RECEIVE_FREQ_1 =   2022-11-18T13:38:51.878   2216495797.7
RECEIVE_FREQ_1 =   2022-11-18T13:39:01.901   2216495797.2
RECEIVE_FREQ_1 =   2022-11-18T13:39:11.837   2216495796.7
RECEIVE_FREQ_1 =   2022-11-18T13:39:21.859   2216495796.4
RECEIVE_FREQ_1 =   2022-11-18T13:39:31.882   2216495796.0
RECEIVE_FREQ_1 =   2022-11-18T13:39:41.904   2216495795.6
RECEIVE_FREQ_1 =   2022-11-18T13:39:51.840   2216495795.0
RECEIVE_FREQ_1 =   2022-11-18T13:40:01.862   2216495794.7
RECEIVE_FREQ_1 =   2022-11-18T13:40:11.885   2216495794.4
RECEIVE_FREQ_1 =   2022-11-18T13:40:21.821   2216495793.8
RECEIVE_FREQ_1 =   2022-11-18T13:40:31.843   2216495793.3
RECEIVE_FREQ_1 =   2022-11-18T13:40:41.866   2216495792.7
RECEIVE_FREQ_1 =   2022-11-18T13:40:51.888   2216495792.3
RECEIVE_FREQ_1 =   2022-11-18T13:41:01.824   2216495791.8
RECEIVE_FREQ_1 =   2022-11-18T13:41:11.846   2216495791.5
RECEIVE_FREQ_1 =   2022-11-18T13:41:21.869   2216495791.1
RECEIVE_FREQ_1 =   2022-11-18T13:41:31.891   2216495790.4
RECEIVE_FREQ_1 =   2022-11-18T13:41:41.827   2216495790.0
RECEIVE_FREQ_1 =   2022-11-18T13:41:51.850   2216495789.4
RECEIVE_FREQ_1 =   2022-11-18T13:42:01.872   2216495789.0
RECEIVE_FREQ_1 =   2022-11-18T13:42:11.894   2216495788.6
RECEIVE_FREQ_1 =   2022-11-18T13:42:21.830   2216495788.2
RECEIVE_FREQ_1 =   2022-11-18T13:42:31.853   2216495787.5
RECEIVE_FREQ_1 =   2022-11-18T13:42:41.875   2216495787.3
RECEIVE_FREQ_1 =   2022-11-18T13:42:51.898   2216495786.7
RECEIVE_FREQ_1 =   2022-11-18T13:43:01.834   2216495786.1
RECEIVE_FREQ_1 =   2022-11-18T13:43:11.856   2216495785.7
RECEIVE_FREQ_1 =   2022-11-18T13:43:21.878   2216495785.4
RECEIVE_FREQ_1 =   2022-11-18T13:43:31.901   2216495784.5
RECEIVE_FREQ_1 =   2022-11-18T13:43:41.837   2216495784.2
RECEIVE_FREQ_1 =   2022-11-18T13:43:51.859   2216495783.6
RECEIVE_FREQ_1 =   2022-11-18T13:44:01.882   2216495783.3
RECEIVE_FREQ_1 =   2022-11-18T13:44:11.818   2216495782.7
RECEIVE_FREQ_1 =   2022-11-18T13:44:21.840   2216495782.2
RECEIVE_FREQ_1 =   2022-11-18T13:44:31.862   2216495781.7
RECEIVE_FREQ_1 =   2022-11-18T13:44:41.885   2216495781.1
RECEIVE_FREQ_1 =   2022-11-18T13:44:51.821   2216495780.6
RECEIVE_FREQ_1 =   2022-11-18T13:45:01.843   2216495780.1
RECEIVE_FREQ_1 =   2022-11-18T13:45:11.866   2216495779.5
RECEIVE_FREQ_1 =   2022-11-18T13:45:21.888   2216495779.2
RECEIVE_FREQ_1 =   2022-11-18T13:45:31.824   2216495778.8
RECEIVE_FREQ_1 =   2022-11-18T13:45:41.846   2216495778.0
RECEIVE_FREQ_1 =   2022-11-18T13:45:51.869   2216495777.4
RECEIVE_FREQ_1 =   2022-11-18T13:46:01.891   2216495777.1
RECEIVE_FREQ_1 =   2022-11-18T13:46:11.827   2216495776.6
RECEIVE_FREQ_1 =   2022-11-18T13:46:21.850   2216495775.9
RECEIVE_FREQ_1 =   2022-11-18T13:46:31.872   2216495775.3
RECEIVE_FREQ_1 =   2022-11-18T13:46:41.894   2216495775.1
RECEIVE_FREQ_1 =   2022-11-18T13:46:51.830   2216495774.5
RECEIVE_FREQ_1 =   2022-11-18T13:47:01.853   2216495773.8
RECEIVE_FREQ_1 =   2022-11-18T13:47:11.875   2216495773.1
RECEIVE_FREQ_1 =   2022-11-18T13:47:21.898   2216495773.1
RECEIVE_FREQ_1 =   2022-11-18T13:47:31.834   2216495772.3
RECEIVE_FREQ_1 =   2022-11-18T13:47:41.856   2216495772.1
RECEIVE_FREQ_1 =   2022-11-18T13:47:51.878   2216495771.5
RECEIVE_FREQ_1 =   2022-11-18T13:48:01.901   2216495771.3
RECEIVE_FREQ_1 =   2022-11-18T13:48:11.837   2216495770.9
RECEIVE_FREQ_1 =   2022-11-18T13:48:21.859   2216495770.3
RECEIVE_FREQ_1 =   2022-11-18T13:48:31.882   2216495770.2
RECEIVE_FREQ_1 =   2022-11-18T13:48:41.904   2216495769.7
RECEIVE_FREQ_1 =   2022-11-18T13:48:51.840   2216495769.3
RECEIVE_FREQ_1 =   2022-11-18T13:49:01.862   2216495768.7
RECEIVE_FREQ_1 =   2022-11-18T13:49:11.885   2216495768.5
RECEIVE_FREQ_1 =   2022-11-18T13:49:21.907   2216495767.8
RECEIVE_FREQ_1 =   2022-11-18T13:49:31.843   2216495767.4
RECEIVE_FREQ_1 =   2022-11-18T13:49:41.866   2216495767.2
RECEIVE_FREQ_1 =   2022-11-18T13:49:51.888   2216495766.6
RECEIVE_FREQ_1 =   2022-11-18T13:50:01.910   2216495766.1
RECEIVE_FREQ_1 =   2022-11-18T13:50:11.846   2216495765.9
RECEIVE_FREQ_1 =   2022-11-18T13:50:21.869   2216495765.3
RECEIVE_FREQ_1 =   2022-11-18T13:50:41.827   2216495764.4
RECEIVE_FREQ_1 =   2022-11-18T13:50:51.850   2216495763.8
RECEIVE_FREQ_1 =   2022-11-18T13:51:01.872   2216495763.6
RECEIVE_FREQ_1 =   2022-11-18T13:51:21.830   2216495762.5
RECEIVE_FREQ_1 =   2022-11-18T13:51:31.853   2216495762.2
RECEIVE_FREQ_1 =   2022-11-18T13:51:41.875   2216495761.7
RECEIVE_FREQ_1 =   2022-11-18T13:51:51.898   2216495761.1
RECEIVE_FREQ_1 =   2022-11-18T13:52:01.834   2216495760.6
RECEIVE_FREQ_1 =   2022-11-18T13:52:11.856   2216495760.1
RECEIVE_FREQ_1 =   2022-11-18T13:52:21.878   2216495759.8
RECEIVE_FREQ_1 =   2022-11-18T13:52:31.901   2216495759.3
RECEIVE_FREQ_1 =   2022-11-18T13:52:41.837   2216495758.8
RECEIVE_FREQ_1 =   2022-11-18T13:52:51.859   2216495758.5
RECEIVE_FREQ_1 =   2022-11-18T13:53:01.882   2216495757.9
RECEIVE_FREQ_1 =   2022-11-18T13:53:11.904   2216495757.3
RECEIVE_FREQ_1 =   2022-11-18T13:53:21.840   2216495756.8
RECEIVE_FREQ_1 =   2022-11-18T13:53:31.862   2216495756.4
RECEIVE_FREQ_1 =   2022-11-18T13:53:41.885   2216495755.9
RECEIVE_FREQ_1 =   2022-11-18T13:53:51.907   2216495755.4
RECEIVE_FREQ_1 =   2022-11-18T13:54:01.843   2216495754.9
RECEIVE_FREQ_1 =   2022-11-18T13:54:11.866   2216495754.5
RECEIVE_FREQ_1 =   2022-11-18T13:54:21.888   2216495754.1
RECEIVE_FREQ_1 =   2022-11-18T13:54:31.824   2216495753.5
RECEIVE_FREQ_1 =   2022-11-18T13:54:41.846   2216495753.0
RECEIVE_FREQ_1 =   2022-11-18T13:54:51.869   2216495752.5
RECEIVE_FREQ_1 =   2022-11-18T13:55:11.914   2216495751.4
RECEIVE_FREQ_1 =   2022-11-18T13:55:21.850   2216495750.8
RECEIVE_FREQ_1 =   2022-11-18T13:55:31.872   2216495750.4
RECEIVE_FREQ_1 =   2022-11-18T13:55:41.894   2216495749.9
RECEIVE_FREQ_1 =   2022-11-18T13:55:51.917   2216495749.3
RECEIVE_FREQ_1 =   2022-11-18T13:56:21.898   2216495747.9
RECEIVE_FREQ_1 =   2022-11-18T13:56:31.834   2216495747.3
RECEIVE_FREQ_1 =   2022-11-18T13:56:41.856   2216495746.9
RECEIVE_FREQ_1 =   2022-11-18T13:56:51.878   2216495746.3
RECEIVE_FREQ_1 =   2022-11-18T13:57:31.882   2216495744.2
RECEIVE_FREQ_1 =   2022-11-18T13:58:21.907   2216495741.4
RECEIVE_FREQ_1 =   2022-11-18T13:58:31.843   2216495740.9
RECEIVE_FREQ_1 =   2022-11-18T13:59:01.910   2216495739.2
RECEIVE_FREQ_1 =   2022-11-18T13:59:11.846   2216495738.6
RECEIVE_FREQ_1 =   2022-11-18T13:59:21.869   2216495738.2
RECEIVE_FREQ_1 =   2022-11-18T13:59:31.891   2216495737.4
RECEIVE_FREQ_1 =   2022-11-18T13:59:41.914   2216495737.0
RECEIVE_FREQ_1 =   2022-11-18T13:59:51.850   2216495736.5
RECEIVE_FREQ_1 =   2022-11-18T14:00:01.872   2216495735.6
RECEIVE_FREQ_1 =   2022-11-18T14:00:11.894   2216495735.1
RECEIVE_FREQ_1 =   2022-11-18T14:00:21.830   2216495734.6
RECEIVE_FREQ_1 =   2022-11-18T14:00:31.853   2216495734.1
RECEIVE_FREQ_1 =   2022-11-18T14:00:41.875   2216495733.1
RECEIVE_FREQ_1 =   2022-11-18T14:00:51.898   2216495732.9
RECEIVE_FREQ_1 =   2022-11-18T14:01:01.834   2216495732.2
RECEIVE_FREQ_1 =   2022-11-18T14:01:11.856   2216495731.7
RECEIVE_FREQ_1 =   2022-11-18T14:01:21.878   2216495731.4
RECEIVE_FREQ_1 =   2022-11-18T14:01:31.901   2216495730.3
RECEIVE_FREQ_1 =   2022-11-18T14:01:41.837   2216495730.0
RECEIVE_FREQ_1 =   2022-11-18T14:01:51.859   2216495729.4
RECEIVE_FREQ_1 =   2022-11-18T14:02:01.882   2216495728.6
RECEIVE_FREQ_1 =   2022-11-18T14:02:11.904   2216495728.3
RECEIVE_FREQ_1 =   2022-11-18T14:02:21.840   2216495727.6
RECEIVE_FREQ_1 =   2022-11-18T14:02:31.862   2216495726.8
RECEIVE_FREQ_1 =   2022-11-18T14:02:41.885   2216495726.5
RECEIVE_FREQ_1 =   2022-11-18T14:02:51.907   2216495725.7
RECEIVE_FREQ_1 =   2022-11-18T14:03:01.843   2216495724.9
RECEIVE_FREQ_1 =   2022-11-18T14:03:11.866   2216495724.6
RECEIVE_FREQ_1 =   2022-11-18T14:03:31.910   2216495723.3
RECEIVE_FREQ_1 =   2022-11-18T14:03:51.869   2216495721.9
RECEIVE_FREQ_1 =   2022-11-18T14:04:11.914   2216495720.7
RECEIVE_FREQ_1 =   2022-11-18T14:04:21.850   2216495720.0
RECEIVE_FREQ_1 =   2022-11-18T14:04:31.872   2216495719.6
RECEIVE_FREQ_1 =   2022-11-18T14:04:41.894   2216495718.8
RECEIVE_FREQ_1 =   2022-11-18T14:04:51.830   2216495718.4
RECEIVE_FREQ_1 =   2022-11-18T14:05:01.853   2216495717.4
RECEIVE_FREQ_1 =   2022-11-18T14:05:11.875   2216495717.0
RECEIVE_FREQ_1 =   2022-11-18T14:05:21.898   2216495716.4
RECEIVE_FREQ_1 =   2022-11-18T14:05:31.834   2216495715.8
RECEIVE_FREQ_1 =   2022-11-18T14:05:41.856   2216495715.0
RECEIVE_FREQ_1 =   2022-11-18T14:05:51.878   2216495714.2
RECEIVE_FREQ_1 =   2022-11-18T14:06:01.901   2216495713.6
RECEIVE_FREQ_1 =   2022-11-18T14:06:11.837   2216495713.1
RECEIVE_FREQ_1 =   2022-11-18T14:06:21.859   2216495712.3
RECEIVE_FREQ_1 =   2022-11-18T14:06:31.882   2216495711.6
RECEIVE_FREQ_1 =   2022-11-18T14:06:41.904   2216495711.1
RECEIVE_FREQ_1 =   2022-11-18T14:06:51.840   2216495710.3
RECEIVE_FREQ_1 =   2022-11-18T14:07:01.862   2216495709.7
RECEIVE_FREQ_1 =   2022-11-18T14:07:11.885   2216495709.1
RECEIVE_FREQ_1 =   2022-11-18T14:07:21.907   2216495708.6
RECEIVE_FREQ_1 =   2022-11-18T14:07:31.843   2216495707.9
RECEIVE_FREQ_1 =   2022-11-18T14:07:41.866   2216495707.5
RECEIVE_FREQ_1 =   2022-11-18T14:07:51.888   2216495707.0
RECEIVE_FREQ_1 =   2022-11-18T14:08:01.910   2216495706.5
RECEIVE_FREQ_1 =   2022-11-18T14:08:11.846   2216495705.9
RECEIVE_FREQ_1 =   2022-11-18T14:08:21.869   2216495705.3
RECEIVE_FREQ_1 =   2022-11-18T14:08:31.891   2216495704.8
RECEIVE_FREQ_1 =   2022-11-18T14:08:41.914   2216495704.2
RECEIVE_FREQ_1 =   2022-11-18T14:08:51.850   2216495703.8
RECEIVE_FREQ_1 =   2022-11-18T14:09:01.872   2216495703.1
RECEIVE_FREQ_1 =   2022-11-18T14:09:11.894   2216495702.8
RECEIVE_FREQ_1 =   2022-11-18T14:09:21.917   2216495702.0
RECEIVE_FREQ_1 =   2022-11-18T14:09:31.853   2216495701.4
RECEIVE_FREQ_1 =   2022-11-18T14:09:41.875   2216495701.1
RECEIVE_FREQ_1 =   2022-11-18T14:09:51.898   2216495700.6
RECEIVE_FREQ_1 =   2022-11-18T14:10:01.834   2216495699.9
RECEIVE_FREQ_1 =   2022-11-18T14:10:11.856   2216495699.3
RECEIVE_FREQ_1 =   2022-11-18T14:10:21.878   2216495698.7
RECEIVE_FREQ_1 =   2022-11-18T14:10:31.901   2216495698.1
RECEIVE_FREQ_1 =   2022-11-18T14:10:41.837   2216495697.5
RECEIVE_FREQ_1 =   2022-11-18T14:10:51.859   2216495697.0
RECEIVE_FREQ_1 =   2022-11-18T14:11:01.882   2216495696.2
RECEIVE_FREQ_1 =   2022-11-18T14:11:11.904   2216495696.0
RECEIVE_FREQ_1 =   2022-11-18T14:11:21.840   2216495695.4
RECEIVE_FREQ_1 =   2022-11-18T14:11:31.862   2216495694.8
RECEIVE_FREQ_1 =   2022-11-18T14:11:41.885   2216495694.2
RECEIVE_FREQ_1 =   2022-11-18T14:11:51.907   2216495693.6
RECEIVE_FREQ_1 =   2022-11-18T14:12:01.843   2216495692.9
RECEIVE_FREQ_1 =   2022-11-18T14:12:11.866   2216495692.4
RECEIVE_FREQ_1 =   2022-11-18T14:12:21.888   2216495691.8
RECEIVE_FREQ_1 =   2022-11-18T14:12:31.824   2216495691.3
RECEIVE_FREQ_1 =   2022-11-18T14:12:41.846   2216495690.5
RECEIVE_FREQ_1 =   2022-11-18T14:12:51.869   2216495690.0
RECEIVE_FREQ_1 =   2022-11-18T14:13:11.827   2216495688.7
RECEIVE_FREQ_1 =   2022-11-18T14:13:21.850   2216495688.2
RECEIVE_FREQ_1 =   2022-11-18T14:13:31.872   2216495687.7
RECEIVE_FREQ_1 =   2022-11-18T14:13:41.894   2216495686.7
RECEIVE_FREQ_1 =   2022-11-18T14:13:51.917   2216495686.5
RECEIVE_FREQ_1 =   2022-11-18T14:14:01.853   2216495685.7
RECEIVE_FREQ_1 =   2022-11-18T14:14:11.875   2216495685.2
RECEIVE_FREQ_1 =   2022-11-18T14:14:21.898   2216495684.6
RECEIVE_FREQ_1 =   2022-11-18T14:14:31.834   2216495683.9
RECEIVE_FREQ_1 =   2022-11-18T14:14:41.856   2216495683.2
RECEIVE_FREQ_1 =   2022-11-18T14:14:51.878   2216495682.7
RECEIVE_FREQ_1 =   2022-11-18T14:15:01.814   2216495682.0
RECEIVE_FREQ_1 =   2022-11-18T14:15:11.837   2216495681.0
RECEIVE_FREQ_1 =   2022-11-18T14:15:21.859   2216495680.9
RECEIVE_FREQ_1 =   2022-11-18T14:15:31.882   2216495680.4
RECEIVE_FREQ_1 =   2022-11-18T14:15:41.904   2216495679.6
RECEIVE_FREQ_1 =   2022-11-18T14:15:51.840   2216495678.8
RECEIVE_FREQ_1 =   2022-11-18T14:16:01.862   2216495678.3
RECEIVE_FREQ_1 =   2022-11-18T14:16:11.885   2216495677.7
RECEIVE_FREQ_1 =   2022-11-18T14:16:21.821   2216495676.9
RECEIVE_FREQ_1 =   2022-11-18T14:16:31.843   2216495676.3
RECEIVE_FREQ_1 =   2022-11-18T14:16:41.866   2216495675.6
RECEIVE_FREQ_1 =   2022-11-18T14:16:51.888   2216495674.9
RECEIVE_FREQ_1 =   2022-11-18T14:17:01.910   2216495674.4
RECEIVE_FREQ_1 =   2022-11-18T14:17:11.846   2216495673.9
RECEIVE_FREQ_1 =   2022-11-18T14:17:21.869   2216495673.1
RECEIVE_FREQ_1 =   2022-11-18T14:17:31.891   2216495672.6
RECEIVE_FREQ_1 =   2022-11-18T14:17:41.827   2216495671.6
RECEIVE_FREQ_1 =   2022-11-18T14:17:51.850   2216495671.0
RECEIVE_FREQ_1 =   2022-11-18T14:18:01.872   2216495670.4
RECEIVE_FREQ_1 =   2022-11-18T14:18:11.894   2216495669.9
RECEIVE_FREQ_1 =   2022-11-18T14:18:21.830   2216495669.0
RECEIVE_FREQ_1 =   2022-11-18T14:18:31.853   2216495668.4
RECEIVE_FREQ_1 =   2022-11-18T14:18:41.875   2216495667.5
RECEIVE_FREQ_1 =   2022-11-18T14:18:51.898   2216495667.2
RECEIVE_FREQ_1 =   2022-11-18T14:19:01.920   2216495666.5
RECEIVE_FREQ_1 =   2022-11-18T14:19:11.856   2216495665.8
RECEIVE_FREQ_1 =   2022-11-18T14:19:21.878   2216495665.0
RECEIVE_FREQ_1 =   2022-11-18T14:19:31.901   2216495664.4
RECEIVE_FREQ_1 =   2022-11-18T14:19:41.837   2216495663.9
RECEIVE_FREQ_1 =   2022-11-18T14:19:51.859   2216495663.1
RECEIVE_FREQ_1 =   2022-11-18T14:20:01.882   2216495662.2
RECEIVE_FREQ_1 =   2022-11-18T14:20:11.904   2216495661.8
RECEIVE_FREQ_1 =   2022-11-18T14:20:21.840   2216495660.9
RECEIVE_FREQ_1 =   2022-11-18T14:20:31.862   2216495660.4
RECEIVE_FREQ_1 =   2022-11-18T14:20:41.885   2216495659.7
RECEIVE_FREQ_1 =   2022-11-18T14:20:51.907   2216495658.9
RECEIVE_FREQ_1 =   2022-11-18T14:21:01.843   2216495658.2
RECEIVE_FREQ_1 =   2022-11-18T14:21:11.866   2216495657.4
RECEIVE_FREQ_1 =   2022-11-18T14:21:21.888   2216495656.7
RECEIVE_FREQ_1 =   2022-11-18T14:21:31.910   2216495656.0
RECEIVE_FREQ_1 =   2022-11-18T14:21:41.846   2216495655.5
RECEIVE_FREQ_1 =   2022-11-18T14:21:51.869   2216495654.4
RECEIVE_FREQ_1 =   2022-11-18T14:22:01.891   2216495654.0
RECEIVE_FREQ_1 =   2022-11-18T14:22:11.827   2216495653.4
RECEIVE_FREQ_1 =   2022-11-18T14:22:21.850   2216495652.7
RECEIVE_FREQ_1 =   2022-11-18T14:22:31.872   2216495651.8
RECEIVE_FREQ_1 =   2022-11-18T14:22:41.894   2216495650.8
RECEIVE_FREQ_1 =   2022-11-18T14:22:51.830   2216495650.3
RECEIVE_FREQ_1 =   2022-11-18T14:23:01.853   2216495649.9
RECEIVE_FREQ_1 =   2022-11-18T14:23:11.875   2216495648.9
RECEIVE_FREQ_1 =   2022-11-18T14:23:21.898   2216495648.1
RECEIVE_FREQ_1 =   2022-11-18T14:23:31.834   2216495647.4
RECEIVE_FREQ_1 =   2022-11-18T14:23:41.856   2216495646.8
RECEIVE_FREQ_1 =   2022-11-18T14:23:51.878   2216495646.0
RECEIVE_FREQ_1 =   2022-11-18T14:24:01.901   2216495645.0
RECEIVE_FREQ_1 =   2022-11-18T14:24:11.837   2216495644.5
RECEIVE_FREQ_1 =   2022-11-18T14:24:21.859   2216495644.0
RECEIVE_FREQ_1 =   2022-11-18T14:24:31.882   2216495642.9
RECEIVE_FREQ_1 =   2022-11-18T14:24:41.904   2216495642.2
RECEIVE_FREQ_1 =   2022-11-18T14:24:51.840   2216495641.6
RECEIVE_FREQ_1 =   2022-11-18T14:25:01.862   2216495641.0
RECEIVE_FREQ_1 =   2022-11-18T14:25:11.885   2216495640.1
RECEIVE_FREQ_1 =   2022-11-18T14:25:21.821   2216495639.6
RECEIVE_FREQ_1 =   2022-11-18T14:25:31.843   2216495638.3
RECEIVE_FREQ_1 =   2022-11-18T14:25:41.866   2216495637.7
RECEIVE_FREQ_1 =   2022-11-18T14:25:51.888   2216495637.1
RECEIVE_FREQ_1 =   2022-11-18T14:26:01.910   2216495636.5
RECEIVE_FREQ_1 =   2022-11-18T14:26:11.846   2216495635.6
RECEIVE_FREQ_1 =   2022-11-18T14:26:21.869   2216495634.7
RECEIVE_FREQ_1 =   2022-11-18T14:26:31.891   2216495633.9
RECEIVE_FREQ_1 =   2022-11-18T14:26:41.914   2216495633.4
RECEIVE_FREQ_1 =   2022-11-18T14:26:51.850   2216495632.6
RECEIVE_FREQ_1 =   2022-11-18T14:27:01.872   2216495631.6
RECEIVE_FREQ_1 =   2022-11-18T14:27:11.894   2216495630.9
RECEIVE_FREQ_1 =   2022-11-18T14:27:21.830   2216495630.1
RECEIVE_FREQ_1 =   2022-11-18T14:27:31.853   2216495629.4
RECEIVE_FREQ_1 =   2022-11-18T14:27:41.875   2216495628.8
RECEIVE_FREQ_1 =   2022-11-18T14:27:51.898   2216495627.9
RECEIVE_FREQ_1 =   2022-11-18T14:28:01.834   2216495627.2
RECEIVE_FREQ_1 =   2022-11-18T14:28:11.856   2216495626.6
RECEIVE_FREQ_1 =   2022-11-18T14:28:21.878   2216495625.8
RECEIVE_FREQ_1 =   2022-11-18T14:28:31.901   2216495625.2
RECEIVE_FREQ_1 =   2022-11-18T14:28:41.837   2216495624.5
RECEIVE_FREQ_1 =   2022-11-18T14:28:51.859   2216495623.9
RECEIVE_FREQ_1 =   2022-11-18T14:29:01.882   2216495623.1
RECEIVE_FREQ_1 =   2022-11-18T14:29:11.904   2216495622.6
RECEIVE_FREQ_1 =   2022-11-18T14:29:21.840   2216495621.8
RECEIVE_FREQ_1 =   2022-11-18T14:29:31.862   2216495621.2
RECEIVE_FREQ_1 =   2022-11-18T14:29:41.885   2216495620.7
RECEIVE_FREQ_1 =   2022-11-18T14:29:51.907   2216495619.8
RECEIVE_FREQ_1 =   2022-11-18T14:30:01.843   2216495619.3
RECEIVE_FREQ_1 =   2022-11-18T14:30:11.866   2216495618.5
RECEIVE_FREQ_1 =   2022-11-18T14:30:21.888   2216495617.8
RECEIVE_FREQ_1 =   2022-11-18T14:30:31.910   2216495617.4
RECEIVE_FREQ_1 =   2022-11-18T14:30:41.846   2216495616.5
RECEIVE_FREQ_1 =   2022-11-18T14:30:51.869   2216495615.9
RECEIVE_FREQ_1 =   2022-11-18T14:31:01.891   2216495615.1
RECEIVE_FREQ_1 =   2022-11-18T14:31:11.827   2216495614.6
RECEIVE_FREQ_1 =   2022-11-18T14:31:21.850   2216495613.6
RECEIVE_FREQ_1 =   2022-11-18T14:31:31.872   2216495613.2
RECEIVE_FREQ_1 =   2022-11-18T14:31:41.894   2216495612.2
RECEIVE_FREQ_1 =   2022-11-18T14:31:51.830   2216495611.7
RECEIVE_FREQ_1 =   2022-11-18T14:32:01.853   2216495611.1
RECEIVE_FREQ_1 =   2022-11-18T14:32:11.875   2216495610.4
RECEIVE_FREQ_1 =   2022-11-18T14:32:21.898   2216495609.6
RECEIVE_FREQ_1 =   2022-11-18T14:32:31.834   2216495609.0
RECEIVE_FREQ_1 =   2022-11-18T14:32:41.856   2216495608.0
RECEIVE_FREQ_1 =   2022-11-18T14:32:51.878   2216495607.4
RECEIVE_FREQ_1 =   2022-11-18T14:33:01.901   2216495606.7
RECEIVE_FREQ_1 =   2022-11-18T14:33:11.837   2216495606.2
RECEIVE_FREQ_1 =   2022-11-18T14:33:21.859   2216495605.3
RECEIVE_FREQ_1 =   2022-11-18T14:33:31.882   2216495604.6
RECEIVE_FREQ_1 =   2022-11-18T14:33:41.904   2216495603.8
RECEIVE_FREQ_1 =   2022-11-18T14:33:51.840   2216495603.4
RECEIVE_FREQ_1 =   2022-11-18T14:34:01.862   2216495602.5
RECEIVE_FREQ_1 =   2022-11-18T14:34:11.885   2216495601.8
RECEIVE_FREQ_1 =   2022-11-18T14:34:21.821   2216495601.0
RECEIVE_FREQ_1 =   2022-11-18T14:34:31.843   2216495600.2
RECEIVE_FREQ_1 =   2022-11-18T14:34:41.866   2216495599.4
RECEIVE_FREQ_1 =   2022-11-18T14:34:51.888   2216495598.8
RECEIVE_FREQ_1 =   2022-11-18T14:35:01.910   2216495598.1
RECEIVE_FREQ_1 =   2022-11-18T14:35:11.846   2216495597.4
RECEIVE_FREQ_1 =   2022-11-18T14:35:21.869   2216495596.5
RECEIVE_FREQ_1 =   2022-11-18T14:35:31.891   2216495596.1
RECEIVE_FREQ_1 =   2022-11-18T14:35:41.914   2216495595.0
RECEIVE_FREQ_1 =   2022-11-18T14:35:51.850   2216495594.5
RECEIVE_FREQ_1 =   2022-11-18T14:36:01.872   2216495593.5
RECEIVE_FREQ_1 =   2022-11-18T14:36:11.894   2216495592.9
RECEIVE_FREQ_1 =   2022-11-18T14:36:21.830   2216495592.2
RECEIVE_FREQ_1 =   2022-11-18T14:36:31.853   2216495591.5
RECEIVE_FREQ_1 =   2022-11-18T14:36:41.875   2216495590.5
RECEIVE_FREQ_1 =   2022-11-18T14:36:51.898   2216495589.9
RECEIVE_FREQ_1 =   2022-11-18T14:37:01.834   2216495589.1
RECEIVE_FREQ_1 =   2022-11-18T14:37:11.856   2216495588.3
RECEIVE_FREQ_1 =   2022-11-18T14:37:21.878   2216495587.6
RECEIVE_FREQ_1 =   2022-11-18T14:37:31.901   2216495586.9
RECEIVE_FREQ_1 =   2022-11-18T14:37:41.837   2216495586.2
RECEIVE_FREQ_1 =   2022-11-18T14:37:51.859   2216495585.2
RECEIVE_FREQ_1 =   2022-11-18T14:38:01.882   2216495584.4
RECEIVE_FREQ_1 =   2022-11-18T14:38:11.904   2216495583.9
RECEIVE_FREQ_1 =   2022-11-18T14:38:21.840   2216495583.1
RECEIVE_FREQ_1 =   2022-11-18T14:38:31.862   2216495582.3
RECEIVE_FREQ_1 =   2022-11-18T14:38:41.885   2216495581.5
RECEIVE_FREQ_1 =   2022-11-18T14:38:51.907   2216495580.6
RECEIVE_FREQ_1 =   2022-11-18T14:39:01.843   2216495580.0
RECEIVE_FREQ_1 =   2022-11-18T14:39:11.866   2216495579.1
RECEIVE_FREQ_1 =   2022-11-18T14:39:21.888   2216495578.2
RECEIVE_FREQ_1 =   2022-11-18T14:39:31.910   2216495577.8
RECEIVE_FREQ_1 =   2022-11-18T14:39:41.846   2216495576.7
RECEIVE_FREQ_1 =   2022-11-18T14:39:51.869   2216495576.1
RECEIVE_FREQ_1 =   2022-11-18T14:40:01.891   2216495575.2
RECEIVE_FREQ_1 =   2022-11-18T14:40:11.827   2216495574.3
RECEIVE_FREQ_1 =   2022-11-18T14:40:21.850   2216495573.7
RECEIVE_FREQ_1 =   2022-11-18T14:40:31.872   2216495572.9
RECEIVE_FREQ_1 =   2022-11-18T14:40:41.894   2216495572.2
RECEIVE_FREQ_1 =   2022-11-18T14:40:51.830   2216495571.4
RECEIVE_FREQ_1 =   2022-11-18T14:41:01.853   2216495570.5
RECEIVE_FREQ_1 =   2022-11-18T14:41:11.875   2216495569.7
RECEIVE_FREQ_1 =   2022-11-18T14:41:21.898   2216495569.0
RECEIVE_FREQ_1 =   2022-11-18T14:41:31.834   2216495568.2
RECEIVE_FREQ_1 =   2022-11-18T14:41:41.856   2216495567.5
RECEIVE_FREQ_1 =   2022-11-18T14:41:51.878   2216495566.4
RECEIVE_FREQ_1 =   2022-11-18T14:42:01.901   2216495565.7
RECEIVE_FREQ_1 =   2022-11-18T14:42:11.837   2216495564.9
RECEIVE_FREQ_1 =   2022-11-18T14:42:21.859   2216495564.0
RECEIVE_FREQ_1 =   2022-11-18T14:42:31.882   2216495563.1
RECEIVE_FREQ_1 =   2022-11-18T14:42:41.904   2216495562.2
RECEIVE_FREQ_1 =   2022-11-18T14:42:51.926   2216495561.5
RECEIVE_FREQ_1 =   2022-11-18T14:43:01.862   2216495561.0
RECEIVE_FREQ_1 =   2022-11-18T14:43:11.885   2216495560.0
RECEIVE_FREQ_1 =   2022-11-18T14:43:21.821   2216495559.1
RECEIVE_FREQ_1 =   2022-11-18T14:43:31.843   2216495558.4
RECEIVE_FREQ_1 =   2022-11-18T14:43:41.866   2216495557.6
RECEIVE_FREQ_1 =   2022-11-18T14:43:51.888   2216495556.4
RECEIVE_FREQ_1 =   2022-11-18T14:44:01.824   2216495555.8
RECEIVE_FREQ_1 =   2022-11-18T14:44:11.846   2216495555.0
RECEIVE_FREQ_1 =   2022-11-18T14:44:21.869   2216495554.0
RECEIVE_FREQ_1 =   2022-11-18T14:44:31.891   2216495553.3
RECEIVE_FREQ_1 =   2022-11-18T14:44:41.914   2216495552.5
RECEIVE_FREQ_1 =   2022-11-18T14:44:51.850   2216495551.7
RECEIVE_FREQ_1 =   2022-11-18T14:45:01.872   2216495550.7
RECEIVE_FREQ_1 =   2022-11-18T14:45:11.894   2216495550.0
RECEIVE_FREQ_1 =   2022-11-18T14:45:21.830   2216495549.2
RECEIVE_FREQ_1 =   2022-11-18T14:45:31.853   2216495548.4
RECEIVE_FREQ_1 =   2022-11-18T14:45:41.875   2216495547.4
RECEIVE_FREQ_1 =   2022-11-18T14:45:51.898   2216495546.5
RECEIVE_FREQ_1 =   2022-11-18T14:46:01.834   2216495545.6
RECEIVE_FREQ_1 =   2022-11-18T14:46:11.856   2216495544.9
RECEIVE_FREQ_1 =   2022-11-18T14:46:21.878   2216495543.9
RECEIVE_FREQ_1 =   2022-11-18T14:46:31.901   2216495543.2
RECEIVE_FREQ_1 =   2022-11-18T14:46:41.837   2216495542.1
RECEIVE_FREQ_1 =   2022-11-18T14:46:51.859   2216495541.3
RECEIVE_FREQ_1 =   2022-11-18T14:47:01.882   2216495540.5
RECEIVE_FREQ_1 =   2022-11-18T14:47:11.904   2216495539.6
RECEIVE_FREQ_1 =   2022-11-18T14:47:21.840   2216495539.0
RECEIVE_FREQ_1 =   2022-11-18T14:47:31.862   2216495537.9
RECEIVE_FREQ_1 =   2022-11-18T14:47:41.885   2216495537.2
RECEIVE_FREQ_1 =   2022-11-18T14:47:51.821   2216495536.0
RECEIVE_FREQ_1 =   2022-11-18T14:48:01.843   2216495535.2
RECEIVE_FREQ_1 =   2022-11-18T14:48:11.866   2216495534.4
RECEIVE_FREQ_1 =   2022-11-18T14:48:21.888   2216495533.4
RECEIVE_FREQ_1 =   2022-11-18T14:48:31.910   2216495532.6
RECEIVE_FREQ_1 =   2022-11-18T14:48:41.846   2216495531.8
RECEIVE_FREQ_1 =   2022-11-18T14:48:51.869   2216495531.0
RECEIVE_FREQ_1 =   2022-11-18T14:49:01.891   2216495529.9
RECEIVE_FREQ_1 =   2022-11-18T14:49:11.827   2216495528.9
RECEIVE_FREQ_1 =   2022-11-18T14:49:21.850   2216495528.2
RECEIVE_FREQ_1 =   2022-11-18T14:49:31.872   2216495527.4
RECEIVE_FREQ_1 =   2022-11-18T14:49:41.894   2216495526.6
RECEIVE_FREQ_1 =   2022-11-18T14:49:51.830   2216495525.9
RECEIVE_FREQ_1 =   2022-11-18T14:50:01.853   2216495525.0
RECEIVE_FREQ_1 =   2022-11-18T14:50:11.875   2216495524.1
RECEIVE_FREQ_1 =   2022-11-18T14:50:21.898   2216495523.4
RECEIVE_FREQ_1 =   2022-11-18T14:50:31.834   2216495522.5
RECEIVE_FREQ_1 =   2022-11-18T14:50:41.856   2216495522.1
RECEIVE_FREQ_1 =   2022-11-18T14:50:41.856   2216495522.1
RECEIVE_FREQ_1 =   2022-11-18T14:50:51.878   2216495521.3
RECEIVE_FREQ_1 =   2022-11-18T14:51:01.901   2216495520.2
RECEIVE_FREQ_1 =   2022-11-18T14:51:11.837   2216495519.4
RECEIVE_FREQ_1 =   2022-11-18T14:51:21.859   2216495518.5
RECEIVE_FREQ_1 =   2022-11-18T14:51:31.882   2216495517.8
RECEIVE_FREQ_1 =   2022-11-18T14:51:41.904   2216495517.3
RECEIVE_FREQ_1 =   2022-11-18T14:51:51.840   2216495516.3
RECEIVE_FREQ_1 =   2022-11-18T14:52:01.862   2216495515.9
RECEIVE_FREQ_1 =   2022-11-18T14:52:11.885   2216495514.9
RECEIVE_FREQ_1 =   2022-11-18T14:52:21.907   2216495513.7
RECEIVE_FREQ_1 =   2022-11-18T14:52:31.843   2216495512.9
RECEIVE_FREQ_1 =   2022-11-18T14:52:41.866   2216495512.1
RECEIVE_FREQ_1 =   2022-11-18T14:52:51.888   2216495511.7
RECEIVE_FREQ_1 =   2022-11-18T14:53:01.910   2216495510.7
RECEIVE_FREQ_1 =   2022-11-18T14:53:11.846   2216495510.1
RECEIVE_FREQ_1 =   2022-11-18T14:53:21.869   2216495509.0
RECEIVE_FREQ_1 =   2022-11-18T14:53:31.891   2216495508.4
RECEIVE_FREQ_1 =   2022-11-18T14:53:41.914   2216495507.5
RECEIVE_FREQ_1 =   2022-11-18T14:53:51.850   2216495506.5
RECEIVE_FREQ_1 =   2022-11-18T14:54:01.872   2216495506.0
RECEIVE_FREQ_1 =   2022-11-18T14:54:11.894   2216495505.0
RECEIVE_FREQ_1 =   2022-11-18T14:54:21.830   2216495504.3
RECEIVE_FREQ_1 =   2022-11-18T14:54:31.853   2216495503.3
RECEIVE_FREQ_1 =   2022-11-18T14:54:41.875   2216495502.7
RECEIVE_FREQ_1 =   2022-11-18T14:54:51.898   2216495501.9
RECEIVE_FREQ_1 =   2022-11-18T14:55:01.834   2216495501.0
RECEIVE_FREQ_1 =   2022-11-18T14:55:11.856   2216495500.2
RECEIVE_FREQ_1 =   2022-11-18T14:55:21.878   2216495499.4
RECEIVE_FREQ_1 =   2022-11-18T14:55:31.901   2216495498.6
RECEIVE_FREQ_1 =   2022-11-18T14:55:41.923   2216495497.4
RECEIVE_FREQ_1 =   2022-11-18T14:55:51.859   2216495496.6
RECEIVE_FREQ_1 =   2022-11-18T14:56:01.882   2216495496.0
RECEIVE_FREQ_1 =   2022-11-18T14:56:11.904   2216495495.3
RECEIVE_FREQ_1 =   2022-11-18T14:56:21.840   2216495494.4
RECEIVE_FREQ_1 =   2022-11-18T14:56:31.862   2216495493.4
RECEIVE_FREQ_1 =   2022-11-18T14:56:41.885   2216495492.6
RECEIVE_FREQ_1 =   2022-11-18T14:56:51.821   2216495491.6
RECEIVE_FREQ_1 =   2022-11-18T14:57:01.843   2216495491.2
RECEIVE_FREQ_1 =   2022-11-18T14:57:11.866   2216495490.0
RECEIVE_FREQ_1 =   2022-11-18T14:57:21.888   2216495489.4
RECEIVE_FREQ_1 =   2022-11-18T14:57:31.910   2216495488.4
RECEIVE_FREQ_1 =   2022-11-18T14:57:41.846   2216495487.7
RECEIVE_FREQ_1 =   2022-11-18T14:57:51.869   2216495486.8
RECEIVE_FREQ_1 =   2022-11-18T14:58:01.891   2216495486.0
RECEIVE_FREQ_1 =   2022-11-18T14:58:11.827   2216495484.9
RECEIVE_FREQ_1 =   2022-11-18T14:58:21.850   2216495483.9
RECEIVE_FREQ_1 =   2022-11-18T14:58:31.872   2216495483.1
RECEIVE_FREQ_1 =   2022-11-18T14:58:41.894   2216495482.5
RECEIVE_FREQ_1 =   2022-11-18T14:58:51.830   2216495481.3
RECEIVE_FREQ_1 =   2022-11-18T14:59:01.853   2216495480.5
RECEIVE_FREQ_1 =   2022-11-18T14:59:11.875   2216495479.6
RECEIVE_FREQ_1 =   2022-11-18T14:59:21.898   2216495479.0
RECEIVE_FREQ_1 =   2022-11-18T14:59:31.834   2216495478.2
RECEIVE_FREQ_1 =   2022-11-18T14:59:41.856   2216495477.3
RECEIVE_FREQ_1 =   2022-11-18T14:59:51.878   2216495476.3
RECEIVE_FREQ_1 =   2022-11-18T15:00:01.901   2216495475.6
RECEIVE_FREQ_1 =   2022-11-18T15:00:11.837   2216495474.4
RECEIVE_FREQ_1 =   2022-11-18T15:00:21.859   2216495473.6
RECEIVE_FREQ_1 =   2022-11-18T15:00:31.882   2216495472.7
RECEIVE_FREQ_1 =   2022-11-18T15:00:41.904   2216495472.0
RECEIVE_FREQ_1 =   2022-11-18T15:00:51.926   2216495470.8
RECEIVE_FREQ_1 =   2022-11-18T15:01:01.862   2216495470.2
RECEIVE_FREQ_1 =   2022-11-18T15:01:11.885   2216495469.1
RECEIVE_FREQ_1 =   2022-11-18T15:01:21.907   2216495467.9
RECEIVE_FREQ_1 =   2022-11-18T15:01:31.843   2216495467.4
RECEIVE_FREQ_1 =   2022-11-18T15:01:41.866   2216495466.7
RECEIVE_FREQ_1 =   2022-11-18T15:01:51.888   2216495465.6
RECEIVE_FREQ_1 =   2022-11-18T15:02:01.910   2216495464.8
RECEIVE_FREQ_1 =   2022-11-18T15:02:11.846   2216495464.1
RECEIVE_FREQ_1 =   2022-11-18T15:02:21.869   2216495462.8
RECEIVE_FREQ_1 =   2022-11-18T15:02:31.891   2216495462.2
RECEIVE_FREQ_1 =   2022-11-18T15:02:41.827   2216495461.2
RECEIVE_FREQ_1 =   2022-11-18T15:02:51.850   2216495460.2
RECEIVE_FREQ_1 =   2022-11-18T15:03:01.872   2216495459.2
RECEIVE_FREQ_1 =   2022-11-18T15:03:11.894   2216495458.3
RECEIVE_FREQ_1 =   2022-11-18T15:03:21.830   2216495457.7
RECEIVE_FREQ_1 =   2022-11-18T15:03:31.853   2216495456.6
RECEIVE_FREQ_1 =   2022-11-18T15:03:41.875   2216495455.7
RECEIVE_FREQ_1 =   2022-11-18T15:03:51.898   2216495454.8
RECEIVE_FREQ_1 =   2022-11-18T15:04:01.834   2216495453.5
RECEIVE_FREQ_1 =   2022-11-18T15:04:11.856   2216495452.8
RECEIVE_FREQ_1 =   2022-11-18T15:04:21.878   2216495452.0
RECEIVE_FREQ_1 =   2022-11-18T15:04:31.901   2216495451.0
RECEIVE_FREQ_1 =   2022-11-18T15:04:41.837   2216495449.9
RECEIVE_FREQ_1 =   2022-11-18T15:04:51.859   2216495449.3
RECEIVE_FREQ_1 =   2022-11-18T15:05:01.882   2216495448.3
RECEIVE_FREQ_1 =   2022-11-18T15:05:11.904   2216495447.4
RECEIVE_FREQ_1 =   2022-11-18T15:05:21.840   2216495446.4
RECEIVE_FREQ_1 =   2022-11-18T15:05:31.862   2216495445.1
RECEIVE_FREQ_1 =   2022-11-18T15:05:41.885   2216495444.6
RECEIVE_FREQ_1 =   2022-11-18T15:05:51.821   2216495443.4
RECEIVE_FREQ_1 =   2022-11-18T15:06:01.843   2216495442.5
RECEIVE_FREQ_1 =   2022-11-18T15:06:11.866   2216495441.8
RECEIVE_FREQ_1 =   2022-11-18T15:06:21.888   2216495440.8
RECEIVE_FREQ_1 =   2022-11-18T15:06:31.910   2216495439.9
RECEIVE_FREQ_1 =   2022-11-18T15:06:41.846   2216495438.7
RECEIVE_FREQ_1 =   2022-11-18T15:06:51.869   2216495437.9
RECEIVE_FREQ_1 =   2022-11-18T15:07:01.891   2216495437.1
RECEIVE_FREQ_1 =   2022-11-18T15:07:11.827   2216495436.0
RECEIVE_FREQ_1 =   2022-11-18T15:07:21.850   2216495435.1
RECEIVE_FREQ_1 =   2022-11-18T15:07:31.872   2216495434.1
RECEIVE_FREQ_1 =   2022-11-18T15:07:41.894   2216495433.2
RECEIVE_FREQ_1 =   2022-11-18T15:07:51.917   2216495432.2
RECEIVE_FREQ_1 =   2022-11-18T15:08:01.853   2216495431.2
RECEIVE_FREQ_1 =   2022-11-18T15:08:11.875   2216495430.0
RECEIVE_FREQ_1 =   2022-11-18T15:08:21.898   2216495429.3
RECEIVE_FREQ_1 =   2022-11-18T15:08:31.834   2216495428.7
RECEIVE_FREQ_1 =   2022-11-18T15:08:41.856   2216495427.7
RECEIVE_FREQ_1 =   2022-11-18T15:08:51.878   2216495426.5
RECEIVE_FREQ_1 =   2022-11-18T15:09:01.901   2216495425.4
RECEIVE_FREQ_1 =   2022-11-18T15:09:11.837   2216495424.5
RECEIVE_FREQ_1 =   2022-11-18T15:09:21.859   2216495423.6
RECEIVE_FREQ_1 =   2022-11-18T15:09:31.882   2216495422.7
RECEIVE_FREQ_1 =   2022-11-18T15:09:41.904   2216495421.9
RECEIVE_FREQ_1 =   2022-11-18T15:09:51.840   2216495420.4
RECEIVE_FREQ_1 =   2022-11-18T15:10:01.862   2216495419.8
RECEIVE_FREQ_1 =   2022-11-18T15:10:11.885   2216495418.6
RECEIVE_FREQ_1 =   2022-11-18T15:10:21.907   2216495417.7
RECEIVE_FREQ_1 =   2022-11-18T15:10:31.843   2216495416.7
RECEIVE_FREQ_1 =   2022-11-18T15:10:41.866   2216495415.9
RECEIVE_FREQ_1 =   2022-11-18T15:10:51.888   2216495414.7
RECEIVE_FREQ_1 =   2022-11-18T15:11:01.910   2216495413.7
RECEIVE_FREQ_1 =   2022-11-18T15:11:11.846   2216495412.8
RECEIVE_FREQ_1 =   2022-11-18T15:11:21.869   2216495411.7
RECEIVE_FREQ_1 =   2022-11-18T15:11:31.891   2216495410.7
RECEIVE_FREQ_1 =   2022-11-18T15:11:41.827   2216495409.7
RECEIVE_FREQ_1 =   2022-11-18T15:12:41.875   2216495403.8
RECEIVE_FREQ_1 =   2022-11-18T15:13:41.923   2216495398.6
RECEIVE_FREQ_1 =   2022-11-18T15:13:51.859   2216495397.4
RECEIVE_FREQ_1 =   2022-11-18T15:14:01.882   2216495396.3
RECEIVE_FREQ_1 =   2022-11-18T15:14:41.885   2216495393.1
RECEIVE_FREQ_1 =   2022-11-18T15:14:51.907   2216495392.0
RECEIVE_FREQ_1 =   2022-11-18T15:15:21.888   2216495389.3
RECEIVE_FREQ_1 =   2022-11-18T15:15:31.824   2216495388.5
RECEIVE_FREQ_1 =   2022-11-18T15:16:21.850   2216495383.8
RECEIVE_FREQ_1 =   2022-11-18T15:16:41.894   2216495381.9
RECEIVE_FREQ_1 =   2022-11-18T15:17:01.853   2216495380.7
RECEIVE_FREQ_1 =   2022-11-18T15:17:41.856   2216495376.7
RECEIVE_FREQ_1 =   2022-11-18T15:22:01.834   2216495353.3
RECEIVE_FREQ_1 =   2022-11-18T15:22:41.837   2216495347.2
RECEIVE_FREQ_1 =   2022-11-18T15:23:11.904   2216495344.7
RECEIVE_FREQ_1 =   2022-11-18T15:23:51.907   2216495341.1
RECEIVE_FREQ_1 =   2022-11-18T15:24:21.888   2216495337.6
RECEIVE_FREQ_1 =   2022-11-18T15:24:41.846   2216495335.4
RECEIVE_FREQ_1 =   2022-11-18T15:25:51.830   2216495328.9
RECEIVE_FREQ_1 =   2022-11-18T15:27:51.840   2216495316.9
RECEIVE_FREQ_1 =   2022-11-18T15:30:01.872   2216495303.3
RECEIVE_FREQ_1 =   2022-11-18T15:30:11.894   2216495302.3
RECEIVE_FREQ_1 =   2022-11-18T15:30:21.830   2216495301.3
RECEIVE_FREQ_1 =   2022-11-18T15:30:31.853   2216495300.0
RECEIVE_FREQ_1 =   2022-11-18T15:30:31.853   2216495300.0
RECEIVE_FREQ_1 =   2022-11-18T15:30:41.875   2216495299.3
RECEIVE_FREQ_1 =   2022-11-18T15:30:51.898   2216495297.8
RECEIVE_FREQ_1 =   2022-11-18T15:31:01.920   2216495296.9
RECEIVE_FREQ_1 =   2022-11-18T15:31:11.856   2216495296.3
RECEIVE_FREQ_1 =   2022-11-18T15:31:21.878   2216495295.3
RECEIVE_FREQ_1 =   2022-11-18T15:31:31.901   2216495293.9
RECEIVE_FREQ_1 =   2022-11-18T15:31:41.837   2216495292.9
RECEIVE_FREQ_1 =   2022-11-18T15:31:51.859   2216495291.5
RECEIVE_FREQ_1 =   2022-11-18T15:32:01.882   2216495290.6
RECEIVE_FREQ_1 =   2022-11-18T15:32:21.840   2216495288.5
RECEIVE_FREQ_1 =   2022-11-18T15:32:31.862   2216495287.4
RECEIVE_FREQ_1 =   2022-11-18T15:32:41.885   2216495286.5
RECEIVE_FREQ_1 =   2022-11-18T15:32:51.907   2216495285.1
RECEIVE_FREQ_1 =   2022-11-18T15:33:01.843   2216495284.1
RECEIVE_FREQ_1 =   2022-11-18T15:33:11.866   2216495283.1
RECEIVE_FREQ_1 =   2022-11-18T15:33:31.910   2216495281.1
RECEIVE_FREQ_1 =   2022-11-18T15:33:41.846   2216495280.1
RECEIVE_FREQ_1 =   2022-11-18T15:33:51.869   2216495279.1
RECEIVE_FREQ_1 =   2022-11-18T15:34:01.891   2216495278.1
RECEIVE_FREQ_1 =   2022-11-18T15:34:11.827   2216495276.6
RECEIVE_FREQ_1 =   2022-11-18T15:34:21.850   2216495275.9
RECEIVE_FREQ_1 =   2022-11-18T15:34:41.894   2216495273.0
RECEIVE_FREQ_1 =   2022-11-18T15:34:51.830   2216495272.5
RECEIVE_FREQ_1 =   2022-11-18T15:35:31.920   2216495268.1
RECEIVE_FREQ_1 =   2022-11-18T15:36:11.837   2216495263.7
RECEIVE_FREQ_1 =   2022-11-18T15:37:31.843   2216495255.8
RECEIVE_FREQ_1 =   2022-11-18T15:38:11.846   2216495253.2
RECEIVE_FREQ_1 =   2022-11-18T15:39:11.894   2216495244.9
RECEIVE_FREQ_1 =   2022-11-18T15:40:21.878   2216495237.9
RECEIVE_FREQ_1 =   2022-11-18T15:40:31.901   2216495237.0
RECEIVE_FREQ_1 =   2022-11-18T15:40:41.837   2216495236.1
RECEIVE_FREQ_1 =   2022-11-18T15:40:51.859   2216495234.9
RECEIVE_FREQ_1 =   2022-11-18T15:41:01.882   2216495235.0
RECEIVE_FREQ_1 =   2022-11-18T15:41:11.904   2216495232.9
RECEIVE_FREQ_1 =   2022-11-18T15:41:21.840   2216495231.8
RECEIVE_FREQ_1 =   2022-11-18T15:41:31.862   2216495232.4
RECEIVE_FREQ_1 =   2022-11-18T15:41:51.821   2216495228.7
RECEIVE_FREQ_1 =   2022-11-18T15:42:01.843   2216495227.6
RECEIVE_FREQ_1 =   2022-11-18T15:42:41.846   2216495223.0
RECEIVE_FREQ_1 =   2022-11-18T15:42:51.869   2216495221.2
RECEIVE_FREQ_1 =   2022-11-18T15:43:21.850   2216495219.2
RECEIVE_FREQ_1 =   2022-11-18T15:43:31.872   2216495218.3
RECEIVE_FREQ_1 =   2022-11-18T15:44:51.878   2216495210.0
RECEIVE_FREQ_1 =   2022-11-18T15:46:01.862   2216495204.3
RECEIVE_FREQ_1 =   2022-11-18T15:46:41.866   2216495198.0
RECEIVE_FREQ_1 =   2022-11-18T15:47:01.910   2216495196.2
RECEIVE_FREQ_1 =   2022-11-18T15:47:31.891   2216495192.7
RECEIVE_FREQ_1 =   2022-11-18T15:47:51.850   2216495191.7
RECEIVE_FREQ_1 =   2022-11-18T15:48:41.875   2216495185.1
RECEIVE_FREQ_1 =   2022-11-18T15:49:21.878   2216495181.0
RECEIVE_FREQ_1 =   2022-11-18T15:50:21.840   2216495176.0
RECEIVE_FREQ_1 =   2022-11-18T15:50:41.885   2216495174.3
RECEIVE_FREQ_1 =   2022-11-18T15:51:01.843   2216495171.7
RECEIVE_FREQ_1 =   2022-11-18T15:51:21.888   2216495167.6
RECEIVE_FREQ_1 =   2022-11-18T15:51:41.846   2216495165.5
RECEIVE_FREQ_1 =   2022-11-18T15:51:51.869   2216495164.5
RECEIVE_FREQ_1 =   2022-11-18T15:52:21.850   2216495160.8
RECEIVE_FREQ_1 =   2022-11-18T15:52:41.894   2216495159.1
RECEIVE_FREQ_1 =   2022-11-18T15:53:01.853   2216495156.8
RECEIVE_FREQ_1 =   2022-11-18T15:53:41.856   2216495151.9
RECEIVE_FREQ_1 =   2022-11-18T15:54:11.837   2216495148.6
RECEIVE_FREQ_1 =   2022-11-18T15:54:41.904   2216495145.4
RECEIVE_FREQ_1 =   2022-11-18T15:55:01.862   2216495142.9
RECEIVE_FREQ_1 =   2022-11-18T15:55:21.907   2216495140.7
RECEIVE_FREQ_1 =   2022-11-18T15:55:21.907   2216495140.7
RECEIVE_FREQ_1 =   2022-11-18T15:55:51.888   2216495137.4
RECEIVE_FREQ_1 =   2022-11-18T15:56:11.846   2216495134.8
RECEIVE_FREQ_1 =   2022-11-18T15:56:41.914   2216495131.6
RECEIVE_FREQ_1 =   2022-11-18T15:56:51.850   2216495130.7
RECEIVE_FREQ_1 =   2022-11-18T15:57:31.853   2216495125.5
RECEIVE_FREQ_1 =   2022-11-18T15:57:41.875   2216495124.9
RECEIVE_FREQ_1 =   2022-11-18T15:59:21.926   2216495113.0
RECEIVE_FREQ_1 =   2022-11-18T16:00:01.843   2216495108.6
RECEIVE_FREQ_1 =   2022-11-18T16:00:21.888   2216495106.6
RECEIVE_FREQ_1 =   2022-11-18T16:00:41.846   2216495103.8
RECEIVE_FREQ_1 =   2022-11-18T16:00:51.869   2216495102.9
RECEIVE_FREQ_1 =   2022-11-18T16:01:01.891   2216495101.9
RECEIVE_FREQ_1 =   2022-11-18T16:02:01.853   2216495094.8
RECEIVE_FREQ_1 =   2022-11-18T16:02:11.875   2216495095.5
RECEIVE_FREQ_1 =   2022-11-18T16:03:01.901   2216495087.7
RECEIVE_FREQ_1 =   2022-11-18T16:03:31.882   2216495084.0
RECEIVE_FREQ_1 =   2022-11-18T16:04:51.888   2216495074.1
RECEIVE_FREQ_1 =   2022-11-18T16:05:21.869   2216495073.5
RECEIVE_FREQ_1 =   2022-11-18T16:06:21.917   2216495066.0
RECEIVE_FREQ_1 =   2022-11-18T16:06:41.875   2216495062.6
RECEIVE_FREQ_1 =   2022-11-18T16:07:11.856   2216495058.9
RECEIVE_FREQ_1 =   2022-11-18T16:07:31.901   2216495058.4
RECEIVE_FREQ_1 =   2022-11-18T16:07:51.859   2216495057.0
RECEIVE_FREQ_1 =   2022-11-18T16:08:01.882   2216495053.1
RECEIVE_FREQ_1 =   2022-11-18T16:08:21.840   2216495051.9
RECEIVE_FREQ_1 =   2022-11-18T16:08:51.907   2216495047.0
RECEIVE_FREQ_1 =   2022-11-18T16:10:51.917   2216495034.4
RECEIVE_FREQ_1 =   2022-11-18T16:11:11.875   2216495032.1
RECEIVE_FREQ_1 =   2022-11-18T16:11:21.898   2216495030.1
RECEIVE_FREQ_1 =   2022-11-18T16:11:31.920   2216495028.8
RECEIVE_FREQ_1 =   2022-11-18T16:12:01.901   2216495025.9
RECEIVE_FREQ_1 =   2022-11-18T16:12:11.923   2216495024.6
RECEIVE_FREQ_1 =   2022-11-18T16:13:31.843   2216495015.3
RECEIVE_FREQ_1 =   2022-11-18T16:13:41.866   2216495014.0
RECEIVE_FREQ_1 =   2022-11-18T16:14:01.910   2216495012.0
RECEIVE_FREQ_1 =   2022-11-18T16:14:11.846   2216495010.7
RECEIVE_FREQ_1 =   2022-11-18T16:14:31.891   2216495008.2
RECEIVE_FREQ_1 =   2022-11-18T16:15:01.872   2216495004.9
RECEIVE_FREQ_1 =   2022-11-18T16:15:31.853   2216495001.1
RECEIVE_FREQ_1 =   2022-11-18T16:15:51.898   2216494999.0
RECEIVE_FREQ_1 =   2022-11-18T16:16:11.856   2216494996.5
RECEIVE_FREQ_1 =   2022-11-18T16:16:41.837   2216494993.3
RECEIVE_FREQ_1 =   2022-11-18T16:17:21.926   2216494989.9
RECEIVE_FREQ_1 =   2022-11-18T16:17:31.862   2216494987.0
RECEIVE_FREQ_1 =   2022-11-18T16:17:41.885   2216494986.0
RECEIVE_FREQ_1 =   2022-11-18T16:18:11.866   2216494981.4
RECEIVE_FREQ_1 =   2022-11-18T16:18:21.888   2216494981.4
RECEIVE_FREQ_1 =   2022-11-18T16:18:31.910   2216494979.9
RECEIVE_FREQ_1 =   2022-11-18T16:19:41.894   2216494970.3
RECEIVE_FREQ_1 =   2022-11-18T16:20:21.898   2216494967.0
RECEIVE_FREQ_1 =   2022-11-18T16:21:51.840   2216494956.1
RECEIVE_FREQ_1 =   2022-11-18T16:22:11.885   2216494953.9
RECEIVE_FREQ_1 =   2022-11-18T16:22:21.907   2216494952.6
RECEIVE_FREQ_1 =   2022-11-18T16:22:41.866   2216494950.0
RECEIVE_FREQ_1 =   2022-11-18T16:22:51.888   2216494949.1
RECEIVE_FREQ_1 =   2022-11-18T16:23:01.910   2216494948.3
RECEIVE_FREQ_1 =   2022-11-18T16:24:21.917   2216494938.2
RECEIVE_FREQ_1 =   2022-11-18T16:24:41.875   2216494935.6
RECEIVE_FREQ_1 =   2022-11-18T16:25:11.856   2216494934.7
RECEIVE_FREQ_1 =   2022-11-18T16:25:31.901   2216494929.7
RECEIVE_FREQ_1 =   2022-11-18T16:26:01.882   2216494929.7
RECEIVE_FREQ_1 =   2022-11-18T16:26:41.885   2216494922.3
RECEIVE_FREQ_1 =   2022-11-18T16:27:01.843   2216494918.8
RECEIVE_FREQ_1 =   2022-11-18T16:27:41.846   2216494914.1
RECEIVE_FREQ_1 =   2022-11-18T16:28:41.894   2216494907.2
RECEIVE_FREQ_1 =   2022-11-18T16:30:01.901   2216494896.6
RECEIVE_FREQ_1 =   2022-11-18T16:30:41.904   2216494890.9
RECEIVE_FREQ_1 =   2022-11-18T16:30:51.926   2216494890.8
RECEIVE_FREQ_1 =   2022-11-18T16:32:21.869   2216494878.7
RECEIVE_FREQ_1 =   2022-11-18T16:32:31.891   2216494876.6
RECEIVE_FREQ_1 =   2022-11-18T16:32:41.914   2216494876.1
RECEIVE_FREQ_1 =   2022-11-18T16:34:01.920   2216494865.2
RECEIVE_FREQ_1 =   2022-11-18T16:34:11.942   2216494866.5
RECEIVE_FREQ_1 =   2022-11-18T16:34:41.923   2216494859.8
RECEIVE_FREQ_1 =   2022-11-18T16:35:01.882   2216494858.8
RECEIVE_FREQ_1 =   2022-11-18T16:35:51.907   2216494851.0
RECEIVE_FREQ_1 =   2022-11-18T16:36:41.846   2216494846.0
RECEIVE_FREQ_1 =   2022-11-18T16:37:01.891   2216494843.5
RECEIVE_FREQ_1 =   2022-11-18T16:37:21.850   2216494841.2
RECEIVE_FREQ_1 =   2022-11-18T16:37:31.872   2216494839.8
RECEIVE_FREQ_1 =   2022-11-18T16:37:51.917   2216494837.2
RECEIVE_FREQ_1 =   2022-11-18T16:38:21.898   2216494833.5
RECEIVE_FREQ_1 =   2022-11-18T16:38:51.878   2216494829.9
RECEIVE_FREQ_1 =   2022-11-18T16:39:01.901   2216494828.5
RECEIVE_FREQ_1 =   2022-11-18T16:39:11.837   2216494828.9
RECEIVE_FREQ_1 =   2022-11-18T16:39:31.882   2216494824.3
RECEIVE_FREQ_1 =   2022-11-18T16:39:41.904   2216494823.3
RECEIVE_FREQ_1 =   2022-11-18T16:40:01.862   2216494820.2
RECEIVE_FREQ_1 =   2022-11-18T16:40:21.907   2216494818.4
RECEIVE_FREQ_1 =   2022-11-18T16:40:41.866   2216494815.9
RECEIVE_FREQ_1 =   2022-11-18T16:41:11.846   2216494812.0
RECEIVE_FREQ_1 =   2022-11-18T16:41:51.850   2216494807.5
RECEIVE_FREQ_1 =   2022-11-18T16:42:11.894   2216494804.7
RECEIVE_FREQ_1 =   2022-11-18T16:42:21.917   2216494803.4
RECEIVE_FREQ_1 =   2022-11-18T16:42:41.875   2216494800.7
RECEIVE_FREQ_1 =   2022-11-18T16:43:31.901   2216494793.8
RECEIVE_FREQ_1 =   2022-11-18T16:43:51.859   2216494792.5
RECEIVE_FREQ_1 =   2022-11-18T16:44:01.882   2216494791.1
RECEIVE_FREQ_1 =   2022-11-18T16:44:21.926   2216494788.9
RECEIVE_FREQ_1 =   2022-11-18T16:45:01.930   2216494783.9
RECEIVE_FREQ_1 =   2022-11-18T16:45:11.866   2216494782.5
RECEIVE_FREQ_1 =   2022-11-18T16:46:01.891   2216494777.5
RECEIVE_FREQ_1 =   2022-11-18T16:46:21.850   2216494773.1
RECEIVE_FREQ_1 =   2022-11-18T16:46:51.917   2216494770.1
RECEIVE_FREQ_1 =   2022-11-18T16:47:21.898   2216494767.0
RECEIVE_FREQ_1 =   2022-11-18T16:47:31.920   2216494764.9
RECEIVE_FREQ_1 =   2022-11-18T16:47:41.856   2216494762.8
RECEIVE_FREQ_1 =   2022-11-18T16:48:31.882   2216494757.4
RECEIVE_FREQ_1 =   2022-11-18T16:48:41.904   2216494753.1
RECEIVE_FREQ_1 =   2022-11-18T16:49:21.907   2216494749.0
RECEIVE_FREQ_1 =   2022-11-18T16:50:51.850   2216494739.7
RECEIVE_FREQ_1 =   2022-11-18T16:51:01.872   2216494738.6
RECEIVE_FREQ_1 =   2022-11-18T16:51:31.853   2216494734.8
RECEIVE_FREQ_1 =   2022-11-18T16:52:31.901   2216494727.5
RECEIVE_FREQ_1 =   2022-11-18T16:52:41.923   2216494726.0
RECEIVE_FREQ_1 =   2022-11-18T16:52:51.859   2216494724.9
RECEIVE_FREQ_1 =   2022-11-18T16:53:31.862   2216494722.1
RECEIVE_FREQ_1 =   2022-11-18T16:54:01.843   2216494714.6
RECEIVE_FREQ_1 =   2022-11-18T16:55:01.891   2216494710.6
RECEIVE_FREQ_1 =   2022-11-18T16:56:01.853   2216494698.9
RECEIVE_FREQ_1 =   2022-11-18T16:56:51.878   2216494691.6
RECEIVE_FREQ_1 =   2022-11-18T16:57:41.904   2216494688.4
RECEIVE_FREQ_1 =   2022-11-18T16:58:31.843   2216494682.3
RECEIVE_FREQ_1 =   2022-11-18T16:59:11.846   2216494673.3
RECEIVE_FREQ_1 =   2022-11-18T16:59:51.850   2216494671.6
RECEIVE_FREQ_1 =   2022-11-18T17:00:11.894   2216494668.6
RECEIVE_FREQ_1 =   2022-11-18T17:00:41.875   2216494665.2
RECEIVE_FREQ_1 =   2022-11-18T17:00:51.898   2216494663.7
RECEIVE_FREQ_1 =   2022-11-18T17:01:41.837   2216494657.0
RECEIVE_FREQ_1 =   2022-11-18T17:02:31.862   2216494653.6
RECEIVE_FREQ_1 =   2022-11-18T17:03:11.866   2216494645.3
RECEIVE_FREQ_1 =   2022-11-18T17:03:31.910   2216494643.2
RECEIVE_FREQ_1 =   2022-11-18T17:04:11.914   2216494637.8
RECEIVE_FREQ_1 =   2022-11-18T17:04:21.850   2216494637.4
RECEIVE_FREQ_1 =   2022-11-18T17:05:51.878   2216494627.7
RECEIVE_FREQ_1 =   2022-11-18T17:06:21.859   2216494623.9
RECEIVE_FREQ_1 =   2022-11-18T17:07:11.885   2216494614.4
RECEIVE_FREQ_1 =   2022-11-18T17:09:21.917   2216494597.5
RECEIVE_FREQ_1 =   2022-11-18T17:10:21.878   2216494588.8
RECEIVE_FREQ_1 =   2022-11-18T17:10:31.901   2216494586.6
RECEIVE_FREQ_1 =   2022-11-18T17:10:41.923   2216494584.1
RECEIVE_FREQ_1 =   2022-11-18T17:10:51.859   2216494585.0
RECEIVE_FREQ_1 =   2022-11-18T17:11:31.862   2216494579.3
RECEIVE_FREQ_1 =   2022-11-18T17:11:51.907   2216494575.7
RECEIVE_FREQ_1 =   2022-11-18T17:13:21.850   2216494568.2
RECEIVE_FREQ_1 =   2022-11-18T17:15:31.882   2216494549.2
RECEIVE_FREQ_1 =   2022-11-18T17:15:51.840   2216494542.5
RECEIVE_FREQ_1 =   2022-11-18T17:17:31.891   2216494531.2
RECEIVE_FREQ_1 =   2022-11-18T17:18:41.875   2216494521.9
RECEIVE_FREQ_1 =   2022-11-18T17:19:01.834   2216494519.4
RECEIVE_FREQ_1 =   2022-11-18T17:20:21.840   2216494509.5
RECEIVE_FREQ_1 =   2022-11-18T17:21:31.910   2216494500.8
RECEIVE_FREQ_1 =   2022-11-18T17:22:01.891   2216494497.4
RECEIVE_FREQ_1 =   2022-11-18T17:22:11.914   2216494496.8
RECEIVE_FREQ_1 =   2022-11-18T17:22:41.894   2216494491.5
RECEIVE_FREQ_1 =   2022-11-18T17:23:01.853   2216494490.0
RECEIVE_FREQ_1 =   2022-11-18T17:23:21.898   2216494486.4
RECEIVE_FREQ_1 =   2022-11-18T17:23:31.834   2216494485.4
RECEIVE_FREQ_1 =   2022-11-18T17:24:21.859   2216494478.5
RECEIVE_FREQ_1 =   2022-11-18T17:24:31.882   2216494477.3
RECEIVE_FREQ_1 =   2022-11-18T17:24:41.904   2216494476.1
RECEIVE_FREQ_1 =   2022-11-18T17:25:01.862   2216494473.4
RECEIVE_FREQ_1 =   2022-11-18T17:25:11.885   2216494472.0
RECEIVE_FREQ_1 =   2022-11-18T17:25:31.843   2216494469.2
RECEIVE_FREQ_1 =   2022-11-18T17:25:41.866   2216494468.4
RECEIVE_FREQ_1 =   2022-11-18T17:25:51.888   2216494466.6
RECEIVE_FREQ_1 =   2022-11-18T17:26:01.910   2216494465.2
RECEIVE_FREQ_1 =   2022-11-18T17:26:11.846   2216494463.8
RECEIVE_FREQ_1 =   2022-11-18T17:26:21.869   2216494463.0
RECEIVE_FREQ_1 =   2022-11-18T17:26:31.891   2216494461.2
RECEIVE_FREQ_1 =   2022-11-18T17:26:41.914   2216494459.8
RECEIVE_FREQ_1 =   2022-11-18T17:26:51.850   2216494458.4
RECEIVE_FREQ_1 =   2022-11-18T17:27:11.894   2216494456.5
RECEIVE_FREQ_1 =   2022-11-18T17:27:21.917   2216494454.6
RECEIVE_FREQ_1 =   2022-11-18T17:27:31.853   2216494453.2
RECEIVE_FREQ_1 =   2022-11-18T17:27:41.875   2216494452.1
RECEIVE_FREQ_1 =   2022-11-18T17:27:51.898   2216494450.9
RECEIVE_FREQ_1 =   2022-11-18T17:28:01.920   2216494449.4
RECEIVE_FREQ_1 =   2022-11-18T17:28:11.856   2216494448.1
RECEIVE_FREQ_1 =   2022-11-18T17:28:21.878   2216494446.6
RECEIVE_FREQ_1 =   2022-11-18T17:28:31.901   2216494445.7
RECEIVE_FREQ_1 =   2022-11-18T17:28:41.837   2216494444.1
RECEIVE_FREQ_1 =   2022-11-18T17:28:51.859   2216494443.0
RECEIVE_FREQ_1 =   2022-11-18T17:29:01.882   2216494441.0
RECEIVE_FREQ_1 =   2022-11-18T17:29:11.904   2216494440.4
RECEIVE_FREQ_1 =   2022-11-18T17:29:21.840   2216494439.0
RECEIVE_FREQ_1 =   2022-11-18T17:29:31.862   2216494437.6
RECEIVE_FREQ_1 =   2022-11-18T17:29:41.885   2216494435.9
RECEIVE_FREQ_1 =   2022-11-18T17:29:51.907   2216494434.7
RECEIVE_FREQ_1 =   2022-11-18T17:30:11.866   2216494432.1
RECEIVE_FREQ_1 =   2022-11-18T17:30:21.888   2216494431.8
RECEIVE_FREQ_1 =   2022-11-18T17:30:31.910   2216494429.4
RECEIVE_FREQ_1 =   2022-11-18T17:30:51.869   2216494426.8
RECEIVE_FREQ_1 =   2022-11-18T17:31:01.891   2216494425.6
RECEIVE_FREQ_1 =   2022-11-18T17:31:11.914   2216494424.3
RECEIVE_FREQ_1 =   2022-11-18T17:31:21.850   2216494422.4
RECEIVE_FREQ_1 =   2022-11-18T17:31:31.872   2216494421.5
RECEIVE_FREQ_1 =   2022-11-18T17:31:41.894   2216494420.0
RECEIVE_FREQ_1 =   2022-11-18T17:31:51.917   2216494416.8
RECEIVE_FREQ_1 =   2022-11-18T17:32:11.875   2216494416.6
RECEIVE_FREQ_1 =   2022-11-18T17:32:21.898   2216494414.8
RECEIVE_FREQ_1 =   2022-11-18T17:32:31.834   2216494413.4
RECEIVE_FREQ_1 =   2022-11-18T17:32:41.856   2216494412.3
RECEIVE_FREQ_1 =   2022-11-18T17:32:51.878   2216494410.9
RECEIVE_FREQ_1 =   2022-11-18T17:33:01.901   2216494409.8
RECEIVE_FREQ_1 =   2022-11-18T17:33:11.923   2216494408.4
RECEIVE_FREQ_1 =   2022-11-18T17:33:31.882   2216494405.4
RECEIVE_FREQ_1 =   2022-11-18T17:33:41.904   2216494404.6
RECEIVE_FREQ_1 =   2022-11-18T17:33:51.840   2216494403.2
RECEIVE_FREQ_1 =   2022-11-18T17:34:01.862   2216494401.8
RECEIVE_FREQ_1 =   2022-11-18T17:34:11.885   2216494400.3
RECEIVE_FREQ_1 =   2022-11-18T17:34:21.907   2216494399.3
RECEIVE_FREQ_1 =   2022-11-18T17:34:31.843   2216494397.8
RECEIVE_FREQ_1 =   2022-11-18T17:34:41.866   2216494396.3
RECEIVE_FREQ_1 =   2022-11-18T17:34:51.888   2216494395.2
RECEIVE_FREQ_1 =   2022-11-18T17:35:01.910   2216494393.6
RECEIVE_FREQ_1 =   2022-11-18T17:35:11.846   2216494392.5
RECEIVE_FREQ_1 =   2022-11-18T17:35:21.869   2216494391.5
RECEIVE_FREQ_1 =   2022-11-18T17:35:31.891   2216494389.6
RECEIVE_FREQ_1 =   2022-11-18T17:35:41.827   2216494388.2
RECEIVE_FREQ_1 =   2022-11-18T17:35:51.850   2216494387.6
RECEIVE_FREQ_1 =   2022-11-18T17:36:01.872   2216494385.9
RECEIVE_FREQ_1 =   2022-11-18T17:36:11.894   2216494384.9
RECEIVE_FREQ_1 =   2022-11-18T17:36:21.917   2216494383.2
RECEIVE_FREQ_1 =   2022-11-18T17:36:31.853   2216494381.8
RECEIVE_FREQ_1 =   2022-11-18T17:36:41.875   2216494380.5
RECEIVE_FREQ_1 =   2022-11-18T17:36:51.898   2216494379.0
RECEIVE_FREQ_1 =   2022-11-18T17:37:01.834   2216494377.9
RECEIVE_FREQ_1 =   2022-11-18T17:37:11.856   2216494376.6
RECEIVE_FREQ_1 =   2022-11-18T17:37:21.878   2216494375.0
RECEIVE_FREQ_1 =   2022-11-18T17:37:31.901   2216494374.1
RECEIVE_FREQ_1 =   2022-11-18T17:37:41.837   2216494372.9
RECEIVE_FREQ_1 =   2022-11-18T17:37:51.859   2216494371.5
RECEIVE_FREQ_1 =   2022-11-18T17:38:01.882   2216494370.1
RECEIVE_FREQ_1 =   2022-11-18T17:38:11.904   2216494368.4
RECEIVE_FREQ_1 =   2022-11-18T17:38:21.840   2216494367.3
RECEIVE_FREQ_1 =   2022-11-18T17:38:31.862   2216494366.1
RECEIVE_FREQ_1 =   2022-11-18T17:38:41.885   2216494365.0
RECEIVE_FREQ_1 =   2022-11-18T17:38:51.907   2216494363.1
RECEIVE_FREQ_1 =   2022-11-18T17:39:01.843   2216494362.4
RECEIVE_FREQ_1 =   2022-11-18T17:39:11.866   2216494360.5
RECEIVE_FREQ_1 =   2022-11-18T17:39:21.888   2216494359.4
RECEIVE_FREQ_1 =   2022-11-18T17:39:31.910   2216494358.3
RECEIVE_FREQ_1 =   2022-11-18T17:39:41.846   2216494356.6
RECEIVE_FREQ_1 =   2022-11-18T17:39:51.869   2216494355.5
RECEIVE_FREQ_1 =   2022-11-18T17:40:01.891   2216494354.3
RECEIVE_FREQ_1 =   2022-11-18T17:40:11.914   2216494352.8
RECEIVE_FREQ_1 =   2022-11-18T17:40:21.850   2216494351.4
RECEIVE_FREQ_1 =   2022-11-18T17:40:31.872   2216494350.2
RECEIVE_FREQ_1 =   2022-11-18T17:40:41.894   2216494348.9
RECEIVE_FREQ_1 =   2022-11-18T17:40:51.830   2216494347.4
RECEIVE_FREQ_1 =   2022-11-18T17:41:01.853   2216494346.1
RECEIVE_FREQ_1 =   2022-11-18T17:41:11.875   2216494344.7
RECEIVE_FREQ_1 =   2022-11-18T17:41:21.898   2216494343.6
RECEIVE_FREQ_1 =   2022-11-18T17:41:31.920   2216494342.0
RECEIVE_FREQ_1 =   2022-11-18T17:41:41.856   2216494340.9
RECEIVE_FREQ_1 =   2022-11-18T17:41:51.878   2216494339.5
RECEIVE_FREQ_1 =   2022-11-18T17:42:01.901   2216494338.3
RECEIVE_FREQ_1 =   2022-11-18T17:42:11.837   2216494337.0
RECEIVE_FREQ_1 =   2022-11-18T17:42:21.859   2216494335.4
RECEIVE_FREQ_1 =   2022-11-18T17:42:31.882   2216494334.3
RECEIVE_FREQ_1 =   2022-11-18T17:42:41.904   2216494333.0
RECEIVE_FREQ_1 =   2022-11-18T17:42:51.840   2216494331.5
RECEIVE_FREQ_1 =   2022-11-18T17:43:01.862   2216494330.2
RECEIVE_FREQ_1 =   2022-11-18T17:43:11.885   2216494329.1
RECEIVE_FREQ_1 =   2022-11-18T17:43:21.907   2216494327.9
RECEIVE_FREQ_1 =   2022-11-18T17:43:31.843   2216494326.3
RECEIVE_FREQ_1 =   2022-11-18T17:43:41.866   2216494325.1
RECEIVE_FREQ_1 =   2022-11-18T17:43:51.888   2216494323.5
RECEIVE_FREQ_1 =   2022-11-18T17:44:01.910   2216494322.3
RECEIVE_FREQ_1 =   2022-11-18T17:44:11.846   2216494321.0
RECEIVE_FREQ_1 =   2022-11-18T17:44:21.869   2216494319.9
RECEIVE_FREQ_1 =   2022-11-18T17:44:31.891   2216494318.6
RECEIVE_FREQ_1 =   2022-11-18T17:44:41.914   2216494317.5
RECEIVE_FREQ_1 =   2022-11-18T17:44:51.850   2216494315.7
RECEIVE_FREQ_1 =   2022-11-18T17:45:01.872   2216494314.6
RECEIVE_FREQ_1 =   2022-11-18T17:45:11.894   2216494313.3
RECEIVE_FREQ_1 =   2022-11-18T17:45:21.917   2216494311.8
RECEIVE_FREQ_1 =   2022-11-18T17:45:31.853   2216494310.4
RECEIVE_FREQ_1 =   2022-11-18T17:45:41.875   2216494309.2
RECEIVE_FREQ_1 =   2022-11-18T17:45:51.898   2216494308.1
RECEIVE_FREQ_1 =   2022-11-18T17:46:01.834   2216494306.7
RECEIVE_FREQ_1 =   2022-11-18T17:46:11.856   2216494305.3
RECEIVE_FREQ_1 =   2022-11-18T17:46:21.878   2216494304.3
RECEIVE_FREQ_1 =   2022-11-18T17:46:31.901   2216494302.7
RECEIVE_FREQ_1 =   2022-11-18T17:46:41.837   2216494301.2
RECEIVE_FREQ_1 =   2022-11-18T17:46:51.859   2216494300.0
RECEIVE_FREQ_1 =   2022-11-18T17:47:01.882   2216494298.7
RECEIVE_FREQ_1 =   2022-11-18T17:47:11.904   2216494297.2
RECEIVE_FREQ_1 =   2022-11-18T17:47:21.840   2216494296.1
RECEIVE_FREQ_1 =   2022-11-18T17:47:31.862   2216494294.6
RECEIVE_FREQ_1 =   2022-11-18T17:47:41.885   2216494293.5
RECEIVE_FREQ_1 =   2022-11-18T17:47:51.907   2216494292.1
RECEIVE_FREQ_1 =   2022-11-18T17:48:01.843   2216494290.9
RECEIVE_FREQ_1 =   2022-11-18T17:48:01.843   2216494290.9
RECEIVE_FREQ_1 =   2022-11-18T17:48:11.866   2216494289.2
RECEIVE_FREQ_1 =   2022-11-18T17:48:21.888   2216494288.2
RECEIVE_FREQ_1 =   2022-11-18T17:48:31.910   2216494286.8
RECEIVE_FREQ_1 =   2022-11-18T17:48:41.846   2216494286.0
RECEIVE_FREQ_1 =   2022-11-18T17:48:51.869   2216494284.1
RECEIVE_FREQ_1 =   2022-11-18T17:49:01.891   2216494282.8
RECEIVE_FREQ_1 =   2022-11-18T17:49:11.914   2216494281.7
RECEIVE_FREQ_1 =   2022-11-18T17:49:21.850   2216494280.7
RECEIVE_FREQ_1 =   2022-11-18T17:49:31.872   2216494278.9
RECEIVE_FREQ_1 =   2022-11-18T17:49:41.894   2216494277.7
RECEIVE_FREQ_1 =   2022-11-18T17:49:51.830   2216494276.5
RECEIVE_FREQ_1 =   2022-11-18T17:50:01.853   2216494275.2
RECEIVE_FREQ_1 =   2022-11-18T17:50:11.875   2216494273.5
RECEIVE_FREQ_1 =   2022-11-18T17:50:21.898   2216494272.3
RECEIVE_FREQ_1 =   2022-11-18T17:50:31.834   2216494271.1
RECEIVE_FREQ_1 =   2022-11-18T17:50:41.856   2216494269.9
RECEIVE_FREQ_1 =   2022-11-18T17:50:51.878   2216494268.5
RECEIVE_FREQ_1 =   2022-11-18T17:51:01.901   2216494267.3
RECEIVE_FREQ_1 =   2022-11-18T17:51:11.923   2216494266.0
RECEIVE_FREQ_1 =   2022-11-18T17:51:21.859   2216494264.5
RECEIVE_FREQ_1 =   2022-11-18T17:51:31.882   2216494263.0
RECEIVE_FREQ_1 =   2022-11-18T17:51:41.904   2216494261.6
RECEIVE_FREQ_1 =   2022-11-18T17:51:51.840   2216494260.8
RECEIVE_FREQ_1 =   2022-11-18T17:52:01.862   2216494259.5
RECEIVE_FREQ_1 =   2022-11-18T17:52:11.885   2216494257.9
RECEIVE_FREQ_1 =   2022-11-18T17:52:21.907   2216494256.3
RECEIVE_FREQ_1 =   2022-11-18T17:52:31.843   2216494255.3
RECEIVE_FREQ_1 =   2022-11-18T17:52:41.866   2216494253.9
RECEIVE_FREQ_1 =   2022-11-18T17:52:51.888   2216494252.8
RECEIVE_FREQ_1 =   2022-11-18T17:53:01.910   2216494251.3
RECEIVE_FREQ_1 =   2022-11-18T17:53:11.846   2216494249.6
RECEIVE_FREQ_1 =   2022-11-18T17:53:21.869   2216494248.9
RECEIVE_FREQ_1 =   2022-11-18T17:53:31.891   2216494247.2
RECEIVE_FREQ_1 =   2022-11-18T17:53:41.914   2216494246.0
RECEIVE_FREQ_1 =   2022-11-18T17:53:51.850   2216494244.7
RECEIVE_FREQ_1 =   2022-11-18T17:54:01.872   2216494243.3
RECEIVE_FREQ_1 =   2022-11-18T17:54:11.894   2216494242.3
RECEIVE_FREQ_1 =   2022-11-18T17:54:21.917   2216494241.0
RECEIVE_FREQ_1 =   2022-11-18T17:54:31.853   2216494239.5
