data/tdm/2022-11-30Z_2022-156A.tdm

CCSDS_TDM_VERS = 2.0
COMMENT TDM ARTEMIS 1 Doppler data by Scott Tilley for 2022-11-30 UTC
COMMENT Signal not demodulated, to low of SNR, centre carrier integrated in 10s by 0.1Hz bin and extracted for peak value.
CREATION_DATE = 2022-11-30Z
ORIGINATOR = SCOTT TILLEY

META_START
COMMENT 
COMMENT 
SYSTEM TIME = UTC
PARTICIPANT_1 = COSPAR 8049
PARTICIPANT_2 = 2022-156A
MODE = SEQUENTIAL
PATH = 2,1
INTEGRATION_INTERVAL = 10
INTEGRATION_REF = MIDDLE
FREQ_OFFSET = 0
TRANSMIT_DELAY_1 = 0
RECEIVE_DELAY_1 = 0
DATA_QUALITY = RAW
META_STOP

DATA_START
RECEIVE_FREQ_1 =   2022-11-30T22:25:46.502   2216502795.8
RECEIVE_FREQ_1 =   2022-11-30T22:25:56.525   2216502794.9
RECEIVE_FREQ_1 =   2022-11-30T22:26:06.461   2216502794.4
RECEIVE_FREQ_1 =   2022-11-30T22:26:16.483   2216502793.4
RECEIVE_FREQ_1 =   2022-11-30T22:26:26.506   2216502792.0
RECEIVE_FREQ_1 =   2022-11-30T22:26:36.528   2216502791.5
RECEIVE_FREQ_1 =   2022-11-30T22:26:46.464   2216502790.6
RECEIVE_FREQ_1 =   2022-11-30T22:27:16.531   2216502787.9
RECEIVE_FREQ_1 =   2022-11-30T22:27:26.467   2216502786.9
RECEIVE_FREQ_1 =   2022-11-30T22:27:36.490   2216502786.5
RECEIVE_FREQ_1 =   2022-11-30T22:27:46.512   2216502785.0
RECEIVE_FREQ_1 =   2022-11-30T22:27:56.534   2216502784.5
RECEIVE_FREQ_1 =   2022-11-30T22:28:06.470   2216502783.8
RECEIVE_FREQ_1 =   2022-11-30T22:28:16.493   2216502782.8
RECEIVE_FREQ_1 =   2022-11-30T22:28:26.515   2216502782.1
RECEIVE_FREQ_1 =   2022-11-30T22:28:36.538   2216502781.4
RECEIVE_FREQ_1 =   2022-11-30T22:28:46.474   2216502780.6
RECEIVE_FREQ_1 =   2022-11-30T22:28:56.496   2216502780.1
RECEIVE_FREQ_1 =   2022-11-30T22:29:06.518   2216502779.0
RECEIVE_FREQ_1 =   2022-11-30T22:29:16.454   2216502778.2
RECEIVE_FREQ_1 =   2022-11-30T22:29:26.477   2216502777.7
RECEIVE_FREQ_1 =   2022-11-30T22:29:36.499   2216502777.0
RECEIVE_FREQ_1 =   2022-11-30T22:29:46.522   2216502776.2
RECEIVE_FREQ_1 =   2022-11-30T22:29:56.544   2216502775.4
RECEIVE_FREQ_1 =   2022-11-30T22:30:06.480   2216502774.6
RECEIVE_FREQ_1 =   2022-11-30T22:30:16.502   2216502773.8
RECEIVE_FREQ_1 =   2022-11-30T22:30:26.525   2216502772.9
RECEIVE_FREQ_1 =   2022-11-30T22:30:36.461   2216502772.0
RECEIVE_FREQ_1 =   2022-11-30T22:30:46.483   2216502771.4
RECEIVE_FREQ_1 =   2022-11-30T22:30:56.506   2216502770.5
RECEIVE_FREQ_1 =   2022-11-30T22:31:06.528   2216502769.8
RECEIVE_FREQ_1 =   2022-11-30T22:31:16.550   2216502768.9
RECEIVE_FREQ_1 =   2022-11-30T22:31:26.486   2216502768.2
RECEIVE_FREQ_1 =   2022-11-30T22:31:36.509   2216502767.2
RECEIVE_FREQ_1 =   2022-11-30T22:31:46.531   2216502766.4
RECEIVE_FREQ_1 =   2022-11-30T22:31:56.467   2216502765.7
RECEIVE_FREQ_1 =   2022-11-30T22:32:06.490   2216502764.8
RECEIVE_FREQ_1 =   2022-11-30T22:32:16.512   2216502764.1
RECEIVE_FREQ_1 =   2022-11-30T22:32:26.534   2216502763.3
RECEIVE_FREQ_1 =   2022-11-30T22:32:36.470   2216502762.7
RECEIVE_FREQ_1 =   2022-11-30T22:32:46.493   2216502761.7
RECEIVE_FREQ_1 =   2022-11-30T22:32:56.515   2216502760.9
RECEIVE_FREQ_1 =   2022-11-30T22:33:06.538   2216502760.2
RECEIVE_FREQ_1 =   2022-11-30T22:33:16.474   2216502759.1
RECEIVE_FREQ_1 =   2022-11-30T22:33:26.496   2216502758.4
RECEIVE_FREQ_1 =   2022-11-30T22:33:36.518   2216502757.5
RECEIVE_FREQ_1 =   2022-11-30T22:33:46.454   2216502757.0
RECEIVE_FREQ_1 =   2022-11-30T22:33:56.477   2216502755.8
RECEIVE_FREQ_1 =   2022-11-30T22:34:06.499   2216502755.1
RECEIVE_FREQ_1 =   2022-11-30T22:34:16.522   2216502754.1
RECEIVE_FREQ_1 =   2022-11-30T22:34:26.544   2216502753.6
RECEIVE_FREQ_1 =   2022-11-30T22:34:36.480   2216502752.7
RECEIVE_FREQ_1 =   2022-11-30T22:34:46.502   2216502752.0
RECEIVE_FREQ_1 =   2022-11-30T22:34:56.525   2216502751.0
RECEIVE_FREQ_1 =   2022-11-30T22:35:06.461   2216502750.0
RECEIVE_FREQ_1 =   2022-11-30T22:35:16.483   2216502749.5
RECEIVE_FREQ_1 =   2022-11-30T22:35:26.506   2216502748.8
RECEIVE_FREQ_1 =   2022-11-30T22:35:36.528   2216502747.7
RECEIVE_FREQ_1 =   2022-11-30T22:35:46.464   2216502746.9
RECEIVE_FREQ_1 =   2022-11-30T22:35:56.486   2216502746.1
RECEIVE_FREQ_1 =   2022-11-30T22:36:06.509   2216502745.2
RECEIVE_FREQ_1 =   2022-11-30T22:36:16.531   2216502744.2
RECEIVE_FREQ_1 =   2022-11-30T22:36:26.467   2216502743.6
RECEIVE_FREQ_1 =   2022-11-30T22:36:36.490   2216502742.7
RECEIVE_FREQ_1 =   2022-11-30T22:36:46.512   2216502741.8
RECEIVE_FREQ_1 =   2022-11-30T22:36:56.534   2216502741.0
RECEIVE_FREQ_1 =   2022-11-30T22:37:06.470   2216502739.8
RECEIVE_FREQ_1 =   2022-11-30T22:37:16.493   2216502739.0
RECEIVE_FREQ_1 =   2022-11-30T22:37:26.515   2216502738.4
RECEIVE_FREQ_1 =   2022-11-30T22:37:36.538   2216502737.3
RECEIVE_FREQ_1 =   2022-11-30T22:37:46.474   2216502736.6
RECEIVE_FREQ_1 =   2022-11-30T22:37:56.496   2216502735.6
RECEIVE_FREQ_1 =   2022-11-30T22:38:06.518   2216502734.8
RECEIVE_FREQ_1 =   2022-11-30T22:38:16.541   2216502734.0
RECEIVE_FREQ_1 =   2022-11-30T22:38:26.477   2216502733.0
RECEIVE_FREQ_1 =   2022-11-30T22:38:36.499   2216502732.4
RECEIVE_FREQ_1 =   2022-11-30T22:38:46.522   2216502731.6
RECEIVE_FREQ_1 =   2022-11-30T22:38:56.458   2216502730.5
RECEIVE_FREQ_1 =   2022-11-30T22:39:06.480   2216502729.7
RECEIVE_FREQ_1 =   2022-11-30T22:39:16.502   2216502728.9
RECEIVE_FREQ_1 =   2022-11-30T22:39:26.525   2216502728.0
RECEIVE_FREQ_1 =   2022-11-30T22:39:36.461   2216502727.1
RECEIVE_FREQ_1 =   2022-11-30T22:39:46.483   2216502725.9
RECEIVE_FREQ_1 =   2022-11-30T22:39:56.506   2216502725.2
RECEIVE_FREQ_1 =   2022-11-30T22:40:06.528   2216502724.3
RECEIVE_FREQ_1 =   2022-11-30T22:40:16.464   2216502723.4
RECEIVE_FREQ_1 =   2022-11-30T22:40:26.486   2216502722.6
RECEIVE_FREQ_1 =   2022-11-30T22:40:36.509   2216502721.5
RECEIVE_FREQ_1 =   2022-11-30T22:40:46.531   2216502720.7
RECEIVE_FREQ_1 =   2022-11-30T22:40:56.467   2216502719.9
RECEIVE_FREQ_1 =   2022-11-30T22:41:56.515   2216502714.2
RECEIVE_FREQ_1 =   2022-11-30T22:42:06.538   2216502713.5
RECEIVE_FREQ_1 =   2022-11-30T22:42:16.474   2216502712.5
RECEIVE_FREQ_1 =   2022-11-30T22:42:26.496   2216502711.7
RECEIVE_FREQ_1 =   2022-11-30T22:42:36.518   2216502710.9
RECEIVE_FREQ_1 =   2022-11-30T22:42:46.541   2216502709.9
RECEIVE_FREQ_1 =   2022-11-30T22:42:56.477   2216502709.2
RECEIVE_FREQ_1 =   2022-11-30T22:43:06.499   2216502707.9
RECEIVE_FREQ_1 =   2022-11-30T22:43:16.522   2216502707.1
RECEIVE_FREQ_1 =   2022-11-30T22:43:26.458   2216502706.3
RECEIVE_FREQ_1 =   2022-11-30T22:43:36.480   2216502705.4
RECEIVE_FREQ_1 =   2022-11-30T22:43:46.502   2216502704.4
RECEIVE_FREQ_1 =   2022-11-30T22:43:56.525   2216502703.4
RECEIVE_FREQ_1 =   2022-11-30T22:44:06.461   2216502702.2
RECEIVE_FREQ_1 =   2022-11-30T22:44:16.483   2216502701.6
RECEIVE_FREQ_1 =   2022-11-30T22:44:26.506   2216502700.6
RECEIVE_FREQ_1 =   2022-11-30T22:44:36.528   2216502699.8
RECEIVE_FREQ_1 =   2022-11-30T22:44:46.464   2216502698.6
RECEIVE_FREQ_1 =   2022-11-30T22:44:56.486   2216502697.8
RECEIVE_FREQ_1 =   2022-11-30T22:45:06.509   2216502696.7
RECEIVE_FREQ_1 =   2022-11-30T22:45:16.531   2216502695.8
RECEIVE_FREQ_1 =   2022-11-30T22:45:26.467   2216502694.8
RECEIVE_FREQ_1 =   2022-11-30T22:45:36.490   2216502693.9
RECEIVE_FREQ_1 =   2022-11-30T22:45:46.512   2216502693.0
RECEIVE_FREQ_1 =   2022-11-30T22:45:56.534   2216502692.1
RECEIVE_FREQ_1 =   2022-11-30T22:46:06.470   2216502691.1
RECEIVE_FREQ_1 =   2022-11-30T22:46:16.493   2216502690.4
RECEIVE_FREQ_1 =   2022-11-30T22:46:26.515   2216502689.2
RECEIVE_FREQ_1 =   2022-11-30T22:46:36.538   2216502688.3
RECEIVE_FREQ_1 =   2022-11-30T22:46:46.474   2216502687.1
RECEIVE_FREQ_1 =   2022-11-30T22:46:56.496   2216502686.3
RECEIVE_FREQ_1 =   2022-11-30T22:47:06.518   2216502685.4
RECEIVE_FREQ_1 =   2022-11-30T22:47:16.454   2216502684.2
RECEIVE_FREQ_1 =   2022-11-30T22:47:26.477   2216502683.3
RECEIVE_FREQ_1 =   2022-11-30T22:47:36.499   2216502682.3
RECEIVE_FREQ_1 =   2022-11-30T22:47:46.522   2216502681.4
RECEIVE_FREQ_1 =   2022-11-30T22:47:56.458   2216502680.3
RECEIVE_FREQ_1 =   2022-11-30T22:48:06.480   2216502679.3
RECEIVE_FREQ_1 =   2022-11-30T22:48:16.502   2216502678.5
RECEIVE_FREQ_1 =   2022-11-30T22:48:26.525   2216502677.6
RECEIVE_FREQ_1 =   2022-11-30T22:48:36.547   2216502676.6
RECEIVE_FREQ_1 =   2022-11-30T22:48:46.483   2216502675.4
RECEIVE_FREQ_1 =   2022-11-30T22:48:56.506   2216502674.5
RECEIVE_FREQ_1 =   2022-11-30T22:49:06.528   2216502673.3
RECEIVE_FREQ_1 =   2022-11-30T22:49:16.464   2216502672.7
RECEIVE_FREQ_1 =   2022-11-30T22:49:26.486   2216502671.7
RECEIVE_FREQ_1 =   2022-11-30T22:49:36.509   2216502670.7
RECEIVE_FREQ_1 =   2022-11-30T22:49:46.531   2216502669.8
RECEIVE_FREQ_1 =   2022-11-30T22:49:56.467   2216502668.8
RECEIVE_FREQ_1 =   2022-11-30T22:50:06.490   2216502667.7
RECEIVE_FREQ_1 =   2022-11-30T22:50:16.512   2216502666.7
RECEIVE_FREQ_1 =   2022-11-30T22:50:26.534   2216502666.0
RECEIVE_FREQ_1 =   2022-11-30T22:50:36.470   2216502665.1
RECEIVE_FREQ_1 =   2022-11-30T22:50:46.493   2216502664.1
RECEIVE_FREQ_1 =   2022-11-30T22:50:56.515   2216502663.3
RECEIVE_FREQ_1 =   2022-11-30T22:51:06.538   2216502662.3
RECEIVE_FREQ_1 =   2022-11-30T22:51:16.474   2216502661.7
RECEIVE_FREQ_1 =   2022-11-30T22:51:26.496   2216502660.5
RECEIVE_FREQ_1 =   2022-11-30T22:51:36.518   2216502659.8
RECEIVE_FREQ_1 =   2022-11-30T22:51:46.541   2216502658.9
RECEIVE_FREQ_1 =   2022-11-30T22:51:56.477   2216502658.0
RECEIVE_FREQ_1 =   2022-11-30T22:52:06.499   2216502657.1
RECEIVE_FREQ_1 =   2022-11-30T22:52:16.522   2216502656.0
RECEIVE_FREQ_1 =   2022-11-30T22:52:26.544   2216502655.3
RECEIVE_FREQ_1 =   2022-11-30T22:52:36.480   2216502654.3
RECEIVE_FREQ_1 =   2022-11-30T22:52:46.502   2216502653.9
RECEIVE_FREQ_1 =   2022-11-30T22:52:56.525   2216502652.5
RECEIVE_FREQ_1 =   2022-11-30T22:53:06.547   2216502651.7
RECEIVE_FREQ_1 =   2022-11-30T22:53:16.483   2216502650.8
RECEIVE_FREQ_1 =   2022-11-30T22:53:26.506   2216502649.9
RECEIVE_FREQ_1 =   2022-11-30T22:53:36.528   2216502648.8
RECEIVE_FREQ_1 =   2022-11-30T22:53:46.550   2216502648.0
RECEIVE_FREQ_1 =   2022-11-30T22:53:56.486   2216502647.2
RECEIVE_FREQ_1 =   2022-11-30T22:54:06.509   2216502646.4
RECEIVE_FREQ_1 =   2022-11-30T22:54:16.531   2216502645.4
RECEIVE_FREQ_1 =   2022-11-30T22:54:26.467   2216502644.4
RECEIVE_FREQ_1 =   2022-11-30T22:54:36.490   2216502643.6
RECEIVE_FREQ_1 =   2022-11-30T22:54:46.512   2216502642.7
RECEIVE_FREQ_1 =   2022-11-30T22:54:56.534   2216502641.6
RECEIVE_FREQ_1 =   2022-11-30T22:55:06.470   2216502640.8
RECEIVE_FREQ_1 =   2022-11-30T22:55:16.493   2216502639.8
RECEIVE_FREQ_1 =   2022-11-30T22:55:26.515   2216502638.9
RECEIVE_FREQ_1 =   2022-11-30T22:55:36.538   2216502638.3
RECEIVE_FREQ_1 =   2022-11-30T23:08:46.493   2216502559.645
RECEIVE_FREQ_1 =   2022-11-30T23:09:16.474   2216502556.545
RECEIVE_FREQ_1 =   2022-11-30T23:09:36.518   2216502554.645
RECEIVE_FREQ_1 =   2022-11-30T23:09:56.477   2216502552.145
RECEIVE_FREQ_1 =   2022-11-30T23:10:06.499   2216502551.345
RECEIVE_FREQ_1 =   2022-11-30T23:10:26.458   2216502548.845
RECEIVE_FREQ_1 =   2022-11-30T23:10:46.502   2216502546.945
RECEIVE_FREQ_1 =   2022-11-30T23:10:56.525   2216502546.045
RECEIVE_FREQ_1 =   2022-11-30T23:11:06.547   2216502544.945
RECEIVE_FREQ_1 =   2022-11-30T23:11:16.483   2216502543.845
RECEIVE_FREQ_1 =   2022-11-30T23:11:26.506   2216502542.945
RECEIVE_FREQ_1 =   2022-11-30T23:11:36.528   2216502541.445
RECEIVE_FREQ_1 =   2022-11-30T23:11:46.464   2216502540.145
RECEIVE_FREQ_1 =   2022-11-30T23:11:56.486   2216502539.145
RECEIVE_FREQ_1 =   2022-11-30T23:12:06.509   2216502538.545
RECEIVE_FREQ_1 =   2022-11-30T23:12:16.531   2216502536.945
RECEIVE_FREQ_1 =   2022-11-30T23:12:26.467   2216502536.145
RECEIVE_FREQ_1 =   2022-11-30T23:12:36.490   2216502534.845
RECEIVE_FREQ_1 =   2022-11-30T23:12:46.512   2216502534.145
RECEIVE_FREQ_1 =   2022-11-30T23:13:06.470   2216502531.945
RECEIVE_FREQ_1 =   2022-11-30T23:13:16.493   2216502530.745
RECEIVE_FREQ_1 =   2022-11-30T23:13:26.515   2216502529.745
RECEIVE_FREQ_1 =   2022-11-30T23:13:36.451   2216502528.545
RECEIVE_FREQ_1 =   2022-11-30T23:13:46.474   2216502527.145
RECEIVE_FREQ_1 =   2022-11-30T23:13:56.496   2216502526.445
RECEIVE_FREQ_1 =   2022-11-30T23:14:06.518   2216502525.445
RECEIVE_FREQ_1 =   2022-11-30T23:14:16.454   2216502524.145
RECEIVE_FREQ_1 =   2022-11-30T23:14:26.477   2216502523.445
RECEIVE_FREQ_1 =   2022-11-30T23:14:36.499   2216502522.345
RECEIVE_FREQ_1 =   2022-11-30T23:14:46.522   2216502521.445
RECEIVE_FREQ_1 =   2022-11-30T23:14:56.544   2216502520.445
RECEIVE_FREQ_1 =   2022-11-30T23:15:06.480   2216502519.145
RECEIVE_FREQ_1 =   2022-11-30T23:15:16.502   2216502518.345
RECEIVE_FREQ_1 =   2022-11-30T23:16:56.467   2216502508.245
RECEIVE_FREQ_1 =   2022-11-30T23:17:26.448   2216502505.345
RECEIVE_FREQ_1 =   2022-11-30T23:17:36.470   2216502504.445
RECEIVE_FREQ_1 =   2022-11-30T23:17:46.493   2216502503.345
RECEIVE_FREQ_1 =   2022-11-30T23:17:56.515   2216502502.245
RECEIVE_FREQ_1 =   2022-11-30T23:18:06.451   2216502500.945
RECEIVE_FREQ_1 =   2022-11-30T23:18:36.518   2216502498.445
RECEIVE_FREQ_1 =   2022-11-30T23:18:46.541   2216502497.145
RECEIVE_FREQ_1 =   2022-11-30T23:18:56.477   2216502496.345
RECEIVE_FREQ_1 =   2022-11-30T23:19:06.499   2216502494.845
RECEIVE_FREQ_1 =   2022-11-30T23:19:26.544   2216502493.045
RECEIVE_FREQ_1 =   2022-11-30T23:19:36.480   2216502492.245
RECEIVE_FREQ_1 =   2022-11-30T23:19:56.525   2216502490.145
RECEIVE_FREQ_1 =   2022-11-30T23:20:16.483   2216502487.745
RECEIVE_FREQ_1 =   2022-11-30T23:20:36.528   2216502485.945
RECEIVE_FREQ_1 =   2022-11-30T23:20:56.486   2216502483.745
RECEIVE_FREQ_1 =   2022-11-30T23:21:26.467   2216502480.645
RECEIVE_FREQ_1 =   2022-11-30T23:21:36.490   2216502479.645
RECEIVE_FREQ_1 =   2022-11-30T23:21:46.512   2216502478.645
RECEIVE_FREQ_1 =   2022-11-30T23:21:56.534   2216502477.245
RECEIVE_FREQ_1 =   2022-11-30T23:22:06.470   2216502475.745
RECEIVE_FREQ_1 =   2022-11-30T23:22:16.493   2216502475.345
RECEIVE_FREQ_1 =   2022-11-30T23:22:36.451   2216502473.145
RECEIVE_FREQ_1 =   2022-11-30T23:22:46.474   2216502471.845
RECEIVE_FREQ_1 =   2022-11-30T23:22:56.496   2216502471.145
RECEIVE_FREQ_1 =   2022-11-30T23:23:06.518   2216502469.945
RECEIVE_FREQ_1 =   2022-11-30T23:23:16.454   2216502468.845
RECEIVE_FREQ_1 =   2022-11-30T23:23:26.477   2216502467.745
RECEIVE_FREQ_1 =   2022-11-30T23:23:36.499   2216502466.645
RECEIVE_FREQ_1 =   2022-11-30T23:23:46.522   2216502465.745
RECEIVE_FREQ_1 =   2022-11-30T23:24:06.480   2216502463.445
RECEIVE_FREQ_1 =   2022-11-30T23:24:16.502   2216502462.245
RECEIVE_FREQ_1 =   2022-11-30T23:24:26.525   2216502461.345
RECEIVE_FREQ_1 =   2022-11-30T23:24:36.547   2216502460.245
RECEIVE_FREQ_1 =   2022-11-30T23:24:46.483   2216502459.145
RECEIVE_FREQ_1 =   2022-11-30T23:24:56.506   2216502458.045
RECEIVE_FREQ_1 =   2022-11-30T23:25:06.528   2216502457.045
RECEIVE_FREQ_1 =   2022-11-30T23:25:16.464   2216502455.845
RECEIVE_FREQ_1 =   2022-11-30T23:25:26.486   2216502455.045
RECEIVE_FREQ_1 =   2022-11-30T23:25:36.509   2216502453.945
RECEIVE_FREQ_1 =   2022-11-30T23:25:46.531   2216502452.545
RECEIVE_FREQ_1 =   2022-11-30T23:25:56.467   2216502451.745
RECEIVE_FREQ_1 =   2022-11-30T23:26:06.490   2216502450.245
RECEIVE_FREQ_1 =   2022-11-30T23:26:16.512   2216502449.345
RECEIVE_FREQ_1 =   2022-11-30T23:26:26.448   2216502448.445
RECEIVE_FREQ_1 =   2022-11-30T23:26:36.470   2216502447.145
RECEIVE_FREQ_1 =   2022-11-30T23:26:46.493   2216502446.145
RECEIVE_FREQ_1 =   2022-11-30T23:26:56.515   2216502445.145
RECEIVE_FREQ_1 =   2022-11-30T23:27:06.538   2216502443.945
RECEIVE_FREQ_1 =   2022-11-30T23:27:16.474   2216502442.445
RECEIVE_FREQ_1 =   2022-11-30T23:27:26.496   2216502441.645
RECEIVE_FREQ_1 =   2022-11-30T23:27:36.518   2216502440.545
RECEIVE_FREQ_1 =   2022-11-30T23:27:46.541   2216502439.245
RECEIVE_FREQ_1 =   2022-11-30T23:27:56.477   2216502438.345
RECEIVE_FREQ_1 =   2022-11-30T23:28:06.499   2216502437.245
RECEIVE_FREQ_1 =   2022-11-30T23:28:16.522   2216502435.945
RECEIVE_FREQ_1 =   2022-11-30T23:28:26.458   2216502435.145
RECEIVE_FREQ_1 =   2022-11-30T23:28:36.480   2216502433.845
RECEIVE_FREQ_1 =   2022-11-30T23:28:46.502   2216502432.545
RECEIVE_FREQ_1 =   2022-11-30T23:28:56.525   2216502431.645
RECEIVE_FREQ_1 =   2022-11-30T23:29:06.547   2216502430.545
RECEIVE_FREQ_1 =   2022-11-30T23:29:16.483   2216502429.345
RECEIVE_FREQ_1 =   2022-11-30T23:29:26.506   2216502428.345
RECEIVE_FREQ_1 =   2022-11-30T23:29:36.528   2216502426.945
RECEIVE_FREQ_1 =   2022-11-30T23:29:46.464   2216502425.945
RECEIVE_FREQ_1 =   2022-11-30T23:29:56.486   2216502425.145
RECEIVE_FREQ_1 =   2022-11-30T23:30:06.509   2216502423.745
RECEIVE_FREQ_1 =   2022-11-30T23:30:16.531   2216502422.545
RECEIVE_FREQ_1 =   2022-11-30T23:30:26.554   2216502421.645
RECEIVE_FREQ_1 =   2022-11-30T23:30:36.490   2216502420.645
RECEIVE_FREQ_1 =   2022-11-30T23:30:46.512   2216502419.345
RECEIVE_FREQ_1 =   2022-11-30T23:30:56.534   2216502418.045
RECEIVE_FREQ_1 =   2022-11-30T23:31:06.470   2216502416.845
RECEIVE_FREQ_1 =   2022-11-30T23:31:16.493   2216502415.645
RECEIVE_FREQ_1 =   2022-11-30T23:31:26.515   2216502414.645
RECEIVE_FREQ_1 =   2022-11-30T23:31:36.538   2216502413.845
RECEIVE_FREQ_1 =   2022-11-30T23:31:46.474   2216502412.545
RECEIVE_FREQ_1 =   2022-11-30T23:31:56.496   2216502411.445
RECEIVE_FREQ_1 =   2022-11-30T23:32:06.518   2216502410.145
RECEIVE_FREQ_1 =   2022-11-30T23:32:16.541   2216502409.045
RECEIVE_FREQ_1 =   2022-11-30T23:32:26.477   2216502407.645
RECEIVE_FREQ_1 =   2022-11-30T23:32:36.499   2216502406.545
RECEIVE_FREQ_1 =   2022-11-30T23:32:46.522   2216502405.445
RECEIVE_FREQ_1 =   2022-11-30T23:32:56.458   2216502404.645
RECEIVE_FREQ_1 =   2022-11-30T23:33:06.480   2216502402.945
RECEIVE_FREQ_1 =   2022-11-30T23:33:16.502   2216502402.145
RECEIVE_FREQ_1 =   2022-11-30T23:33:26.525   2216502400.945
RECEIVE_FREQ_1 =   2022-11-30T23:33:36.461   2216502399.545
RECEIVE_FREQ_1 =   2022-11-30T23:33:46.483   2216502398.645
RECEIVE_FREQ_1 =   2022-11-30T23:34:06.528   2216502396.145
RECEIVE_FREQ_1 =   2022-11-30T23:34:16.464   2216502395.145
RECEIVE_FREQ_1 =   2022-11-30T23:34:26.486   2216502394.145
RECEIVE_FREQ_1 =   2022-11-30T23:34:36.509   2216502392.545
RECEIVE_FREQ_1 =   2022-11-30T23:34:56.467   2216502390.345
RECEIVE_FREQ_1 =   2022-11-30T23:35:06.490   2216502389.445
RECEIVE_FREQ_1 =   2022-11-30T23:35:26.534   2216502386.845
RECEIVE_FREQ_1 =   2022-11-30T23:35:36.470   2216502385.845
RECEIVE_FREQ_1 =   2022-11-30T23:35:46.493   2216502384.345
RECEIVE_FREQ_1 =   2022-11-30T23:35:56.515   2216502383.245
RECEIVE_FREQ_1 =   2022-11-30T23:36:06.538   2216502382.1
RECEIVE_FREQ_1 =   2022-11-30T23:36:16.474   2216502381.145
RECEIVE_FREQ_1 =   2022-11-30T23:36:26.496   2216502379.745
RECEIVE_FREQ_1 =   2022-11-30T23:36:36.518   2216502378.845
RECEIVE_FREQ_1 =   2022-11-30T23:36:46.541   2216502377.645
RECEIVE_FREQ_1 =   2022-11-30T23:36:56.477   2216502376.045
RECEIVE_FREQ_1 =   2022-11-30T23:37:06.499   2216502375.345
RECEIVE_FREQ_1 =   2022-11-30T23:37:16.522   2216502373.945
RECEIVE_FREQ_1 =   2022-11-30T23:37:26.458   2216502372.745
RECEIVE_FREQ_1 =   2022-11-30T23:37:36.480   2216502371.945
RECEIVE_FREQ_1 =   2022-11-30T23:37:46.502   2216502370.445
RECEIVE_FREQ_1 =   2022-11-30T23:37:56.525   2216502369.145
RECEIVE_FREQ_1 =   2022-11-30T23:38:06.547   2216502368.245
RECEIVE_FREQ_1 =   2022-11-30T23:38:16.483   2216502366.945
RECEIVE_FREQ_1 =   2022-11-30T23:38:26.506   2216502365.645
RECEIVE_FREQ_1 =   2022-11-30T23:38:36.528   2216502364.545
RECEIVE_FREQ_1 =   2022-11-30T23:38:46.464   2216502363.045
RECEIVE_FREQ_1 =   2022-11-30T23:38:56.486   2216502361.845
RECEIVE_FREQ_1 =   2022-11-30T23:39:06.509   2216502360.945
RECEIVE_FREQ_1 =   2022-11-30T23:39:16.531   2216502359.545
RECEIVE_FREQ_1 =   2022-11-30T23:39:26.467   2216502358.645
RECEIVE_FREQ_1 =   2022-11-30T23:39:36.490   2216502357.445
RECEIVE_FREQ_1 =   2022-11-30T23:39:46.512   2216502356.345
RECEIVE_FREQ_1 =   2022-11-30T23:39:56.534   2216502355.445
RECEIVE_FREQ_1 =   2022-11-30T23:40:06.557   2216502354.445
RECEIVE_FREQ_1 =   2022-11-30T23:40:16.493   2216502353.545
RECEIVE_FREQ_1 =   2022-11-30T23:40:26.515   2216502352.4
RECEIVE_FREQ_1 =   2022-11-30T23:40:36.451   2216502351.545
RECEIVE_FREQ_1 =   2022-11-30T23:40:46.474   2216502349.745
RECEIVE_FREQ_1 =   2022-11-30T23:40:56.496   2216502348.745
RECEIVE_FREQ_1 =   2022-11-30T23:41:06.518   2216502347.845
RECEIVE_FREQ_1 =   2022-11-30T23:41:16.541   2216502346.745
RECEIVE_FREQ_1 =   2022-11-30T23:41:26.477   2216502345.245
RECEIVE_FREQ_1 =   2022-11-30T23:41:36.499   2216502344.545
RECEIVE_FREQ_1 =   2022-11-30T23:41:46.522   2216502343.445
RECEIVE_FREQ_1 =   2022-11-30T23:41:56.458   2216502342.245
RECEIVE_FREQ_1 =   2022-11-30T23:42:06.480   2216502340.945
RECEIVE_FREQ_1 =   2022-11-30T23:42:16.502   2216502339.845
RECEIVE_FREQ_1 =   2022-11-30T23:42:26.525   2216502338.745
RECEIVE_FREQ_1 =   2022-11-30T23:42:36.547   2216502337.645
RECEIVE_FREQ_1 =   2022-11-30T23:42:46.483   2216502336.745
RECEIVE_FREQ_1 =   2022-11-30T23:42:56.506   2216502335.545
RECEIVE_FREQ_1 =   2022-11-30T23:43:06.528   2216502334.145
RECEIVE_FREQ_1 =   2022-11-30T23:43:16.464   2216502333.045
RECEIVE_FREQ_1 =   2022-11-30T23:43:26.486   2216502332.045
RECEIVE_FREQ_1 =   2022-11-30T23:43:36.509   2216502330.845
RECEIVE_FREQ_1 =   2022-11-30T23:43:46.531   2216502329.745
RECEIVE_FREQ_1 =   2022-11-30T23:43:56.467   2216502328.945
RECEIVE_FREQ_1 =   2022-11-30T23:44:06.490   2216502327.645
RECEIVE_FREQ_1 =   2022-11-30T23:44:16.512   2216502326.945
RECEIVE_FREQ_1 =   2022-11-30T23:44:26.534   2216502325.345
RECEIVE_FREQ_1 =   2022-11-30T23:44:36.470   2216502324.145
RECEIVE_FREQ_1 =   2022-11-30T23:44:46.493   2216502322.845
RECEIVE_FREQ_1 =   2022-11-30T23:44:56.515   2216502321.945
RECEIVE_FREQ_1 =   2022-11-30T23:45:06.538   2216502320.645
RECEIVE_FREQ_1 =   2022-11-30T23:45:16.474   2216502319.845
RECEIVE_FREQ_1 =   2022-11-30T23:45:26.496   2216502318.345
RECEIVE_FREQ_1 =   2022-11-30T23:45:36.518   2216502317.245
RECEIVE_FREQ_1 =   2022-11-30T23:45:46.454   2216502316.345
RECEIVE_FREQ_1 =   2022-11-30T23:45:56.477   2216502314.945
RECEIVE_FREQ_1 =   2022-11-30T23:46:06.499   2216502313.945
RECEIVE_FREQ_1 =   2022-11-30T23:46:16.522   2216502312.445
RECEIVE_FREQ_1 =   2022-11-30T23:46:26.458   2216502311.245
RECEIVE_FREQ_1 =   2022-11-30T23:46:36.480   2216502310.345
RECEIVE_FREQ_1 =   2022-11-30T23:46:46.502   2216502309.045
RECEIVE_FREQ_1 =   2022-11-30T23:46:56.525   2216502308.045
RECEIVE_FREQ_1 =   2022-11-30T23:47:06.547   2216502306.945
RECEIVE_FREQ_1 =   2022-11-30T23:47:16.483   2216502305.945
RECEIVE_FREQ_1 =   2022-11-30T23:47:26.506   2216502304.645
RECEIVE_FREQ_1 =   2022-11-30T23:47:36.528   2216502303.745
RECEIVE_FREQ_1 =   2022-11-30T23:47:46.464   2216502302.545
RECEIVE_FREQ_1 =   2022-11-30T23:47:56.486   2216502301.245
RECEIVE_FREQ_1 =   2022-11-30T23:48:06.509   2216502299.945
RECEIVE_FREQ_1 =   2022-11-30T23:48:16.531   2216502298.845
RECEIVE_FREQ_1 =   2022-11-30T23:48:26.554   2216502297.945
RECEIVE_FREQ_1 =   2022-11-30T23:48:46.512   2216502295.645
RECEIVE_FREQ_1 =   2022-11-30T23:48:56.534   2216502293.745
RECEIVE_FREQ_1 =   2022-11-30T23:49:16.493   2216502291.745
RECEIVE_FREQ_1 =   2022-11-30T23:49:26.515   2216502290.645
RECEIVE_FREQ_1 =   2022-11-30T23:49:36.451   2216502289.545
RECEIVE_FREQ_1 =   2022-11-30T23:49:46.474   2216502288.445
RECEIVE_FREQ_1 =   2022-11-30T23:49:56.496   2216502287.445
RECEIVE_FREQ_1 =   2022-11-30T23:50:06.518   2216502285.845
RECEIVE_FREQ_1 =   2022-11-30T23:50:16.454   2216502284.545
RECEIVE_FREQ_1 =   2022-11-30T23:50:26.477   2216502283.645
RECEIVE_FREQ_1 =   2022-11-30T23:50:36.499   2216502282.545
RECEIVE_FREQ_1 =   2022-11-30T23:50:46.522   2216502281.245
RECEIVE_FREQ_1 =   2022-11-30T23:50:56.458   2216502279.845
RECEIVE_FREQ_1 =   2022-11-30T23:51:06.480   2216502278.745
RECEIVE_FREQ_1 =   2022-11-30T23:51:16.502   2216502277.545
RECEIVE_FREQ_1 =   2022-11-30T23:51:26.525   2216502276.845
RECEIVE_FREQ_1 =   2022-11-30T23:51:36.461   2216502275.445
RECEIVE_FREQ_1 =   2022-11-30T23:51:46.483   2216502274.245
RECEIVE_FREQ_1 =   2022-11-30T23:51:56.506   2216502272.945
RECEIVE_FREQ_1 =   2022-11-30T23:52:06.528   2216502271.745
RECEIVE_FREQ_1 =   2022-11-30T23:52:16.464   2216502270.445
RECEIVE_FREQ_1 =   2022-11-30T23:52:26.486   2216502269.345
RECEIVE_FREQ_1 =   2022-11-30T23:52:36.509   2216502267.945
RECEIVE_FREQ_1 =   2022-11-30T23:52:46.531   2216502267.145
RECEIVE_FREQ_1 =   2022-11-30T23:52:56.467   2216502265.645
RECEIVE_FREQ_1 =   2022-11-30T23:53:06.490   2216502264.645
RECEIVE_FREQ_1 =   2022-11-30T23:53:16.512   2216502263.145
RECEIVE_FREQ_1 =   2022-11-30T23:53:26.448   2216502262.045
RECEIVE_FREQ_1 =   2022-11-30T23:53:36.470   2216502260.945
RECEIVE_FREQ_1 =   2022-11-30T23:53:46.493   2216502259.845
RECEIVE_FREQ_1 =   2022-11-30T23:53:56.515   2216502258.445
RECEIVE_FREQ_1 =   2022-11-30T23:54:06.538   2216502257.345
RECEIVE_FREQ_1 =   2022-11-30T23:54:16.474   2216502256.345
RECEIVE_FREQ_1 =   2022-11-30T23:54:26.496   2216502255.245
RECEIVE_FREQ_1 =   2022-11-30T23:54:36.518   2216502253.745
RECEIVE_FREQ_1 =   2022-11-30T23:54:46.454   2216502252.745
RECEIVE_FREQ_1 =   2022-11-30T23:54:56.477   2216502251.245
RECEIVE_FREQ_1 =   2022-11-30T23:55:06.499   2216502250.145
RECEIVE_FREQ_1 =   2022-11-30T23:55:16.522   2216502248.745
RECEIVE_FREQ_1 =   2022-11-30T23:55:26.458   2216502247.945
RECEIVE_FREQ_1 =   2022-11-30T23:55:36.480   2216502246.4
RECEIVE_FREQ_1 =   2022-11-30T23:55:46.502   2216502245.4
RECEIVE_FREQ_1 =   2022-11-30T23:55:56.525   2216502243.745
RECEIVE_FREQ_1 =   2022-11-30T23:56:06.547   2216502242.945
RECEIVE_FREQ_1 =   2022-11-30T23:56:16.483   2216502241.745
RECEIVE_FREQ_1 =   2022-11-30T23:56:26.506   2216502240.445
RECEIVE_FREQ_1 =   2022-11-30T23:56:36.528   2216502239.145
RECEIVE_FREQ_1 =   2022-11-30T23:56:46.464   2216502238.145
RECEIVE_FREQ_1 =   2022-11-30T23:56:56.486   2216502236.645
RECEIVE_FREQ_1 =   2022-11-30T23:57:06.509   2216502235.445
RECEIVE_FREQ_1 =   2022-11-30T23:57:16.531   2216502234.445
RECEIVE_FREQ_1 =   2022-11-30T23:57:26.467   2216502233.045
RECEIVE_FREQ_1 =   2022-11-30T23:57:36.490   2216502231.745
RECEIVE_FREQ_1 =   2022-11-30T23:57:46.512   2216502230.345
RECEIVE_FREQ_1 =   2022-11-30T23:57:56.534   2216502229.145
RECEIVE_FREQ_1 =   2022-11-30T23:58:06.470   2216502228.045
RECEIVE_FREQ_1 =   2022-11-30T23:58:16.493   2216502226.745
RECEIVE_FREQ_1 =   2022-11-30T23:58:26.515   2216502225.645
RECEIVE_FREQ_1 =   2022-11-30T23:58:36.451   2216502224.445
RECEIVE_FREQ_1 =   2022-11-30T23:58:56.496   2216502222.1
RECEIVE_FREQ_1 =   2022-11-30T23:59:06.518   2216502220.645
RECEIVE_FREQ_1 =   2022-11-30T23:59:16.454   2216502219.145
RECEIVE_FREQ_1 =   2022-11-30T23:59:26.477   2216502217.945
RECEIVE_FREQ_1 =   2022-11-30T23:59:36.499   2216502216.745
RECEIVE_FREQ_1 =   2022-11-30T23:59:46.522   2216502215.545
RECEIVE_FREQ_1 =   2022-11-30T23:59:56.458   2216502214.645
RECEIVE_FREQ_1 =   2022-12-01T00:00:06.480   2216502213.045
RECEIVE_FREQ_1 =   2022-12-01T00:00:16.502   2216502211.845
RECEIVE_FREQ_1 =   2022-12-01T00:00:26.525   2216502210.545
RECEIVE_FREQ_1 =   2022-12-01T00:00:36.461   2216502208.945
RECEIVE_FREQ_1 =   2022-12-01T00:00:46.483   2216502207.945
RECEIVE_FREQ_1 =   2022-12-01T00:00:56.506   2216502206.845
RECEIVE_FREQ_1 =   2022-12-01T00:01:06.528   2216502205.545
RECEIVE_FREQ_1 =   2022-12-01T00:01:16.464   2216502204.445
RECEIVE_FREQ_1 =   2022-12-01T00:01:26.486   2216502203.445
RECEIVE_FREQ_1 =   2022-12-01T00:01:36.509   2216502201.845
RECEIVE_FREQ_1 =   2022-12-01T00:01:46.531   2216502200.245
RECEIVE_FREQ_1 =   2022-12-01T00:01:56.467   2216502199.445
RECEIVE_FREQ_1 =   2022-12-01T00:02:06.490   2216502197.945
RECEIVE_FREQ_1 =   2022-12-01T00:02:16.512   2216502196.745
RECEIVE_FREQ_1 =   2022-12-01T00:02:26.534   2216502195.545
RECEIVE_FREQ_1 =   2022-12-01T00:02:36.470   2216502194.445
RECEIVE_FREQ_1 =   2022-12-01T00:02:46.493   2216502192.945
RECEIVE_FREQ_1 =   2022-12-01T00:02:56.515   2216502191.745
RECEIVE_FREQ_1 =   2022-12-01T00:03:06.538   2216502190.445
RECEIVE_FREQ_1 =   2022-12-01T00:03:16.474   2216502189.145
RECEIVE_FREQ_1 =   2022-12-01T00:03:26.496   2216502188.045
RECEIVE_FREQ_1 =   2022-12-01T00:03:36.518   2216502186.645
RECEIVE_FREQ_1 =   2022-12-01T00:03:46.541   2216502185.345
RECEIVE_FREQ_1 =   2022-12-01T00:03:56.477   2216502183.945
RECEIVE_FREQ_1 =   2022-12-01T00:04:06.499   2216502182.945
RECEIVE_FREQ_1 =   2022-12-01T00:04:16.522   2216502181.645
RECEIVE_FREQ_1 =   2022-12-01T00:04:26.458   2216502180.345
RECEIVE_FREQ_1 =   2022-12-01T00:04:36.480   2216502179.045
RECEIVE_FREQ_1 =   2022-12-01T00:04:46.502   2216502177.745
RECEIVE_FREQ_1 =   2022-12-01T00:04:56.525   2216502176.445
RECEIVE_FREQ_1 =   2022-12-01T00:05:06.461   2216502175.245
RECEIVE_FREQ_1 =   2022-12-01T00:05:16.483   2216502174.2
RECEIVE_FREQ_1 =   2022-12-01T00:05:26.506   2216502172.745
RECEIVE_FREQ_1 =   2022-12-01T00:05:36.528   2216502171.545
RECEIVE_FREQ_1 =   2022-12-01T00:05:46.464   2216502169.845
RECEIVE_FREQ_1 =   2022-12-01T00:05:56.486   2216502168.645
RECEIVE_FREQ_1 =   2022-12-01T00:06:06.509   2216502167.445
RECEIVE_FREQ_1 =   2022-12-01T00:06:16.531   2216502166.345
RECEIVE_FREQ_1 =   2022-12-01T00:06:26.467   2216502165.145
RECEIVE_FREQ_1 =   2022-12-01T00:06:36.490   2216502163.745
RECEIVE_FREQ_1 =   2022-12-01T00:06:46.512   2216502162.545
RECEIVE_FREQ_1 =   2022-12-01T00:06:56.534   2216502161.045
RECEIVE_FREQ_1 =   2022-12-01T00:07:16.493   2216502158.845
RECEIVE_FREQ_1 =   2022-12-01T00:07:26.515   2216502157.445
RECEIVE_FREQ_1 =   2022-12-01T00:07:46.474   2216502155.145
RECEIVE_FREQ_1 =   2022-12-01T00:08:06.518   2216502152.745
RECEIVE_FREQ_1 =   2022-12-01T00:08:26.477   2216502150.245
RECEIVE_FREQ_1 =   2022-12-01T00:08:46.522   2216502147.545
RECEIVE_FREQ_1 =   2022-12-01T00:08:56.458   2216502146.345
RECEIVE_FREQ_1 =   2022-12-01T00:09:06.480   2216502145.545
RECEIVE_FREQ_1 =   2022-12-01T00:09:16.502   2216502144.545
RECEIVE_FREQ_1 =   2022-12-01T00:09:26.525   2216502143.045
RECEIVE_FREQ_1 =   2022-12-01T00:09:36.461   2216502142.245
RECEIVE_FREQ_1 =   2022-12-01T00:09:46.483   2216502140.545
RECEIVE_FREQ_1 =   2022-12-01T00:09:56.506   2216502139.745
RECEIVE_FREQ_1 =   2022-12-01T00:10:06.528   2216502137.945
RECEIVE_FREQ_1 =   2022-12-01T00:10:16.464   2216502137.145
RECEIVE_FREQ_1 =   2022-12-01T00:10:26.486   2216502135.745
RECEIVE_FREQ_1 =   2022-12-01T00:10:36.509   2216502134.445
RECEIVE_FREQ_1 =   2022-12-01T00:10:46.531   2216502133.445
RECEIVE_FREQ_1 =   2022-12-01T00:10:56.467   2216502132.345
RECEIVE_FREQ_1 =   2022-12-01T00:11:06.490   2216502130.945
RECEIVE_FREQ_1 =   2022-12-01T00:11:26.534   2216502128.345
RECEIVE_FREQ_1 =   2022-12-01T00:11:36.470   2216502127.445
RECEIVE_FREQ_1 =   2022-12-01T00:11:46.493   2216502126.245
RECEIVE_FREQ_1 =   2022-12-01T00:11:56.515   2216502124.545
RECEIVE_FREQ_1 =   2022-12-01T00:12:06.538   2216502123.645
RECEIVE_FREQ_1 =   2022-12-01T00:12:16.474   2216502122.145
RECEIVE_FREQ_1 =   2022-12-01T00:12:26.496   2216502121.245
RECEIVE_FREQ_1 =   2022-12-01T00:12:36.518   2216502119.845
RECEIVE_FREQ_1 =   2022-12-01T00:12:46.541   2216502118.645
RECEIVE_FREQ_1 =   2022-12-01T00:12:56.477   2216502117.645
RECEIVE_FREQ_1 =   2022-12-01T00:13:06.499   2216502116.045
RECEIVE_FREQ_1 =   2022-12-01T00:13:16.522   2216502115.045
RECEIVE_FREQ_1 =   2022-12-01T00:13:26.458   2216502113.945
RECEIVE_FREQ_1 =   2022-12-01T00:13:36.480   2216502112.445
RECEIVE_FREQ_1 =   2022-12-01T00:13:46.502   2216502111.145
RECEIVE_FREQ_1 =   2022-12-01T00:13:56.525   2216502109.845
RECEIVE_FREQ_1 =   2022-12-01T00:14:06.547   2216502108.745
RECEIVE_FREQ_1 =   2022-12-01T00:14:16.483   2216502107.545
RECEIVE_FREQ_1 =   2022-12-01T00:14:26.506   2216502105.945
RECEIVE_FREQ_1 =   2022-12-01T00:14:36.528   2216502104.945
RECEIVE_FREQ_1 =   2022-12-01T00:14:46.464   2216502104.045
RECEIVE_FREQ_1 =   2022-12-01T00:14:56.486   2216502102.345
RECEIVE_FREQ_1 =   2022-12-01T00:15:06.509   2216502101.045
RECEIVE_FREQ_1 =   2022-12-01T00:15:16.531   2216502100.045
RECEIVE_FREQ_1 =   2022-12-01T00:15:26.467   2216502098.445
RECEIVE_FREQ_1 =   2022-12-01T00:15:36.490   2216502097.145
RECEIVE_FREQ_1 =   2022-12-01T00:15:46.512   2216502096.245
RECEIVE_FREQ_1 =   2022-12-01T00:15:56.534   2216502094.945
RECEIVE_FREQ_1 =   2022-12-01T00:16:06.470   2216502093.545
RECEIVE_FREQ_1 =   2022-12-01T00:16:16.493   2216502092.245
RECEIVE_FREQ_1 =   2022-12-01T00:16:26.515   2216502091.345
RECEIVE_FREQ_1 =   2022-12-01T00:16:36.538   2216502089.945
RECEIVE_FREQ_1 =   2022-12-01T00:16:46.474   2216502088.545
RECEIVE_FREQ_1 =   2022-12-01T00:16:56.496   2216502087.145
RECEIVE_FREQ_1 =   2022-12-01T00:17:06.518   2216502086.045
RECEIVE_FREQ_1 =   2022-12-01T00:17:16.541   2216502084.645
RECEIVE_FREQ_1 =   2022-12-01T00:17:26.477   2216502083.645
RECEIVE_FREQ_1 =   2022-12-01T00:17:36.499   2216502082.545
RECEIVE_FREQ_1 =   2022-12-01T00:17:46.522   2216502081.545
RECEIVE_FREQ_1 =   2022-12-01T00:17:56.544   2216502079.945
RECEIVE_FREQ_1 =   2022-12-01T00:18:06.480   2216502078.545
RECEIVE_FREQ_1 =   2022-12-01T00:18:16.502   2216502077.145
RECEIVE_FREQ_1 =   2022-12-01T00:18:26.525   2216502075.845
RECEIVE_FREQ_1 =   2022-12-01T00:18:36.461   2216502074.745
RECEIVE_FREQ_1 =   2022-12-01T00:18:46.483   2216502073.445
RECEIVE_FREQ_1 =   2022-12-01T00:18:56.506   2216502072.145
RECEIVE_FREQ_1 =   2022-12-01T00:19:06.528   2216502070.945
RECEIVE_FREQ_1 =   2022-12-01T00:19:16.464   2216502069.445
RECEIVE_FREQ_1 =   2022-12-01T00:19:26.486   2216502068.445
RECEIVE_FREQ_1 =   2022-12-01T00:19:36.509   2216502067.245
RECEIVE_FREQ_1 =   2022-12-01T00:19:46.531   2216502065.845
RECEIVE_FREQ_1 =   2022-12-01T00:19:56.467   2216502064.445
RECEIVE_FREQ_1 =   2022-12-01T00:20:06.490   2216502063.045
RECEIVE_FREQ_1 =   2022-12-01T00:20:16.512   2216502062.145
RECEIVE_FREQ_1 =   2022-12-01T00:20:26.534   2216502060.645
RECEIVE_FREQ_1 =   2022-12-01T00:20:36.470   2216502059.345
RECEIVE_FREQ_1 =   2022-12-01T00:20:46.493   2216502058.445
RECEIVE_FREQ_1 =   2022-12-01T00:20:56.515   2216502056.645
RECEIVE_FREQ_1 =   2022-12-01T00:21:06.538   2216502055.545
RECEIVE_FREQ_1 =   2022-12-01T00:21:16.474   2216502054.445
RECEIVE_FREQ_1 =   2022-12-01T00:21:26.496   2216502053.045
RECEIVE_FREQ_1 =   2022-12-01T00:21:36.518   2216502051.845
RECEIVE_FREQ_1 =   2022-12-01T00:21:46.541   2216502050.245
RECEIVE_FREQ_1 =   2022-12-01T00:21:56.477   2216502049.145
RECEIVE_FREQ_1 =   2022-12-01T00:22:06.499   2216502048.045
RECEIVE_FREQ_1 =   2022-12-01T00:22:16.522   2216502046.745
RECEIVE_FREQ_1 =   2022-12-01T00:22:26.458   2216502045.245
RECEIVE_FREQ_1 =   2022-12-01T00:22:36.480   2216502043.845
RECEIVE_FREQ_1 =   2022-12-01T00:22:46.502   2216502042.945
RECEIVE_FREQ_1 =   2022-12-01T00:23:06.547   2216502040.145
RECEIVE_FREQ_1 =   2022-12-01T00:23:16.483   2216502038.845
RECEIVE_FREQ_1 =   2022-12-01T00:23:26.506   2216502037.545
RECEIVE_FREQ_1 =   2022-12-01T00:23:36.528   2216502036.145
RECEIVE_FREQ_1 =   2022-12-01T00:23:46.464   2216502034.745
RECEIVE_FREQ_1 =   2022-12-01T00:23:56.486   2216502033.645
RECEIVE_FREQ_1 =   2022-12-01T00:24:06.509   2216502032.545
RECEIVE_FREQ_1 =   2022-12-01T00:24:16.445   2216502030.945
RECEIVE_FREQ_1 =   2022-12-01T00:24:26.467   2216502029.9
RECEIVE_FREQ_1 =   2022-12-01T00:24:36.490   2216502028.345
RECEIVE_FREQ_1 =   2022-12-01T00:24:46.512   2216502027.045
RECEIVE_FREQ_1 =   2022-12-01T00:24:56.534   2216502025.745
RECEIVE_FREQ_1 =   2022-12-01T00:25:06.470   2216502024.045
RECEIVE_FREQ_1 =   2022-12-01T00:25:16.493   2216502023.145
RECEIVE_FREQ_1 =   2022-12-01T00:25:26.515   2216502022.145
RECEIVE_FREQ_1 =   2022-12-01T00:25:36.538   2216502020.945
RECEIVE_FREQ_1 =   2022-12-01T00:25:46.474   2216502019.145
RECEIVE_FREQ_1 =   2022-12-01T00:25:56.496   2216502018.245
RECEIVE_FREQ_1 =   2022-12-01T00:26:06.518   2216502016.645
RECEIVE_FREQ_1 =   2022-12-01T00:26:16.541   2216502015.545
RECEIVE_FREQ_1 =   2022-12-01T00:26:26.477   2216502013.745
RECEIVE_FREQ_1 =   2022-12-01T00:26:36.499   2216502012.745
RECEIVE_FREQ_1 =   2022-12-01T00:26:46.522   2216502011.745
RECEIVE_FREQ_1 =   2022-12-01T00:26:56.458   2216502010.245
RECEIVE_FREQ_1 =   2022-12-01T00:27:06.480   2216502009.045
RECEIVE_FREQ_1 =   2022-12-01T00:27:16.502   2216502007.745
RECEIVE_FREQ_1 =   2022-12-01T00:27:26.525   2216502006.245
RECEIVE_FREQ_1 =   2022-12-01T00:27:36.461   2216502004.845
RECEIVE_FREQ_1 =   2022-12-01T00:27:46.483   2216502003.445
RECEIVE_FREQ_1 =   2022-12-01T00:27:56.506   2216502002.445
RECEIVE_FREQ_1 =   2022-12-01T00:28:06.528   2216502001.045
RECEIVE_FREQ_1 =   2022-12-01T00:28:16.464   2216501999.745
RECEIVE_FREQ_1 =   2022-12-01T00:28:26.486   2216501997.945
RECEIVE_FREQ_1 =   2022-12-01T00:28:36.509   2216501996.545
RECEIVE_FREQ_1 =   2022-12-01T00:28:46.531   2216501995.345
RECEIVE_FREQ_1 =   2022-12-01T00:28:56.467   2216501994.445
RECEIVE_FREQ_1 =   2022-12-01T00:29:06.490   2216501992.945
RECEIVE_FREQ_1 =   2022-12-01T00:29:16.512   2216501991.645
RECEIVE_FREQ_1 =   2022-12-01T00:29:26.534   2216501990.245
RECEIVE_FREQ_1 =   2022-12-01T00:29:36.470   2216501988.7
RECEIVE_FREQ_1 =   2022-12-01T00:29:46.493   2216501987.745
RECEIVE_FREQ_1 =   2022-12-01T00:29:56.515   2216501986.445
RECEIVE_FREQ_1 =   2022-12-01T00:30:06.538   2216501984.645
RECEIVE_FREQ_1 =   2022-12-01T00:30:16.560   2216501983.645
RECEIVE_FREQ_1 =   2022-12-01T00:30:26.496   2216501981.945
RECEIVE_FREQ_1 =   2022-12-01T00:30:36.518   2216501981.045
RECEIVE_FREQ_1 =   2022-12-01T00:30:46.541   2216501979.945
RECEIVE_FREQ_1 =   2022-12-01T00:30:56.477   2216501978.245
RECEIVE_FREQ_1 =   2022-12-01T00:31:06.499   2216501977.045
RECEIVE_FREQ_1 =   2022-12-01T00:31:16.522   2216501975.845
RECEIVE_FREQ_1 =   2022-12-01T00:31:26.458   2216501974.245
RECEIVE_FREQ_1 =   2022-12-01T00:31:36.480   2216501973.045
RECEIVE_FREQ_1 =   2022-12-01T00:31:46.502   2216501972.045
RECEIVE_FREQ_1 =   2022-12-01T00:31:56.525   2216501970.545
RECEIVE_FREQ_1 =   2022-12-01T00:32:06.461   2216501968.845
RECEIVE_FREQ_1 =   2022-12-01T00:32:16.483   2216501967.745
RECEIVE_FREQ_1 =   2022-12-01T00:32:26.506   2216501966.445
RECEIVE_FREQ_1 =   2022-12-01T00:32:36.528   2216501964.845
RECEIVE_FREQ_1 =   2022-12-01T00:32:46.550   2216501963.445
RECEIVE_FREQ_1 =   2022-12-01T00:32:56.486   2216501962.145
RECEIVE_FREQ_1 =   2022-12-01T00:33:06.509   2216501960.845
RECEIVE_FREQ_1 =   2022-12-01T00:33:16.531   2216501959.845
RECEIVE_FREQ_1 =   2022-12-01T00:33:36.490   2216501957.145
RECEIVE_FREQ_1 =   2022-12-01T00:33:46.512   2216501955.545
RECEIVE_FREQ_1 =   2022-12-01T00:34:06.470   2216501952.945
RECEIVE_FREQ_1 =   2022-12-01T00:34:26.515   2216501950.045
RECEIVE_FREQ_1 =   2022-12-01T00:34:36.538   2216501948.745
RECEIVE_FREQ_1 =   2022-12-01T00:34:46.474   2216501947.445
RECEIVE_FREQ_1 =   2022-12-01T00:34:56.496   2216501946.245
RECEIVE_FREQ_1 =   2022-12-01T00:35:06.518   2216501942.845
RECEIVE_FREQ_1 =   2022-12-01T00:35:16.454   2216501943.045
RECEIVE_FREQ_1 =   2022-12-01T00:35:26.477   2216501942.345
RECEIVE_FREQ_1 =   2022-12-01T00:35:36.499   2216501940.845
RECEIVE_FREQ_1 =   2022-12-01T00:35:46.522   2216501939.645
RECEIVE_FREQ_1 =   2022-12-01T00:35:56.544   2216501938.045
RECEIVE_FREQ_1 =   2022-12-01T00:36:16.502   2216501934.945
RECEIVE_FREQ_1 =   2022-12-01T00:36:26.525   2216501934.145
RECEIVE_FREQ_1 =   2022-12-01T00:36:36.461   2216501932.145
RECEIVE_FREQ_1 =   2022-12-01T00:36:46.483   2216501931.245
RECEIVE_FREQ_1 =   2022-12-01T00:36:56.506   2216501929.745
RECEIVE_FREQ_1 =   2022-12-01T00:37:06.528   2216501928.445
RECEIVE_FREQ_1 =   2022-12-01T00:37:16.464   2216501927.045
RECEIVE_FREQ_1 =   2022-12-01T00:37:26.486   2216501925.645
RECEIVE_FREQ_1 =   2022-12-01T00:37:36.509   2216501924.445
RECEIVE_FREQ_1 =   2022-12-01T00:37:46.531   2216501923.045
RECEIVE_FREQ_1 =   2022-12-01T00:37:56.467   2216501921.745
RECEIVE_FREQ_1 =   2022-12-01T00:38:06.490   2216501920.345
RECEIVE_FREQ_1 =   2022-12-01T00:38:16.512   2216501918.945
RECEIVE_FREQ_1 =   2022-12-01T00:38:26.534   2216501917.445
RECEIVE_FREQ_1 =   2022-12-01T00:38:36.470   2216501916.145
RECEIVE_FREQ_1 =   2022-12-01T00:38:46.493   2216501914.645
RECEIVE_FREQ_1 =   2022-12-01T00:38:56.515   2216501913.545
RECEIVE_FREQ_1 =   2022-12-01T00:39:06.538   2216501912.045
RECEIVE_FREQ_1 =   2022-12-01T00:39:16.474   2216501910.845
RECEIVE_FREQ_1 =   2022-12-01T00:39:26.496   2216501909.045
RECEIVE_FREQ_1 =   2022-12-01T00:39:36.518   2216501908.045
RECEIVE_FREQ_1 =   2022-12-01T00:39:46.541   2216501906.045
RECEIVE_FREQ_1 =   2022-12-01T00:39:56.477   2216501905.345
RECEIVE_FREQ_1 =   2022-12-01T00:40:06.499   2216501903.945
RECEIVE_FREQ_1 =   2022-12-01T00:40:16.522   2216501902.145
RECEIVE_FREQ_1 =   2022-12-01T00:40:26.458   2216501901.245
RECEIVE_FREQ_1 =   2022-12-01T00:40:36.480   2216501899.845
RECEIVE_FREQ_1 =   2022-12-01T00:40:46.502   2216501898.845
RECEIVE_FREQ_1 =   2022-12-01T00:40:56.525   2216501897.445
RECEIVE_FREQ_1 =   2022-12-01T00:41:06.461   2216501895.945
RECEIVE_FREQ_1 =   2022-12-01T00:41:16.483   2216501895.045
RECEIVE_FREQ_1 =   2022-12-01T00:41:26.506   2216501893.545
RECEIVE_FREQ_1 =   2022-12-01T00:41:36.528   2216501892.045
RECEIVE_FREQ_1 =   2022-12-01T00:41:46.464   2216501891.045
RECEIVE_FREQ_1 =   2022-12-01T00:41:56.486   2216501889.645
RECEIVE_FREQ_1 =   2022-12-01T00:42:06.509   2216501888.545
RECEIVE_FREQ_1 =   2022-12-01T00:42:16.531   2216501887.045
RECEIVE_FREQ_1 =   2022-12-01T00:42:26.467   2216501885.745
RECEIVE_FREQ_1 =   2022-12-01T00:42:36.490   2216501884.345
RECEIVE_FREQ_1 =   2022-12-01T00:42:46.512   2216501883.045
RECEIVE_FREQ_1 =   2022-12-01T00:42:56.534   2216501881.745
RECEIVE_FREQ_1 =   2022-12-01T00:43:06.470   2216501880.845
RECEIVE_FREQ_1 =   2022-12-01T00:43:16.493   2216501878.945
RECEIVE_FREQ_1 =   2022-12-01T00:43:26.515   2216501877.645
RECEIVE_FREQ_1 =   2022-12-01T00:43:36.538   2216501876.445
RECEIVE_FREQ_1 =   2022-12-01T00:43:46.474   2216501875.245
RECEIVE_FREQ_1 =   2022-12-01T00:43:56.496   2216501873.845
RECEIVE_FREQ_1 =   2022-12-01T00:44:06.518   2216501872.645
RECEIVE_FREQ_1 =   2022-12-01T00:44:16.454   2216501871.045
RECEIVE_FREQ_1 =   2022-12-01T00:44:26.477   2216501869.945
RECEIVE_FREQ_1 =   2022-12-01T00:44:36.499   2216501868.645
RECEIVE_FREQ_1 =   2022-12-01T00:44:46.522   2216501866.945
RECEIVE_FREQ_1 =   2022-12-01T00:44:56.458   2216501865.745
RECEIVE_FREQ_1 =   2022-12-01T00:45:06.480   2216501864.645
RECEIVE_FREQ_1 =   2022-12-01T00:45:16.502   2216501862.945
RECEIVE_FREQ_1 =   2022-12-01T00:45:26.525   2216501862.145
RECEIVE_FREQ_1 =   2022-12-01T00:45:36.461   2216501860.645
RECEIVE_FREQ_1 =   2022-12-01T00:45:46.483   2216501859.045
RECEIVE_FREQ_1 =   2022-12-01T00:46:06.528   2216501856.745
RECEIVE_FREQ_1 =   2022-12-01T00:46:16.464   2216501855.545
RECEIVE_FREQ_1 =   2022-12-01T00:46:36.509   2216501852.545
RECEIVE_FREQ_1 =   2022-12-01T00:46:46.531   2216501851.445
RECEIVE_FREQ_1 =   2022-12-01T00:46:56.467   2216501849.745
RECEIVE_FREQ_1 =   2022-12-01T00:47:06.490   2216501848.445
RECEIVE_FREQ_1 =   2022-12-01T00:47:16.512   2216501847.345
RECEIVE_FREQ_1 =   2022-12-01T00:47:26.534   2216501846.145
RECEIVE_FREQ_1 =   2022-12-01T00:47:36.470   2216501844.645
RECEIVE_FREQ_1 =   2022-12-01T00:47:46.493   2216501843.145
RECEIVE_FREQ_1 =   2022-12-01T00:47:56.515   2216501841.945
RECEIVE_FREQ_1 =   2022-12-01T00:48:16.474   2216501839.145
RECEIVE_FREQ_1 =   2022-12-01T00:48:26.496   2216501837.645
RECEIVE_FREQ_1 =   2022-12-01T00:48:36.518   2216501836.645
RECEIVE_FREQ_1 =   2022-12-01T00:48:56.477   2216501833.845
RECEIVE_FREQ_1 =   2022-12-01T00:49:06.499   2216501832.845
RECEIVE_FREQ_1 =   2022-12-01T00:49:16.522   2216501831.445
RECEIVE_FREQ_1 =   2022-12-01T00:49:26.458   2216501830.845
RECEIVE_FREQ_1 =   2022-12-01T00:49:36.480   2216501828.945
RECEIVE_FREQ_1 =   2022-12-01T00:49:46.502   2216501827.945
RECEIVE_FREQ_1 =   2022-12-01T00:49:56.525   2216501825.945
RECEIVE_FREQ_1 =   2022-12-01T00:50:06.547   2216501824.645
RECEIVE_FREQ_1 =   2022-12-01T00:50:36.528   2216501820.245
RECEIVE_FREQ_1 =   2022-12-01T00:51:16.531   2216501815.245
RECEIVE_FREQ_1 =   2022-12-01T00:51:26.467   2216501813.745
RECEIVE_FREQ_1 =   2022-12-01T00:51:36.490   2216501812.245
RECEIVE_FREQ_1 =   2022-12-01T00:51:46.512   2216501811.845
RECEIVE_FREQ_1 =   2022-12-01T00:51:56.534   2216501809.745
RECEIVE_FREQ_1 =   2022-12-01T00:52:06.470   2216501808.645
RECEIVE_FREQ_1 =   2022-12-01T00:52:16.493   2216501807.045
RECEIVE_FREQ_1 =   2022-12-01T00:52:26.515   2216501805.245
RECEIVE_FREQ_1 =   2022-12-01T00:52:36.538   2216501804.245
RECEIVE_FREQ_1 =   2022-12-01T00:52:46.474   2216501803.245
RECEIVE_FREQ_1 =   2022-12-01T00:52:56.496   2216501802.045
RECEIVE_FREQ_1 =   2022-12-01T00:53:06.518   2216501800.145
RECEIVE_FREQ_1 =   2022-12-01T00:53:16.454   2216501798.945
RECEIVE_FREQ_1 =   2022-12-01T00:53:26.477   2216501797.945
RECEIVE_FREQ_1 =   2022-12-01T00:53:36.499   2216501795.945
RECEIVE_FREQ_1 =   2022-12-01T00:53:46.522   2216501794.945
RECEIVE_FREQ_1 =   2022-12-01T00:53:56.544   2216501793.645
RECEIVE_FREQ_1 =   2022-12-01T00:54:06.480   2216501792.145
RECEIVE_FREQ_1 =   2022-12-01T00:54:16.502   2216501790.745
RECEIVE_FREQ_1 =   2022-12-01T00:54:26.525   2216501789.345
RECEIVE_FREQ_1 =   2022-12-01T00:54:36.461   2216501788.245
RECEIVE_FREQ_1 =   2022-12-01T00:54:46.483   2216501786.645
RECEIVE_FREQ_1 =   2022-12-01T00:54:56.506   2216501785.145
RECEIVE_FREQ_1 =   2022-12-01T00:55:06.528   2216501784.045
RECEIVE_FREQ_1 =   2022-12-01T00:55:16.464   2216501782.745
RECEIVE_FREQ_1 =   2022-12-01T00:55:26.486   2216501780.845
RECEIVE_FREQ_1 =   2022-12-01T00:55:36.509   2216501780.045
RECEIVE_FREQ_1 =   2022-12-01T00:55:46.531   2216501778.445
RECEIVE_FREQ_1 =   2022-12-01T00:55:56.467   2216501777.045
RECEIVE_FREQ_1 =   2022-12-01T00:56:06.490   2216501775.645
RECEIVE_FREQ_1 =   2022-12-01T00:56:16.512   2216501774.145
RECEIVE_FREQ_1 =   2022-12-01T00:56:26.534   2216501772.945
RECEIVE_FREQ_1 =   2022-12-01T00:56:36.557   2216501771.845
RECEIVE_FREQ_1 =   2022-12-01T00:56:46.493   2216501770.345
RECEIVE_FREQ_1 =   2022-12-01T00:56:56.515   2216501769.245
RECEIVE_FREQ_1 =   2022-12-01T00:57:06.538   2216501767.745
RECEIVE_FREQ_1 =   2022-12-01T00:57:16.474   2216501766.345
RECEIVE_FREQ_1 =   2022-12-01T00:57:26.496   2216501764.945
RECEIVE_FREQ_1 =   2022-12-01T00:57:36.518   2216501763.345
RECEIVE_FREQ_1 =   2022-12-01T00:57:46.454   2216501762.045
RECEIVE_FREQ_1 =   2022-12-01T00:57:56.477   2216501760.645
RECEIVE_FREQ_1 =   2022-12-01T00:58:06.499   2216501759.245
RECEIVE_FREQ_1 =   2022-12-01T00:58:16.522   2216501758.145
RECEIVE_FREQ_1 =   2022-12-01T00:58:26.458   2216501756.845
RECEIVE_FREQ_1 =   2022-12-01T00:58:36.480   2216501755.245
RECEIVE_FREQ_1 =   2022-12-01T00:58:46.502   2216501754.145
RECEIVE_FREQ_1 =   2022-12-01T00:58:56.525   2216501752.245
RECEIVE_FREQ_1 =   2022-12-01T00:59:06.547   2216501750.845
RECEIVE_FREQ_1 =   2022-12-01T00:59:16.483   2216501749.645
RECEIVE_FREQ_1 =   2022-12-01T00:59:26.506   2216501748.245
RECEIVE_FREQ_1 =   2022-12-01T00:59:36.528   2216501747.245
RECEIVE_FREQ_1 =   2022-12-01T00:59:46.550   2216501745.645
RECEIVE_FREQ_1 =   2022-12-01T00:59:56.486   2216501744.545
RECEIVE_FREQ_1 =   2022-12-01T01:00:06.509   2216501742.845
RECEIVE_FREQ_1 =   2022-12-01T01:00:16.531   2216501741.645
RECEIVE_FREQ_1 =   2022-12-01T01:00:26.467   2216501739.7
RECEIVE_FREQ_1 =   2022-12-01T01:00:36.490   2216501738.445
RECEIVE_FREQ_1 =   2022-12-01T01:00:46.512   2216501737.545
RECEIVE_FREQ_1 =   2022-12-01T01:00:56.534   2216501735.745
RECEIVE_FREQ_1 =   2022-12-01T01:01:06.470   2216501734.845
RECEIVE_FREQ_1 =   2022-12-01T01:01:16.493   2216501733.445
RECEIVE_FREQ_1 =   2022-12-01T01:01:26.515   2216501732.145
RECEIVE_FREQ_1 =   2022-12-01T01:01:36.538   2216501730.545
RECEIVE_FREQ_1 =   2022-12-01T01:01:46.474   2216501729.045
RECEIVE_FREQ_1 =   2022-12-01T01:01:56.496   2216501727.945
RECEIVE_FREQ_1 =   2022-12-01T01:02:06.518   2216501726.045
RECEIVE_FREQ_1 =   2022-12-01T01:02:16.454   2216501724.845
RECEIVE_FREQ_1 =   2022-12-01T01:02:26.477   2216501723.645
RECEIVE_FREQ_1 =   2022-12-01T01:02:36.499   2216501722.245
RECEIVE_FREQ_1 =   2022-12-01T01:02:46.522   2216501720.845
RECEIVE_FREQ_1 =   2022-12-01T01:02:56.458   2216501719.445
RECEIVE_FREQ_1 =   2022-12-01T01:03:06.480   2216501718.045
RECEIVE_FREQ_1 =   2022-12-01T01:03:16.502   2216501716.145
RECEIVE_FREQ_1 =   2022-12-01T01:03:26.525   2216501715.145
RECEIVE_FREQ_1 =   2022-12-01T01:03:36.461   2216501713.445
RECEIVE_FREQ_1 =   2022-12-01T01:03:46.483   2216501712.445
RECEIVE_FREQ_1 =   2022-12-01T01:03:56.506   2216501711.145
RECEIVE_FREQ_1 =   2022-12-01T01:04:06.528   2216501709.545
RECEIVE_FREQ_1 =   2022-12-01T01:04:16.464   2216501708.445
RECEIVE_FREQ_1 =   2022-12-01T01:04:26.486   2216501706.945
RECEIVE_FREQ_1 =   2022-12-01T01:04:36.509   2216501705.445
RECEIVE_FREQ_1 =   2022-12-01T01:04:46.531   2216501704.445
RECEIVE_FREQ_1 =   2022-12-01T01:04:56.467   2216501702.645
RECEIVE_FREQ_1 =   2022-12-01T01:05:06.490   2216501701.345
RECEIVE_FREQ_1 =   2022-12-01T01:05:16.512   2216501699.745
RECEIVE_FREQ_1 =   2022-12-01T01:05:26.534   2216501698.345
RECEIVE_FREQ_1 =   2022-12-01T01:05:36.470   2216501697.245
RECEIVE_FREQ_1 =   2022-12-01T01:05:46.493   2216501696.145
RECEIVE_FREQ_1 =   2022-12-01T01:05:56.515   2216501694.345
RECEIVE_FREQ_1 =   2022-12-01T01:06:06.451   2216501692.945
RECEIVE_FREQ_1 =   2022-12-01T01:06:16.474   2216501691.345
RECEIVE_FREQ_1 =   2022-12-01T01:06:26.496   2216501690.145
RECEIVE_FREQ_1 =   2022-12-01T01:06:36.518   2216501688.645
RECEIVE_FREQ_1 =   2022-12-01T01:06:46.541   2216501687.045
RECEIVE_FREQ_1 =   2022-12-01T01:06:56.477   2216501685.845
RECEIVE_FREQ_1 =   2022-12-01T01:07:06.499   2216501684.545
RECEIVE_FREQ_1 =   2022-12-01T01:07:16.522   2216501682.945
RECEIVE_FREQ_1 =   2022-12-01T01:07:26.544   2216501681.645
RECEIVE_FREQ_1 =   2022-12-01T01:07:36.480   2216501680.145
RECEIVE_FREQ_1 =   2022-12-01T01:07:46.502   2216501679.045
RECEIVE_FREQ_1 =   2022-12-01T01:07:56.525   2216501677.245
RECEIVE_FREQ_1 =   2022-12-01T01:08:06.461   2216501676.345
RECEIVE_FREQ_1 =   2022-12-01T01:08:16.483   2216501674.445
RECEIVE_FREQ_1 =   2022-12-01T01:08:26.506   2216501673.045
RECEIVE_FREQ_1 =   2022-12-01T01:08:36.528   2216501672.145
RECEIVE_FREQ_1 =   2022-12-01T01:08:46.464   2216501670.145
RECEIVE_FREQ_1 =   2022-12-01T01:08:56.486   2216501669.045
RECEIVE_FREQ_1 =   2022-12-01T01:09:06.509   2216501667.745
RECEIVE_FREQ_1 =   2022-12-01T01:09:16.531   2216501666.245
RECEIVE_FREQ_1 =   2022-12-01T01:09:26.467   2216501665.145
RECEIVE_FREQ_1 =   2022-12-01T01:09:36.490   2216501663.345
RECEIVE_FREQ_1 =   2022-12-01T01:09:46.512   2216501662.145
RECEIVE_FREQ_1 =   2022-12-01T01:09:56.534   2216501660.945
RECEIVE_FREQ_1 =   2022-12-01T01:10:06.470   2216501659.145
RECEIVE_FREQ_1 =   2022-12-01T01:10:16.493   2216501657.645
RECEIVE_FREQ_1 =   2022-12-01T01:10:26.515   2216501656.745
RECEIVE_FREQ_1 =   2022-12-01T01:10:36.451   2216501654.745
RECEIVE_FREQ_1 =   2022-12-01T01:10:46.474   2216501653.745
RECEIVE_FREQ_1 =   2022-12-01T01:10:56.496   2216501652.345
RECEIVE_FREQ_1 =   2022-12-01T01:11:06.518   2216501650.645
RECEIVE_FREQ_1 =   2022-12-01T01:11:16.454   2216501649.145
RECEIVE_FREQ_1 =   2022-12-01T01:11:26.477   2216501647.745
RECEIVE_FREQ_1 =   2022-12-01T01:11:36.499   2216501646.745
RECEIVE_FREQ_1 =   2022-12-01T01:11:46.522   2216501645.245
RECEIVE_FREQ_1 =   2022-12-01T01:11:56.544   2216501644.345
RECEIVE_FREQ_1 =   2022-12-01T01:12:06.480   2216501642.545
RECEIVE_FREQ_1 =   2022-12-01T01:12:16.502   2216501641.045
RECEIVE_FREQ_1 =   2022-12-01T01:12:26.525   2216501639.645
RECEIVE_FREQ_1 =   2022-12-01T01:12:36.461   2216501638.045
RECEIVE_FREQ_1 =   2022-12-01T01:12:46.483   2216501636.745
RECEIVE_FREQ_1 =   2022-12-01T01:12:56.506   2216501634.945
RECEIVE_FREQ_1 =   2022-12-01T01:13:06.528   2216501634.045
RECEIVE_FREQ_1 =   2022-12-01T01:13:16.550   2216501632.545
RECEIVE_FREQ_1 =   2022-12-01T01:13:26.486   2216501630.945
RECEIVE_FREQ_1 =   2022-12-01T01:13:36.509   2216501629.945
RECEIVE_FREQ_1 =   2022-12-01T01:13:46.531   2216501627.845
RECEIVE_FREQ_1 =   2022-12-01T01:13:56.467   2216501627.145
RECEIVE_FREQ_1 =   2022-12-01T01:14:06.490   2216501625.545
RECEIVE_FREQ_1 =   2022-12-01T01:14:16.512   2216501624.045
RECEIVE_FREQ_1 =   2022-12-01T01:14:26.534   2216501622.745
RECEIVE_FREQ_1 =   2022-12-01T01:14:36.470   2216501621.145
RECEIVE_FREQ_1 =   2022-12-01T01:14:46.493   2216501620.045
RECEIVE_FREQ_1 =   2022-12-01T01:14:56.515   2216501618.045
RECEIVE_FREQ_1 =   2022-12-01T01:15:06.451   2216501616.645
RECEIVE_FREQ_1 =   2022-12-01T01:15:16.474   2216501615.845
RECEIVE_FREQ_1 =   2022-12-01T01:15:26.496   2216501614.345
RECEIVE_FREQ_1 =   2022-12-01T01:15:36.518   2216501612.445
RECEIVE_FREQ_1 =   2022-12-01T01:15:46.454   2216501611.145
RECEIVE_FREQ_1 =   2022-12-01T01:15:56.477   2216501609.645
RECEIVE_FREQ_1 =   2022-12-01T01:16:06.499   2216501608.5
RECEIVE_FREQ_1 =   2022-12-01T01:16:16.522   2216501606.945
RECEIVE_FREQ_1 =   2022-12-01T01:16:26.544   2216501605.245
RECEIVE_FREQ_1 =   2022-12-01T01:16:36.480   2216501604.245
RECEIVE_FREQ_1 =   2022-12-01T01:16:46.502   2216501602.7
RECEIVE_FREQ_1 =   2022-12-01T01:16:56.525   2216501601.245
RECEIVE_FREQ_1 =   2022-12-01T01:17:06.461   2216501599.845
RECEIVE_FREQ_1 =   2022-12-01T01:17:16.483   2216501598.245
RECEIVE_FREQ_1 =   2022-12-01T01:17:26.506   2216501596.545
RECEIVE_FREQ_1 =   2022-12-01T01:17:36.528   2216501595.745
RECEIVE_FREQ_1 =   2022-12-01T01:17:46.550   2216501594.045
RECEIVE_FREQ_1 =   2022-12-01T01:17:56.486   2216501592.545
RECEIVE_FREQ_1 =   2022-12-01T01:18:06.509   2216501591.145
RECEIVE_FREQ_1 =   2022-12-01T01:18:16.531   2216501589.745
RECEIVE_FREQ_1 =   2022-12-01T01:18:26.467   2216501588.445
RECEIVE_FREQ_1 =   2022-12-01T01:18:36.490   2216501587.1
RECEIVE_FREQ_1 =   2022-12-01T01:18:46.512   2216501585.345
RECEIVE_FREQ_1 =   2022-12-01T01:18:56.534   2216501583.945
RECEIVE_FREQ_1 =   2022-12-01T01:19:06.557   2216501582.345
RECEIVE_FREQ_1 =   2022-12-01T01:19:16.493   2216501581.245
RECEIVE_FREQ_1 =   2022-12-01T01:19:26.515   2216501579.545
RECEIVE_FREQ_1 =   2022-12-01T01:19:36.451   2216501578.345
RECEIVE_FREQ_1 =   2022-12-01T01:19:56.496   2216501575.445
RECEIVE_FREQ_1 =   2022-12-01T01:20:06.518   2216501574.345
RECEIVE_FREQ_1 =   2022-12-01T01:20:16.541   2216501573.045
RECEIVE_FREQ_1 =   2022-12-01T01:20:26.477   2216501571.045
RECEIVE_FREQ_1 =   2022-12-01T01:20:36.499   2216501570.145
RECEIVE_FREQ_1 =   2022-12-01T01:20:46.522   2216501568.045
RECEIVE_FREQ_1 =   2022-12-01T01:20:56.544   2216501566.945
RECEIVE_FREQ_1 =   2022-12-01T01:21:06.480   2216501565.145
RECEIVE_FREQ_1 =   2022-12-01T01:21:16.502   2216501563.945
RECEIVE_FREQ_1 =   2022-12-01T01:21:36.547   2216501561.345
RECEIVE_FREQ_1 =   2022-12-01T01:21:46.483   2216501560.145
RECEIVE_FREQ_1 =   2022-12-01T01:21:56.506   2216501558.245
RECEIVE_FREQ_1 =   2022-12-01T01:22:06.528   2216501556.845
RECEIVE_FREQ_1 =   2022-12-01T01:22:16.464   2216501555.445
RECEIVE_FREQ_1 =   2022-12-01T01:22:26.486   2216501554.045
RECEIVE_FREQ_1 =   2022-12-01T01:22:36.509   2216501552.845
RECEIVE_FREQ_1 =   2022-12-01T01:22:46.531   2216501550.945
RECEIVE_FREQ_1 =   2022-12-01T01:22:56.467   2216501549.845
RECEIVE_FREQ_1 =   2022-12-01T01:23:06.490   2216501548.445
RECEIVE_FREQ_1 =   2022-12-01T01:23:16.512   2216501547.045
RECEIVE_FREQ_1 =   2022-12-01T01:23:26.534   2216501545.245
RECEIVE_FREQ_1 =   2022-12-01T01:23:36.470   2216501543.845
RECEIVE_FREQ_1 =   2022-12-01T01:23:46.493   2216501542.545
RECEIVE_FREQ_1 =   2022-12-01T01:23:56.515   2216501541.245
RECEIVE_FREQ_1 =   2022-12-01T01:24:06.451   2216501539.645
RECEIVE_FREQ_1 =   2022-12-01T01:24:16.474   2216501538.145
RECEIVE_FREQ_1 =   2022-12-01T01:24:26.496   2216501536.545
RECEIVE_FREQ_1 =   2022-12-01T01:24:36.518   2216501535.845
RECEIVE_FREQ_1 =   2022-12-01T01:24:46.454   2216501533.845
RECEIVE_FREQ_1 =   2022-12-01T01:24:56.477   2216501532.645
RECEIVE_FREQ_1 =   2022-12-01T01:25:06.499   2216501530.745
RECEIVE_FREQ_1 =   2022-12-01T01:25:16.522   2216501529.645
RECEIVE_FREQ_1 =   2022-12-01T01:25:26.458   2216501528.445
RECEIVE_FREQ_1 =   2022-12-01T01:25:36.480   2216501526.445
RECEIVE_FREQ_1 =   2022-12-01T01:25:46.502   2216501525.145
RECEIVE_FREQ_1 =   2022-12-01T01:25:56.525   2216501523.945
RECEIVE_FREQ_1 =   2022-12-01T01:26:06.461   2216501522.845
RECEIVE_FREQ_1 =   2022-12-01T01:26:16.483   2216501520.845
RECEIVE_FREQ_1 =   2022-12-01T01:26:26.506   2216501519.745
RECEIVE_FREQ_1 =   2022-12-01T01:26:36.528   2216501518.145
RECEIVE_FREQ_1 =   2022-12-01T01:26:46.464   2216501516.845
RECEIVE_FREQ_1 =   2022-12-01T01:26:56.486   2216501515.345
RECEIVE_FREQ_1 =   2022-12-01T01:27:06.509   2216501514.445
RECEIVE_FREQ_1 =   2022-12-01T01:27:16.531   2216501512.645
RECEIVE_FREQ_1 =   2022-12-01T01:27:26.467   2216501511.145
RECEIVE_FREQ_1 =   2022-12-01T01:27:36.490   2216501509.745
RECEIVE_FREQ_1 =   2022-12-01T01:27:46.512   2216501508.445
RECEIVE_FREQ_1 =   2022-12-01T01:27:56.534   2216501506.845
RECEIVE_FREQ_1 =   2022-12-01T01:28:06.470   2216501505.445
RECEIVE_FREQ_1 =   2022-12-01T01:28:16.493   2216501504.445
RECEIVE_FREQ_1 =   2022-12-01T01:28:26.515   2216501502.445
RECEIVE_FREQ_1 =   2022-12-01T01:28:36.538   2216501501.245
RECEIVE_FREQ_1 =   2022-12-01T01:28:46.474   2216501499.945
RECEIVE_FREQ_1 =   2022-12-01T01:28:56.496   2216501498.345
RECEIVE_FREQ_1 =   2022-12-01T01:29:06.518   2216501496.845
RECEIVE_FREQ_1 =   2022-12-01T01:29:16.454   2216501495.745
RECEIVE_FREQ_1 =   2022-12-01T01:29:26.477   2216501493.6
RECEIVE_FREQ_1 =   2022-12-01T01:29:36.499   2216501492.645
RECEIVE_FREQ_1 =   2022-12-01T01:29:46.522   2216501491.445
RECEIVE_FREQ_1 =   2022-12-01T01:29:56.458   2216501489.645
RECEIVE_FREQ_1 =   2022-12-01T01:30:06.480   2216501487.8
RECEIVE_FREQ_1 =   2022-12-01T01:30:16.502   2216501487.045
RECEIVE_FREQ_1 =   2022-12-01T01:30:26.525   2216501485.945
RECEIVE_FREQ_1 =   2022-12-01T01:30:36.547   2216501484.045
RECEIVE_FREQ_1 =   2022-12-01T01:30:46.483   2216501482.8
RECEIVE_FREQ_1 =   2022-12-01T01:30:56.506   2216501481.345
RECEIVE_FREQ_1 =   2022-12-01T01:31:06.528   2216501479.945
RECEIVE_FREQ_1 =   2022-12-01T01:31:16.464   2216501478.645
RECEIVE_FREQ_1 =   2022-12-01T01:31:26.486   2216501477.0
RECEIVE_FREQ_1 =   2022-12-01T01:31:36.509   2216501475.745
RECEIVE_FREQ_1 =   2022-12-01T01:31:46.531   2216501474.045
RECEIVE_FREQ_1 =   2022-12-01T01:31:56.467   2216501472.945
RECEIVE_FREQ_1 =   2022-12-01T01:32:06.490   2216501471.345
RECEIVE_FREQ_1 =   2022-12-01T01:32:16.512   2216501470.045
RECEIVE_FREQ_1 =   2022-12-01T01:32:26.534   2216501468.645
RECEIVE_FREQ_1 =   2022-12-01T01:32:36.470   2216501467.245
RECEIVE_FREQ_1 =   2022-12-01T01:32:46.493   2216501465.345
RECEIVE_FREQ_1 =   2022-12-01T01:32:56.515   2216501464.045
RECEIVE_FREQ_1 =   2022-12-01T01:33:06.451   2216501462.945
RECEIVE_FREQ_1 =   2022-12-01T01:33:16.474   2216501461.445
RECEIVE_FREQ_1 =   2022-12-01T01:33:26.496   2216501459.645
RECEIVE_FREQ_1 =   2022-12-01T01:33:36.518   2216501458.645
RECEIVE_FREQ_1 =   2022-12-01T01:33:46.541   2216501457.145
RECEIVE_FREQ_1 =   2022-12-01T01:33:56.477   2216501455.545
RECEIVE_FREQ_1 =   2022-12-01T01:34:06.499   2216501454.045
RECEIVE_FREQ_1 =   2022-12-01T01:34:16.522   2216501452.845
RECEIVE_FREQ_1 =   2022-12-01T01:34:26.458   2216501451.445
RECEIVE_FREQ_1 =   2022-12-01T01:34:36.480   2216501449.845
RECEIVE_FREQ_1 =   2022-12-01T01:34:46.502   2216501448.645
RECEIVE_FREQ_1 =   2022-12-01T01:34:56.525   2216501447.145
RECEIVE_FREQ_1 =   2022-12-01T01:35:06.461   2216501445.745
RECEIVE_FREQ_1 =   2022-12-01T01:35:16.483   2216501443.945
RECEIVE_FREQ_1 =   2022-12-01T01:35:26.506   2216501442.845
