data/tdm/2022-12-03Z_2022-156A.tdm

CCSDS_TDM_VERS = 2.0
COMMENT TDM ARTEMIS 1 Doppler data by Scott Tilley for 2022-12-03 UTC
COMMENT Signal not demodulated, to low of SNR, centre carrier integrated in 10s by 0.1Hz bin and extracted for peak value.
CREATION_DATE = 2022-12-03Z
ORIGINATOR = SCOTT TILLEY

META_START
COMMENT 
COMMENT 
SYSTEM TIME = UTC
PARTICIPANT_1 = COSPAR 8049
PARTICIPANT_2 = 2022-156A
MODE = SEQUENTIAL
PATH = 2,1
INTEGRATION_INTERVAL = 10
INTEGRATION_REF = MIDDLE
FREQ_OFFSET = 0
TRANSMIT_DELAY_1 = 0
RECEIVE_DELAY_1 = 0
DATA_QUALITY = RAW
META_STOP

DATA_START
RECEIVE_FREQ_1 =   2022-12-04T01:18:41.760   2216501243.4
RECEIVE_FREQ_1 =   2022-12-04T01:19:11.827   2216501240.5
RECEIVE_FREQ_1 =   2022-12-04T01:19:21.763   2216501239.2
RECEIVE_FREQ_1 =   2022-12-04T01:19:31.786   2216501238.0
RECEIVE_FREQ_1 =   2022-12-04T01:19:41.808   2216501236.8
RECEIVE_FREQ_1 =   2022-12-04T01:19:51.830   2216501236.0
RECEIVE_FREQ_1 =   2022-12-04T01:20:01.766   2216501234.8
RECEIVE_FREQ_1 =   2022-12-04T01:20:11.789   2216501233.6
RECEIVE_FREQ_1 =   2022-12-04T01:20:21.811   2216501232.8
RECEIVE_FREQ_1 =   2022-12-04T01:20:31.834   2216501231.5
RECEIVE_FREQ_1 =   2022-12-04T01:20:41.770   2216501230.2
RECEIVE_FREQ_1 =   2022-12-04T01:21:21.773   2216501225.6
RECEIVE_FREQ_1 =   2022-12-04T01:22:01.776   2216501221.4
RECEIVE_FREQ_1 =   2022-12-04T01:22:21.821   2216501218.9
RECEIVE_FREQ_1 =   2022-12-04T01:22:31.757   2216501217.9
RECEIVE_FREQ_1 =   2022-12-04T01:23:11.760   2216501213.1
RECEIVE_FREQ_1 =   2022-12-04T01:23:51.763   2216501209.0
RECEIVE_FREQ_1 =   2022-12-04T01:24:01.786   2216501207.7
RECEIVE_FREQ_1 =   2022-12-04T01:24:11.808   2216501206.7
RECEIVE_FREQ_1 =   2022-12-04T01:24:21.830   2216501205.3
RECEIVE_FREQ_1 =   2022-12-04T01:24:31.766   2216501203.7
RECEIVE_FREQ_1 =   2022-12-04T01:24:41.789   2216501202.8
RECEIVE_FREQ_1 =   2022-12-04T01:24:51.811   2216501201.5
RECEIVE_FREQ_1 =   2022-12-04T01:25:01.834   2216501200.3
RECEIVE_FREQ_1 =   2022-12-04T01:25:11.770   2216501198.9
RECEIVE_FREQ_1 =   2022-12-04T01:25:21.792   2216501197.7
RECEIVE_FREQ_1 =   2022-12-04T01:25:31.814   2216501196.5
RECEIVE_FREQ_1 =   2022-12-04T01:25:41.750   2216501195.6
RECEIVE_FREQ_1 =   2022-12-04T01:25:51.773   2216501194.2
RECEIVE_FREQ_1 =   2022-12-04T01:26:01.795   2216501193.0
RECEIVE_FREQ_1 =   2022-12-04T01:26:11.818   2216501191.5
RECEIVE_FREQ_1 =   2022-12-04T01:26:21.840   2216501190.3
RECEIVE_FREQ_1 =   2022-12-04T01:26:31.776   2216501189.0
RECEIVE_FREQ_1 =   2022-12-04T01:26:41.798   2216501187.9
RECEIVE_FREQ_1 =   2022-12-04T01:26:51.821   2216501186.5
RECEIVE_FREQ_1 =   2022-12-04T01:27:01.843   2216501185.3
RECEIVE_FREQ_1 =   2022-12-04T01:27:11.779   2216501184.3
RECEIVE_FREQ_1 =   2022-12-04T01:27:21.802   2216501182.5
RECEIVE_FREQ_1 =   2022-12-04T01:27:31.824   2216501181.6
RECEIVE_FREQ_1 =   2022-12-04T01:27:41.760   2216501180.4
RECEIVE_FREQ_1 =   2022-12-04T01:27:51.782   2216501178.8
RECEIVE_FREQ_1 =   2022-12-04T01:28:01.805   2216501177.7
RECEIVE_FREQ_1 =   2022-12-04T01:28:11.827   2216501176.5
RECEIVE_FREQ_1 =   2022-12-04T01:28:21.763   2216501175.5
RECEIVE_FREQ_1 =   2022-12-04T01:28:31.786   2216501174.0
RECEIVE_FREQ_1 =   2022-12-04T01:28:41.808   2216501172.5
RECEIVE_FREQ_1 =   2022-12-04T01:28:51.744   2216501171.5
RECEIVE_FREQ_1 =   2022-12-04T01:29:01.766   2216501170.2
RECEIVE_FREQ_1 =   2022-12-04T01:29:11.789   2216501169.4
RECEIVE_FREQ_1 =   2022-12-04T01:29:21.811   2216501167.8
RECEIVE_FREQ_1 =   2022-12-04T01:29:31.834   2216501166.4
RECEIVE_FREQ_1 =   2022-12-04T01:29:41.770   2216501165.4
RECEIVE_FREQ_1 =   2022-12-04T01:29:51.792   2216501164.0
RECEIVE_FREQ_1 =   2022-12-04T01:30:01.814   2216501162.9
RECEIVE_FREQ_1 =   2022-12-04T01:30:11.837   2216501161.6
RECEIVE_FREQ_1 =   2022-12-04T01:30:21.773   2216501160.5
RECEIVE_FREQ_1 =   2022-12-04T01:30:31.795   2216501158.9
RECEIVE_FREQ_1 =   2022-12-04T01:30:41.818   2216501158.3
RECEIVE_FREQ_1 =   2022-12-04T01:30:51.840   2216501156.7
RECEIVE_FREQ_1 =   2022-12-04T01:31:01.776   2216501155.3
RECEIVE_FREQ_1 =   2022-12-04T01:31:11.798   2216501154.3
RECEIVE_FREQ_1 =   2022-12-04T01:31:21.821   2216501152.9
RECEIVE_FREQ_1 =   2022-12-04T01:31:31.757   2216501151.9
RECEIVE_FREQ_1 =   2022-12-04T01:31:41.779   2216501150.5
RECEIVE_FREQ_1 =   2022-12-04T01:31:51.802   2216501149.4
RECEIVE_FREQ_1 =   2022-12-04T01:32:01.824   2216501148.1
RECEIVE_FREQ_1 =   2022-12-04T01:32:11.760   2216501147.1
RECEIVE_FREQ_1 =   2022-12-04T01:32:21.782   2216501145.4
RECEIVE_FREQ_1 =   2022-12-04T01:32:31.805   2216501144.7
RECEIVE_FREQ_1 =   2022-12-04T01:32:41.827   2216501143.3
RECEIVE_FREQ_1 =   2022-12-04T01:32:51.763   2216501141.9
RECEIVE_FREQ_1 =   2022-12-04T01:33:01.786   2216501141.0
RECEIVE_FREQ_1 =   2022-12-04T01:33:11.808   2216501139.5
RECEIVE_FREQ_1 =   2022-12-04T01:33:21.830   2216501138.5
RECEIVE_FREQ_1 =   2022-12-04T01:33:31.766   2216501136.7
RECEIVE_FREQ_1 =   2022-12-04T01:33:41.789   2216501135.6
RECEIVE_FREQ_1 =   2022-12-04T01:33:51.811   2216501134.5
RECEIVE_FREQ_1 =   2022-12-04T01:34:01.834   2216501133.1
RECEIVE_FREQ_1 =   2022-12-04T01:34:11.770   2216501132.0
RECEIVE_FREQ_1 =   2022-12-04T01:34:21.792   2216501130.9
RECEIVE_FREQ_1 =   2022-12-04T01:34:31.814   2216501129.4
RECEIVE_FREQ_1 =   2022-12-04T01:34:41.837   2216501128.3
RECEIVE_FREQ_1 =   2022-12-04T01:34:51.773   2216501126.9
RECEIVE_FREQ_1 =   2022-12-04T01:35:01.795   2216501125.7
RECEIVE_FREQ_1 =   2022-12-04T01:35:11.818   2216501124.7
RECEIVE_FREQ_1 =   2022-12-04T01:35:21.754   2216501123.6
RECEIVE_FREQ_1 =   2022-12-04T01:35:31.776   2216501122.1
RECEIVE_FREQ_1 =   2022-12-04T01:35:41.798   2216501120.9
RECEIVE_FREQ_1 =   2022-12-04T01:35:51.821   2216501119.6
RECEIVE_FREQ_1 =   2022-12-04T01:36:01.843   2216501118.9
RECEIVE_FREQ_1 =   2022-12-04T01:36:11.779   2216501117.1
RECEIVE_FREQ_1 =   2022-12-04T01:36:21.802   2216501116.0
RECEIVE_FREQ_1 =   2022-12-04T01:36:31.824   2216501115.0
RECEIVE_FREQ_1 =   2022-12-04T01:36:41.846   2216501113.5
RECEIVE_FREQ_1 =   2022-12-04T01:36:51.782   2216501112.4
RECEIVE_FREQ_1 =   2022-12-04T01:37:01.805   2216501110.9
RECEIVE_FREQ_1 =   2022-12-04T01:37:11.827   2216501110.2
RECEIVE_FREQ_1 =   2022-12-04T01:37:21.763   2216501108.8
RECEIVE_FREQ_1 =   2022-12-04T01:37:31.786   2216501107.1
RECEIVE_FREQ_1 =   2022-12-04T01:37:41.808   2216501106.1
RECEIVE_FREQ_1 =   2022-12-04T01:37:51.830   2216501105.1
RECEIVE_FREQ_1 =   2022-12-04T01:38:01.853   2216501103.7
RECEIVE_FREQ_1 =   2022-12-04T01:38:11.789   2216501102.8
RECEIVE_FREQ_1 =   2022-12-04T01:38:21.811   2216501101.4
RECEIVE_FREQ_1 =   2022-12-04T01:38:31.834   2216501100.4
RECEIVE_FREQ_1 =   2022-12-04T01:38:41.770   2216501099.1
RECEIVE_FREQ_1 =   2022-12-04T01:38:51.792   2216501098.1
RECEIVE_FREQ_1 =   2022-12-04T01:39:01.814   2216501096.5
RECEIVE_FREQ_1 =   2022-12-04T01:39:11.837   2216501095.4
RECEIVE_FREQ_1 =   2022-12-04T01:39:21.773   2216501094.3
RECEIVE_FREQ_1 =   2022-12-04T01:39:31.795   2216501093.1
RECEIVE_FREQ_1 =   2022-12-04T01:39:41.818   2216501091.8
RECEIVE_FREQ_1 =   2022-12-04T01:39:51.840   2216501090.3
RECEIVE_FREQ_1 =   2022-12-04T01:40:01.776   2216501089.4
RECEIVE_FREQ_1 =   2022-12-04T01:40:11.798   2216500432.2
RECEIVE_FREQ_1 =   2022-12-04T01:40:21.821   2216500430.7
RECEIVE_FREQ_1 =   2022-12-04T01:40:31.843   2216500429.4
RECEIVE_FREQ_1 =   2022-12-04T01:40:41.779   2216500427.9
RECEIVE_FREQ_1 =   2022-12-04T01:40:51.802   2216500426.7
RECEIVE_FREQ_1 =   2022-12-04T01:41:01.824   2216500426.1
RECEIVE_FREQ_1 =   2022-12-04T01:41:11.846   2216500424.4
RECEIVE_FREQ_1 =   2022-12-04T01:41:21.782   2216500423.2
RECEIVE_FREQ_1 =   2022-12-04T01:41:31.805   2216500422.1
RECEIVE_FREQ_1 =   2022-12-04T01:41:41.827   2216500421.0
RECEIVE_FREQ_1 =   2022-12-04T01:41:51.850   2216500419.1
RECEIVE_FREQ_1 =   2022-12-04T01:42:01.786   2216500418.0
RECEIVE_FREQ_1 =   2022-12-04T01:42:11.808   2216500417.2
RECEIVE_FREQ_1 =   2022-12-04T01:42:21.830   2216500415.2
RECEIVE_FREQ_1 =   2022-12-04T01:42:31.766   2216500414.5
RECEIVE_FREQ_1 =   2022-12-04T01:42:41.789   2216500412.8
RECEIVE_FREQ_1 =   2022-12-04T01:42:51.811   2216500411.7
RECEIVE_FREQ_1 =   2022-12-04T01:43:01.834   2216500410.6
RECEIVE_FREQ_1 =   2022-12-04T01:43:11.770   2216500409.3
RECEIVE_FREQ_1 =   2022-12-04T01:43:21.792   2216500408.1
RECEIVE_FREQ_1 =   2022-12-04T01:43:31.814   2216500407.0
RECEIVE_FREQ_1 =   2022-12-04T01:43:41.837   2216500405.0
RECEIVE_FREQ_1 =   2022-12-04T01:43:51.773   2216500403.9
RECEIVE_FREQ_1 =   2022-12-04T01:44:01.795   2216500402.6
RECEIVE_FREQ_1 =   2022-12-04T01:44:11.818   2216500401.3
RECEIVE_FREQ_1 =   2022-12-04T01:44:21.754   2216500399.7
RECEIVE_FREQ_1 =   2022-12-04T01:44:31.776   2216500398.7
RECEIVE_FREQ_1 =   2022-12-04T01:44:41.798   2216500397.4
RECEIVE_FREQ_1 =   2022-12-04T01:44:51.821   2216500396.1
RECEIVE_FREQ_1 =   2022-12-04T01:45:01.757   2216500394.6
RECEIVE_FREQ_1 =   2022-12-04T01:45:11.779   2216500393.3
RECEIVE_FREQ_1 =   2022-12-04T01:45:21.802   2216500391.9
RECEIVE_FREQ_1 =   2022-12-04T01:45:31.824   2216500391.0
RECEIVE_FREQ_1 =   2022-12-04T01:45:41.760   2216500389.7
RECEIVE_FREQ_1 =   2022-12-04T01:45:51.782   2216500388.3
RECEIVE_FREQ_1 =   2022-12-04T01:46:01.805   2216500387.2
RECEIVE_FREQ_1 =   2022-12-04T01:46:11.827   2216500385.8
RECEIVE_FREQ_1 =   2022-12-04T01:46:21.763   2216500384.2
RECEIVE_FREQ_1 =   2022-12-04T01:46:31.786   2216500383.2
RECEIVE_FREQ_1 =   2022-12-04T01:46:41.808   2216500381.6
RECEIVE_FREQ_1 =   2022-12-04T01:46:51.830   2216500380.3
RECEIVE_FREQ_1 =   2022-12-04T01:47:01.766   2216500379.6
RECEIVE_FREQ_1 =   2022-12-04T01:47:11.875   2216500378.0
RECEIVE_FREQ_1 =   2022-12-04T01:47:21.811   2216500376.2
RECEIVE_FREQ_1 =   2022-12-04T01:47:31.834   2216500375.3
RECEIVE_FREQ_1 =   2022-12-04T01:47:41.770   2216500373.9
RECEIVE_FREQ_1 =   2022-12-04T01:47:51.792   2216500372.5
RECEIVE_FREQ_1 =   2022-12-04T01:48:01.814   2216500371.1
RECEIVE_FREQ_1 =   2022-12-04T01:48:11.750   2216500370.0
RECEIVE_FREQ_1 =   2022-12-04T01:48:21.773   2216500368.3
RECEIVE_FREQ_1 =   2022-12-04T01:48:31.795   2216500367.5
RECEIVE_FREQ_1 =   2022-12-04T01:48:41.818   2216500365.4
RECEIVE_FREQ_1 =   2022-12-04T01:48:51.840   2216500364.3
RECEIVE_FREQ_1 =   2022-12-04T01:49:01.776   2216500363.3
RECEIVE_FREQ_1 =   2022-12-04T01:49:11.798   2216500362.0
RECEIVE_FREQ_1 =   2022-12-04T01:49:21.821   2216500360.3
RECEIVE_FREQ_1 =   2022-12-04T01:49:31.757   2216500359.5
RECEIVE_FREQ_1 =   2022-12-04T01:49:41.779   2216500357.8
RECEIVE_FREQ_1 =   2022-12-04T01:50:01.824   2216500355.2
RECEIVE_FREQ_1 =   2022-12-04T01:50:11.760   2216500353.8
RECEIVE_FREQ_1 =   2022-12-04T01:50:21.782   2216500352.9
RECEIVE_FREQ_1 =   2022-12-04T01:50:31.805   2216500351.5
RECEIVE_FREQ_1 =   2022-12-04T01:50:41.827   2216500349.9
RECEIVE_FREQ_1 =   2022-12-04T01:50:51.850   2216500347.8
RECEIVE_FREQ_1 =   2022-12-04T01:51:01.786   2216500346.9
RECEIVE_FREQ_1 =   2022-12-04T01:51:11.808   2216500345.8
RECEIVE_FREQ_1 =   2022-12-04T01:51:21.830   2216500343.8
RECEIVE_FREQ_1 =   2022-12-04T01:51:31.766   2216500343.0
RECEIVE_FREQ_1 =   2022-12-04T01:51:41.789   2216500341.7
RECEIVE_FREQ_1 =   2022-12-04T01:51:51.811   2216500339.9
RECEIVE_FREQ_1 =   2022-12-04T01:52:01.747   2216500339.1
RECEIVE_FREQ_1 =   2022-12-04T01:52:11.770   2216500337.8
RECEIVE_FREQ_1 =   2022-12-04T01:52:21.792   2216500336.1
RECEIVE_FREQ_1 =   2022-12-04T01:52:31.814   2216500335.1
RECEIVE_FREQ_1 =   2022-12-04T01:52:41.837   2216500333.8
RECEIVE_FREQ_1 =   2022-12-04T01:52:51.859   2216500332.3
RECEIVE_FREQ_1 =   2022-12-04T01:53:01.795   2216500331.0
RECEIVE_FREQ_1 =   2022-12-04T01:53:11.818   2216500329.5
RECEIVE_FREQ_1 =   2022-12-04T01:53:21.754   2216500328.0
RECEIVE_FREQ_1 =   2022-12-04T01:53:31.776   2216500327.0
RECEIVE_FREQ_1 =   2022-12-04T01:53:41.798   2216500325.3
RECEIVE_FREQ_1 =   2022-12-04T01:53:51.821   2216500323.9
RECEIVE_FREQ_1 =   2022-12-04T01:54:01.843   2216500322.7
RECEIVE_FREQ_1 =   2022-12-04T01:54:11.866   2216500321.4
RECEIVE_FREQ_1 =   2022-12-04T01:54:21.802   2216500320.0
RECEIVE_FREQ_1 =   2022-12-04T01:54:31.824   2216500318.8
RECEIVE_FREQ_1 =   2022-12-04T01:54:41.760   2216500317.5
RECEIVE_FREQ_1 =   2022-12-04T01:54:51.782   2216500316.0
RECEIVE_FREQ_1 =   2022-12-04T01:55:01.805   2216500314.2
RECEIVE_FREQ_1 =   2022-12-04T01:55:11.827   2216500313.1
RECEIVE_FREQ_1 =   2022-12-04T01:55:21.850   2216500311.7
RECEIVE_FREQ_1 =   2022-12-04T01:55:31.786   2216500310.5
RECEIVE_FREQ_1 =   2022-12-04T01:55:41.808   2216500308.9
RECEIVE_FREQ_1 =   2022-12-04T01:55:51.830   2216500307.8
RECEIVE_FREQ_1 =   2022-12-04T01:56:01.766   2216500306.6
RECEIVE_FREQ_1 =   2022-12-04T01:56:11.789   2216500305.2
RECEIVE_FREQ_1 =   2022-12-04T01:56:21.811   2216500303.4
RECEIVE_FREQ_1 =   2022-12-04T01:56:31.834   2216500302.5
RECEIVE_FREQ_1 =   2022-12-04T01:56:41.856   2216500300.4
RECEIVE_FREQ_1 =   2022-12-04T01:56:51.792   2216500299.3
RECEIVE_FREQ_1 =   2022-12-04T01:57:01.814   2216500298.5
RECEIVE_FREQ_1 =   2022-12-04T01:57:11.837   2216500297.1
RECEIVE_FREQ_1 =   2022-12-04T01:57:21.859   2216500295.6
RECEIVE_FREQ_1 =   2022-12-04T01:57:31.795   2216500294.2
RECEIVE_FREQ_1 =   2022-12-04T01:57:41.818   2216500293.0
RECEIVE_FREQ_1 =   2022-12-04T01:57:51.840   2216500291.8
RECEIVE_FREQ_1 =   2022-12-04T01:58:01.862   2216500290.1
RECEIVE_FREQ_1 =   2022-12-04T01:58:11.798   2216500288.4
RECEIVE_FREQ_1 =   2022-12-04T01:58:21.821   2216500287.0
RECEIVE_FREQ_1 =   2022-12-04T01:58:31.843   2216500285.7
RECEIVE_FREQ_1 =   2022-12-04T01:58:41.779   2216500284.4
RECEIVE_FREQ_1 =   2022-12-04T01:58:51.802   2216500283.3
RECEIVE_FREQ_1 =   2022-12-04T01:59:01.824   2216500282.2
RECEIVE_FREQ_1 =   2022-12-04T01:59:11.760   2216500280.9
RECEIVE_FREQ_1 =   2022-12-04T01:59:21.782   2216500279.3
RECEIVE_FREQ_1 =   2022-12-04T01:59:31.805   2216500278.1
RECEIVE_FREQ_1 =   2022-12-04T01:59:41.827   2216500276.9
RECEIVE_FREQ_1 =   2022-12-04T01:59:51.763   2216500275.4
RECEIVE_FREQ_1 =   2022-12-04T02:00:01.786   2216500274.4
RECEIVE_FREQ_1 =   2022-12-04T02:00:11.808   2216500272.6
RECEIVE_FREQ_1 =   2022-12-04T02:00:21.830   2216500271.4
RECEIVE_FREQ_1 =   2022-12-04T02:00:31.766   2216500270.2
RECEIVE_FREQ_1 =   2022-12-04T02:00:41.789   2216500268.7
RECEIVE_FREQ_1 =   2022-12-04T02:00:51.811   2216500267.3
RECEIVE_FREQ_1 =   2022-12-04T02:01:01.834   2216500265.8
RECEIVE_FREQ_1 =   2022-12-04T02:01:11.770   2216500264.4
RECEIVE_FREQ_1 =   2022-12-04T02:01:21.792   2216500263.4
RECEIVE_FREQ_1 =   2022-12-04T02:01:31.814   2216500262.3
RECEIVE_FREQ_1 =   2022-12-04T02:01:41.750   2216500261.5
RECEIVE_FREQ_1 =   2022-12-04T02:01:51.773   2216500259.4
RECEIVE_FREQ_1 =   2022-12-04T02:02:01.795   2216500257.9
RECEIVE_FREQ_1 =   2022-12-04T02:02:11.818   2216500256.3
RECEIVE_FREQ_1 =   2022-12-04T02:02:21.840   2216500254.9
RECEIVE_FREQ_1 =   2022-12-04T02:02:31.862   2216500254.4
RECEIVE_FREQ_1 =   2022-12-04T02:02:41.798   2216500252.8
RECEIVE_FREQ_1 =   2022-12-04T02:02:51.821   2216500251.2
RECEIVE_FREQ_1 =   2022-12-04T02:03:01.757   2216500249.5
RECEIVE_FREQ_1 =   2022-12-04T02:03:11.779   2216500248.4
RECEIVE_FREQ_1 =   2022-12-04T02:03:21.802   2216500246.6
RECEIVE_FREQ_1 =   2022-12-04T02:03:31.824   2216500245.9
RECEIVE_FREQ_1 =   2022-12-04T02:03:41.846   2216500244.2
RECEIVE_FREQ_1 =   2022-12-04T02:03:51.782   2216500243.0
RECEIVE_FREQ_1 =   2022-12-04T02:04:01.805   2216500241.6
RECEIVE_FREQ_1 =   2022-12-04T02:04:11.827   2216500240.3
RECEIVE_FREQ_1 =   2022-12-04T02:04:21.850   2216500238.7
RECEIVE_FREQ_1 =   2022-12-04T02:04:31.786   2216500237.7
RECEIVE_FREQ_1 =   2022-12-04T02:04:41.808   2216500236.1
RECEIVE_FREQ_1 =   2022-12-04T02:04:51.830   2216500234.9
RECEIVE_FREQ_1 =   2022-12-04T02:05:01.766   2216500233.4
RECEIVE_FREQ_1 =   2022-12-04T02:05:11.789   2216500232.0
RECEIVE_FREQ_1 =   2022-12-04T02:05:21.811   2216500230.5
RECEIVE_FREQ_1 =   2022-12-04T02:05:31.834   2216500229.6
RECEIVE_FREQ_1 =   2022-12-04T02:05:41.770   2216500228.1
RECEIVE_FREQ_1 =   2022-12-04T02:05:51.792   2216500226.6
RECEIVE_FREQ_1 =   2022-12-04T02:06:01.814   2216500224.9
RECEIVE_FREQ_1 =   2022-12-04T02:06:11.837   2216500223.8
RECEIVE_FREQ_1 =   2022-12-04T02:06:21.859   2216500222.4
RECEIVE_FREQ_1 =   2022-12-04T02:06:31.882   2216500221.3
RECEIVE_FREQ_1 =   2022-12-04T02:06:41.818   2216500219.9
RECEIVE_FREQ_1 =   2022-12-04T02:06:51.840   2216500218.2
RECEIVE_FREQ_1 =   2022-12-04T02:07:01.776   2216500217.1
RECEIVE_FREQ_1 =   2022-12-04T02:07:11.798   2216500215.7
RECEIVE_FREQ_1 =   2022-12-04T02:07:21.821   2216500214.2
RECEIVE_FREQ_1 =   2022-12-04T02:07:31.843   2216500213.2
RECEIVE_FREQ_1 =   2022-12-04T02:07:41.779   2216500211.8
RECEIVE_FREQ_1 =   2022-12-04T02:07:51.802   2216500210.3
RECEIVE_FREQ_1 =   2022-12-04T02:08:01.824   2216500209.2
RECEIVE_FREQ_1 =   2022-12-04T02:08:11.760   2216500207.6
RECEIVE_FREQ_1 =   2022-12-04T02:08:21.782   2216500205.7
RECEIVE_FREQ_1 =   2022-12-04T02:08:31.805   2216500204.5
RECEIVE_FREQ_1 =   2022-12-04T02:08:41.827   2216500203.6
RECEIVE_FREQ_1 =   2022-12-04T02:08:51.850   2216500202.2
RECEIVE_FREQ_1 =   2022-12-04T02:09:01.872   2216500200.8
RECEIVE_FREQ_1 =   2022-12-04T02:09:11.808   2216500199.5
RECEIVE_FREQ_1 =   2022-12-04T02:09:21.830   2216500198.0
RECEIVE_FREQ_1 =   2022-12-04T02:09:31.766   2216500196.4
RECEIVE_FREQ_1 =   2022-12-04T02:09:41.789   2216500194.5
RECEIVE_FREQ_1 =   2022-12-04T02:09:51.811   2216500193.0
RECEIVE_FREQ_1 =   2022-12-04T02:10:01.834   2216500192.1
RECEIVE_FREQ_1 =   2022-12-04T02:10:11.770   2216500190.6
RECEIVE_FREQ_1 =   2022-12-04T02:10:21.792   2216500189.4
RECEIVE_FREQ_1 =   2022-12-04T02:10:31.814   2216500188.1
RECEIVE_FREQ_1 =   2022-12-04T02:10:41.837   2216500186.8
RECEIVE_FREQ_1 =   2022-12-04T02:10:51.859   2216500185.0
RECEIVE_FREQ_1 =   2022-12-04T02:11:01.795   2216500183.9
RECEIVE_FREQ_1 =   2022-12-04T02:11:11.818   2216500182.8
RECEIVE_FREQ_1 =   2022-12-04T02:11:21.840   2216500180.9
RECEIVE_FREQ_1 =   2022-12-04T02:11:31.862   2216500179.5
RECEIVE_FREQ_1 =   2022-12-04T02:11:41.798   2216500178.3
RECEIVE_FREQ_1 =   2022-12-04T02:11:51.821   2216500176.4
RECEIVE_FREQ_1 =   2022-12-04T02:12:01.843   2216500175.1
RECEIVE_FREQ_1 =   2022-12-04T02:12:11.779   2216500173.7
RECEIVE_FREQ_1 =   2022-12-04T02:12:21.802   2216500172.1
RECEIVE_FREQ_1 =   2022-12-04T02:12:31.824   2216500171.1
RECEIVE_FREQ_1 =   2022-12-04T02:12:41.846   2216500169.5
RECEIVE_FREQ_1 =   2022-12-04T02:12:51.869   2216500167.8
RECEIVE_FREQ_1 =   2022-12-04T02:13:01.891   2216500166.5
RECEIVE_FREQ_1 =   2022-12-04T02:13:11.914   2216500165.4
RECEIVE_FREQ_1 =   2022-12-04T02:13:21.850   2216500163.7
RECEIVE_FREQ_1 =   2022-12-04T02:13:31.872   2216500162.3
RECEIVE_FREQ_1 =   2022-12-04T02:13:41.808   2216500160.6
RECEIVE_FREQ_1 =   2022-12-04T02:13:51.830   2216500159.3
RECEIVE_FREQ_1 =   2022-12-04T02:14:01.853   2216500158.4
RECEIVE_FREQ_1 =   2022-12-04T02:14:11.875   2216500156.7
RECEIVE_FREQ_1 =   2022-12-04T02:14:21.898   2216500154.6
RECEIVE_FREQ_1 =   2022-12-04T02:14:31.920   2216500153.2
RECEIVE_FREQ_1 =   2022-12-04T02:14:41.942   2216500152.2
RECEIVE_FREQ_1 =   2022-12-04T02:14:51.878   2216500150.6
RECEIVE_FREQ_1 =   2022-12-04T02:15:01.987   2216500148.9
RECEIVE_FREQ_1 =   2022-12-04T02:15:11.923   2216500147.6
RECEIVE_FREQ_1 =   2022-12-04T02:15:21.946   2216500146.2
RECEIVE_FREQ_1 =   2022-12-04T02:15:31.882   2216500144.5
RECEIVE_FREQ_1 =   2022-12-04T02:15:41.904   2216500143.1
RECEIVE_FREQ_1 =   2022-12-04T02:15:51.926   2216500141.7
RECEIVE_FREQ_1 =   2022-12-04T02:16:01.949   2216500140.1
RECEIVE_FREQ_1 =   2022-12-04T02:16:11.885   2216500139.0
RECEIVE_FREQ_1 =   2022-12-04T02:16:21.907   2216500137.5
RECEIVE_FREQ_1 =   2022-12-04T02:16:31.843   2216500136.1
RECEIVE_FREQ_1 =   2022-12-04T02:16:41.866   2216500134.4
RECEIVE_FREQ_1 =   2022-12-04T02:16:51.888   2216500132.9
RECEIVE_FREQ_1 =   2022-12-04T02:17:01.910   2216500131.9
RECEIVE_FREQ_1 =   2022-12-04T02:17:11.846   2216500130.1
RECEIVE_FREQ_1 =   2022-12-04T02:17:21.869   2216500128.9
RECEIVE_FREQ_1 =   2022-12-04T02:17:31.891   2216500127.3
RECEIVE_FREQ_1 =   2022-12-04T02:17:41.827   2216500125.6
RECEIVE_FREQ_1 =   2022-12-04T02:17:51.850   2216500124.7
RECEIVE_FREQ_1 =   2022-12-04T02:18:01.872   2216500122.7
RECEIVE_FREQ_1 =   2022-12-04T02:18:11.894   2216500121.5
RECEIVE_FREQ_1 =   2022-12-04T02:18:21.917   2216500120.2
RECEIVE_FREQ_1 =   2022-12-04T02:18:31.939   2216500118.2
RECEIVE_FREQ_1 =   2022-12-04T02:18:41.875   2216500117.2
RECEIVE_FREQ_1 =   2022-12-04T02:18:51.898   2216500115.8
RECEIVE_FREQ_1 =   2022-12-04T02:19:01.834   2216500114.3
RECEIVE_FREQ_1 =   2022-12-04T02:19:11.942   2216500112.5
RECEIVE_FREQ_1 =   2022-12-04T02:19:21.965   2216500111.7
RECEIVE_FREQ_1 =   2022-12-04T02:19:31.901   2216500109.9
RECEIVE_FREQ_1 =   2022-12-04T02:19:41.837   2216500108.5
RECEIVE_FREQ_1 =   2022-12-04T02:19:51.859   2216500107.0
RECEIVE_FREQ_1 =   2022-12-04T02:20:01.882   2216500105.8
RECEIVE_FREQ_1 =   2022-12-04T02:20:11.904   2216500104.6
RECEIVE_FREQ_1 =   2022-12-04T02:20:21.840   2216500103.1
RECEIVE_FREQ_1 =   2022-12-04T02:20:31.862   2216500101.5
RECEIVE_FREQ_1 =   2022-12-04T02:20:41.798   2216500100.3
RECEIVE_FREQ_1 =   2022-12-04T02:20:51.821   2216500098.8
RECEIVE_FREQ_1 =   2022-12-04T02:21:01.843   2216500097.5
RECEIVE_FREQ_1 =   2022-12-04T02:21:11.866   2216500095.5
RECEIVE_FREQ_1 =   2022-12-04T02:21:21.888   2216500094.5
RECEIVE_FREQ_1 =   2022-12-04T02:21:31.824   2216500093.1
RECEIVE_FREQ_1 =   2022-12-04T02:21:41.846   2216500091.3
RECEIVE_FREQ_1 =   2022-12-04T02:21:51.869   2216500090.0
RECEIVE_FREQ_1 =   2022-12-04T02:22:01.891   2216500088.9
RECEIVE_FREQ_1 =   2022-12-04T02:22:11.827   2216500087.1
RECEIVE_FREQ_1 =   2022-12-04T02:22:21.850   2216500085.7
RECEIVE_FREQ_1 =   2022-12-04T02:22:31.872   2216500084.3
RECEIVE_FREQ_1 =   2022-12-04T02:22:51.830   2216500081.2
RECEIVE_FREQ_1 =   2022-12-04T02:23:01.853   2216500079.8
RECEIVE_FREQ_1 =   2022-12-04T02:23:11.875   2216500078.6
RECEIVE_FREQ_1 =   2022-12-04T02:23:21.898   2216500077.0
RECEIVE_FREQ_1 =   2022-12-04T02:23:31.920   2216500075.7
RECEIVE_FREQ_1 =   2022-12-04T02:23:41.856   2216500074.2
RECEIVE_FREQ_1 =   2022-12-04T02:23:51.878   2216500072.6
RECEIVE_FREQ_1 =   2022-12-04T02:24:01.901   2216500071.7
RECEIVE_FREQ_1 =   2022-12-04T02:24:11.923   2216500070.0
RECEIVE_FREQ_1 =   2022-12-04T02:24:21.946   2216500068.0
RECEIVE_FREQ_1 =   2022-12-04T02:24:31.882   2216500066.5
RECEIVE_FREQ_1 =   2022-12-04T02:24:41.904   2216500065.3
RECEIVE_FREQ_1 =   2022-12-04T02:24:51.926   2216500063.7
RECEIVE_FREQ_1 =   2022-12-04T02:25:01.862   2216500062.6
RECEIVE_FREQ_1 =   2022-12-04T02:25:11.885   2216500061.1
RECEIVE_FREQ_1 =   2022-12-04T02:25:21.907   2216500059.8
RECEIVE_FREQ_1 =   2022-12-04T02:25:31.843   2216500057.8
RECEIVE_FREQ_1 =   2022-12-04T02:25:41.866   2216500056.9
RECEIVE_FREQ_1 =   2022-12-04T02:25:51.888   2216500055.6
RECEIVE_FREQ_1 =   2022-12-04T02:26:01.824   2216500053.9
RECEIVE_FREQ_1 =   2022-12-04T02:26:11.846   2216500051.9
RECEIVE_FREQ_1 =   2022-12-04T02:26:21.869   2216500051.5
RECEIVE_FREQ_1 =   2022-12-04T02:26:31.891   2216500049.6
RECEIVE_FREQ_1 =   2022-12-04T02:26:41.827   2216500047.7
RECEIVE_FREQ_1 =   2022-12-04T02:26:51.850   2216500046.5
RECEIVE_FREQ_1 =   2022-12-04T02:27:01.872   2216500045.1
RECEIVE_FREQ_1 =   2022-12-04T02:27:11.894   2216500044.0
RECEIVE_FREQ_1 =   2022-12-04T02:27:21.917   2216500042.6
RECEIVE_FREQ_1 =   2022-12-04T02:27:31.853   2216500040.7
RECEIVE_FREQ_1 =   2022-12-04T02:27:41.875   2216500039.3
RECEIVE_FREQ_1 =   2022-12-04T02:27:51.898   2216500038.1
RECEIVE_FREQ_1 =   2022-12-04T02:28:01.834   2216500036.7
RECEIVE_FREQ_1 =   2022-12-04T02:28:11.856   2216500034.9
RECEIVE_FREQ_1 =   2022-12-04T02:28:21.878   2216500033.2
RECEIVE_FREQ_1 =   2022-12-04T02:28:31.814   2216500031.9
RECEIVE_FREQ_1 =   2022-12-04T02:28:41.923   2216500030.3
RECEIVE_FREQ_1 =   2022-12-04T02:28:51.859   2216500028.7
RECEIVE_FREQ_1 =   2022-12-04T02:29:01.882   2216500027.1
RECEIVE_FREQ_1 =   2022-12-04T02:29:11.904   2216500026.1
RECEIVE_FREQ_1 =   2022-12-04T02:29:21.840   2216500024.3
RECEIVE_FREQ_1 =   2022-12-04T02:29:31.862   2216500023.1
RECEIVE_FREQ_1 =   2022-12-04T02:29:41.798   2216500021.5
RECEIVE_FREQ_1 =   2022-12-04T02:29:51.821   2216500019.9
RECEIVE_FREQ_1 =   2022-12-04T02:30:01.843   2216500018.4
RECEIVE_FREQ_1 =   2022-12-04T02:30:11.779   2216500017.1
RECEIVE_FREQ_1 =   2022-12-04T02:30:21.802   2216500015.5
RECEIVE_FREQ_1 =   2022-12-04T02:30:31.824   2216500014.1
RECEIVE_FREQ_1 =   2022-12-04T02:30:41.846   2216500012.7
RECEIVE_FREQ_1 =   2022-12-04T02:30:51.869   2216500011.1
RECEIVE_FREQ_1 =   2022-12-04T02:31:01.805   2216500009.4
RECEIVE_FREQ_1 =   2022-12-04T02:31:11.827   2216500008.4
RECEIVE_FREQ_1 =   2022-12-04T02:31:21.850   2216500006.7
RECEIVE_FREQ_1 =   2022-12-04T02:31:31.872   2216500005.4
RECEIVE_FREQ_1 =   2022-12-04T02:31:41.894   2216500003.8
RECEIVE_FREQ_1 =   2022-12-04T02:31:51.917   2216500002.1
RECEIVE_FREQ_1 =   2022-12-04T02:32:01.853   2216500000.2
RECEIVE_FREQ_1 =   2022-12-04T02:32:11.875   2216499999.5
RECEIVE_FREQ_1 =   2022-12-04T02:32:31.834   2216499996.8
RECEIVE_FREQ_1 =   2022-12-04T02:32:41.856   2216499994.6
RECEIVE_FREQ_1 =   2022-12-04T02:32:51.878   2216499993.5
RECEIVE_FREQ_1 =   2022-12-04T02:33:01.814   2216499991.5
RECEIVE_FREQ_1 =   2022-12-04T02:33:11.923   2216499990.3
RECEIVE_FREQ_1 =   2022-12-04T02:33:21.946   2216499988.6
RECEIVE_FREQ_1 =   2022-12-04T02:33:31.882   2216499987.4
RECEIVE_FREQ_1 =   2022-12-04T02:33:41.818   2216499985.9
RECEIVE_FREQ_1 =   2022-12-04T02:33:51.840   2216499984.6
RECEIVE_FREQ_1 =   2022-12-04T02:34:01.862   2216499983.1
RECEIVE_FREQ_1 =   2022-12-04T02:34:21.907   2216499980.0
RECEIVE_FREQ_1 =   2022-12-04T02:34:31.930   2216499978.7
RECEIVE_FREQ_1 =   2022-12-04T02:34:41.866   2216499976.8
RECEIVE_FREQ_1 =   2022-12-04T02:34:51.802   2216499975.4
RECEIVE_FREQ_1 =   2022-12-04T02:35:01.824   2216499974.3
RECEIVE_FREQ_1 =   2022-12-04T02:35:11.846   2216499972.9
RECEIVE_FREQ_1 =   2022-12-04T02:35:21.869   2216499970.8
RECEIVE_FREQ_1 =   2022-12-04T02:35:31.891   2216499969.2
RECEIVE_FREQ_1 =   2022-12-04T02:35:41.827   2216499968.1
RECEIVE_FREQ_1 =   2022-12-04T02:35:51.850   2216499966.5
RECEIVE_FREQ_1 =   2022-12-04T02:36:01.872   2216499964.6
RECEIVE_FREQ_1 =   2022-12-04T02:36:11.894   2216499963.4
RECEIVE_FREQ_1 =   2022-12-04T02:36:21.830   2216499961.6
RECEIVE_FREQ_1 =   2022-12-04T02:36:31.853   2216499960.6
RECEIVE_FREQ_1 =   2022-12-04T02:36:41.789   2216499959.6
RECEIVE_FREQ_1 =   2022-12-04T02:36:51.811   2216499957.9
RECEIVE_FREQ_1 =   2022-12-04T02:37:01.834   2216499956.3
RECEIVE_FREQ_1 =   2022-12-04T02:37:11.856   2216499954.3
RECEIVE_FREQ_1 =   2022-12-04T02:37:21.878   2216499952.5
RECEIVE_FREQ_1 =   2022-12-04T02:37:31.814   2216499951.6
RECEIVE_FREQ_1 =   2022-12-04T02:37:41.837   2216499950.1
RECEIVE_FREQ_1 =   2022-12-04T02:37:51.859   2216499948.6
RECEIVE_FREQ_1 =   2022-12-04T02:38:01.795   2216499947.4
RECEIVE_FREQ_1 =   2022-12-04T02:38:11.818   2216499945.4
RECEIVE_FREQ_1 =   2022-12-04T02:38:21.840   2216499944.3
RECEIVE_FREQ_1 =   2022-12-04T02:38:31.862   2216499942.8
RECEIVE_FREQ_1 =   2022-12-04T02:38:41.885   2216499940.8
RECEIVE_FREQ_1 =   2022-12-04T02:38:51.907   2216499939.7
RECEIVE_FREQ_1 =   2022-12-04T02:39:11.866   2216499936.6
RECEIVE_FREQ_1 =   2022-12-04T02:39:21.888   2216499934.8
RECEIVE_FREQ_1 =   2022-12-04T02:39:31.910   2216499933.4
RECEIVE_FREQ_1 =   2022-12-04T02:39:41.846   2216499932.2
RECEIVE_FREQ_1 =   2022-12-04T02:39:51.869   2216499930.8
RECEIVE_FREQ_1 =   2022-12-04T02:40:01.891   2216499929.0
RECEIVE_FREQ_1 =   2022-12-04T02:40:11.914   2216499927.7
RECEIVE_FREQ_1 =   2022-12-04T02:40:21.936   2216499926.4
RECEIVE_FREQ_1 =   2022-12-04T02:40:31.872   2216499924.6
RECEIVE_FREQ_1 =   2022-12-04T02:40:41.808   2216499923.5
RECEIVE_FREQ_1 =   2022-12-04T02:40:51.830   2216499921.7
RECEIVE_FREQ_1 =   2022-12-04T02:41:01.853   2216499920.6
RECEIVE_FREQ_1 =   2022-12-04T02:41:11.875   2216499919.0
RECEIVE_FREQ_1 =   2022-12-04T02:41:21.898   2216499917.0
RECEIVE_FREQ_1 =   2022-12-04T02:41:31.920   2216499915.9
RECEIVE_FREQ_1 =   2022-12-04T02:41:41.856   2216499914.5
RECEIVE_FREQ_1 =   2022-12-04T02:41:51.878   2216499912.8
RECEIVE_FREQ_1 =   2022-12-04T02:42:01.814   2216499911.4
RECEIVE_FREQ_1 =   2022-12-04T02:42:11.837   2216499909.8
RECEIVE_FREQ_1 =   2022-12-04T02:42:21.859   2216499908.3
RECEIVE_FREQ_1 =   2022-12-04T02:42:31.882   2216499907.2
RECEIVE_FREQ_1 =   2022-12-04T02:42:41.818   2216499905.7
RECEIVE_FREQ_1 =   2022-12-04T02:42:51.840   2216499904.3
RECEIVE_FREQ_1 =   2022-12-04T02:43:01.862   2216499902.5
RECEIVE_FREQ_1 =   2022-12-04T02:43:11.885   2216499901.1
RECEIVE_FREQ_1 =   2022-12-04T02:43:21.821   2216499900.1
RECEIVE_FREQ_1 =   2022-12-04T02:43:31.843   2216499898.7
RECEIVE_FREQ_1 =   2022-12-04T02:43:41.866   2216499896.8
RECEIVE_FREQ_1 =   2022-12-04T02:43:51.888   2216499895.0
RECEIVE_FREQ_1 =   2022-12-04T02:44:01.824   2216499894.2
RECEIVE_FREQ_1 =   2022-12-04T02:44:11.846   2216499892.4
RECEIVE_FREQ_1 =   2022-12-04T02:44:21.869   2216499891.0
RECEIVE_FREQ_1 =   2022-12-04T02:44:31.891   2216499889.7
RECEIVE_FREQ_1 =   2022-12-04T02:44:41.827   2216499887.9
RECEIVE_FREQ_1 =   2022-12-04T02:44:51.850   2216499886.4
RECEIVE_FREQ_1 =   2022-12-04T02:45:01.872   2216499884.8
RECEIVE_FREQ_1 =   2022-12-04T02:45:11.894   2216499883.5
RECEIVE_FREQ_1 =   2022-12-04T02:45:21.830   2216499882.3
RECEIVE_FREQ_1 =   2022-12-04T02:45:31.853   2216499880.8
RECEIVE_FREQ_1 =   2022-12-04T02:45:41.875   2216499879.5
RECEIVE_FREQ_1 =   2022-12-04T02:45:51.898   2216499877.7
RECEIVE_FREQ_1 =   2022-12-04T02:46:01.834   2216499876.3
RECEIVE_FREQ_1 =   2022-12-04T02:46:11.856   2216499874.5
RECEIVE_FREQ_1 =   2022-12-04T02:46:21.878   2216499873.5
RECEIVE_FREQ_1 =   2022-12-04T02:46:31.901   2216499871.6
RECEIVE_FREQ_1 =   2022-12-04T02:46:41.837   2216499870.4
RECEIVE_FREQ_1 =   2022-12-04T02:46:51.859   2216499869.1
RECEIVE_FREQ_1 =   2022-12-04T02:47:01.882   2216499867.7
RECEIVE_FREQ_1 =   2022-12-04T02:47:11.904   2216499866.3
RECEIVE_FREQ_1 =   2022-12-04T02:47:21.840   2216499864.8
RECEIVE_FREQ_1 =   2022-12-04T02:47:31.862   2216499863.2
RECEIVE_FREQ_1 =   2022-12-04T02:47:41.885   2216499861.8
RECEIVE_FREQ_1 =   2022-12-04T02:47:51.821   2216499860.2
RECEIVE_FREQ_1 =   2022-12-04T02:48:01.843   2216499858.3
RECEIVE_FREQ_1 =   2022-12-04T02:48:11.866   2216499857.2
RECEIVE_FREQ_1 =   2022-12-04T02:48:21.888   2216499855.4
RECEIVE_FREQ_1 =   2022-12-04T02:48:31.824   2216499853.7
RECEIVE_FREQ_1 =   2022-12-04T02:48:41.846   2216499852.2
RECEIVE_FREQ_1 =   2022-12-04T02:48:51.869   2216499850.7
RECEIVE_FREQ_1 =   2022-12-04T02:49:01.891   2216499849.4
RECEIVE_FREQ_1 =   2022-12-04T02:49:11.827   2216499847.7
RECEIVE_FREQ_1 =   2022-12-04T02:49:21.850   2216499846.5
RECEIVE_FREQ_1 =   2022-12-04T02:49:31.872   2216499845.2
RECEIVE_FREQ_1 =   2022-12-04T02:49:41.894   2216499843.5
RECEIVE_FREQ_1 =   2022-12-04T02:49:51.917   2216499842.0
RECEIVE_FREQ_1 =   2022-12-04T02:50:01.853   2216499840.3
RECEIVE_FREQ_1 =   2022-12-04T02:50:11.875   2216499839.0
RECEIVE_FREQ_1 =   2022-12-04T02:50:21.811   2216499837.0
RECEIVE_FREQ_1 =   2022-12-04T02:50:31.834   2216499835.7
RECEIVE_FREQ_1 =   2022-12-04T02:50:41.856   2216499833.8
RECEIVE_FREQ_1 =   2022-12-04T02:50:51.878   2216499832.8
RECEIVE_FREQ_1 =   2022-12-04T02:51:01.814   2216499831.2
RECEIVE_FREQ_1 =   2022-12-04T02:51:11.837   2216499829.6
RECEIVE_FREQ_1 =   2022-12-04T02:51:21.859   2216499828.1
RECEIVE_FREQ_1 =   2022-12-04T02:51:31.882   2216499826.7
RECEIVE_FREQ_1 =   2022-12-04T02:51:41.818   2216499825.1
RECEIVE_FREQ_1 =   2022-12-04T02:51:51.840   2216499823.6
RECEIVE_FREQ_1 =   2022-12-04T02:52:01.862   2216499821.5
RECEIVE_FREQ_1 =   2022-12-04T02:52:11.885   2216499820.2
RECEIVE_FREQ_1 =   2022-12-04T02:52:21.907   2216499818.7
RECEIVE_FREQ_1 =   2022-12-04T02:52:31.843   2216499817.0
RECEIVE_FREQ_1 =   2022-12-04T02:52:41.866   2216499816.0
RECEIVE_FREQ_1 =   2022-12-04T02:52:51.888   2216499814.3
RECEIVE_FREQ_1 =   2022-12-04T02:53:01.824   2216499813.0
RECEIVE_FREQ_1 =   2022-12-04T02:53:11.846   2216499810.7
RECEIVE_FREQ_1 =   2022-12-04T02:53:21.869   2216499809.3
RECEIVE_FREQ_1 =   2022-12-04T02:53:31.805   2216499808.2
RECEIVE_FREQ_1 =   2022-12-04T02:53:41.827   2216499806.8
RECEIVE_FREQ_1 =   2022-12-04T02:53:51.850   2216499804.7
RECEIVE_FREQ_1 =   2022-12-04T02:54:01.872   2216499803.4
RECEIVE_FREQ_1 =   2022-12-04T02:54:11.808   2216499801.9
RECEIVE_FREQ_1 =   2022-12-04T02:54:21.830   2216499800.8
RECEIVE_FREQ_1 =   2022-12-04T02:54:31.853   2216499799.0
RECEIVE_FREQ_1 =   2022-12-04T02:54:41.875   2216499797.2
RECEIVE_FREQ_1 =   2022-12-04T02:54:51.898   2216499795.9
RECEIVE_FREQ_1 =   2022-12-04T02:55:01.834   2216499794.6
RECEIVE_FREQ_1 =   2022-12-04T02:55:11.856   2216499792.8
RECEIVE_FREQ_1 =   2022-12-04T02:55:21.878   2216499791.5
RECEIVE_FREQ_1 =   2022-12-04T02:55:31.814   2216499789.2
RECEIVE_FREQ_1 =   2022-12-04T02:55:41.837   2216499787.9
RECEIVE_FREQ_1 =   2022-12-04T02:55:51.859   2216499786.6
RECEIVE_FREQ_1 =   2022-12-04T02:56:01.882   2216499784.7
RECEIVE_FREQ_1 =   2022-12-04T02:56:11.818   2216499783.3
RECEIVE_FREQ_1 =   2022-12-04T02:56:21.840   2216499781.9
RECEIVE_FREQ_1 =   2022-12-04T02:56:31.862   2216499780.0
RECEIVE_FREQ_1 =   2022-12-04T02:56:41.885   2216499778.8
RECEIVE_FREQ_1 =   2022-12-04T02:56:51.907   2216499777.2
RECEIVE_FREQ_1 =   2022-12-04T02:57:01.843   2216499775.0
RECEIVE_FREQ_1 =   2022-12-04T02:57:11.866   2216499773.1
RECEIVE_FREQ_1 =   2022-12-04T02:57:21.888   2216499773.7
RECEIVE_FREQ_1 =   2022-12-04T02:57:31.910   2216499771.1
RECEIVE_FREQ_1 =   2022-12-04T02:57:41.846   2216499769.1
RECEIVE_FREQ_1 =   2022-12-04T02:57:51.869   2216499767.1
RECEIVE_FREQ_1 =   2022-12-04T02:58:11.827   2216499764.3
RECEIVE_FREQ_1 =   2022-12-04T02:58:21.850   2216499763.0
RECEIVE_FREQ_1 =   2022-12-04T02:58:31.872   2216499760.9
RECEIVE_FREQ_1 =   2022-12-04T02:58:41.808   2216499758.9
RECEIVE_FREQ_1 =   2022-12-04T02:58:51.830   2216499757.7
RECEIVE_FREQ_1 =   2022-12-04T02:59:01.853   2216499756.1
RECEIVE_FREQ_1 =   2022-12-04T02:59:11.875   2216499755.1
RECEIVE_FREQ_1 =   2022-12-04T02:59:21.811   2216499753.7
RECEIVE_FREQ_1 =   2022-12-04T02:59:31.834   2216499751.6
RECEIVE_FREQ_1 =   2022-12-04T02:59:51.878   2216499748.4
RECEIVE_FREQ_1 =   2022-12-04T03:00:11.837   2216499745.4
RECEIVE_FREQ_1 =   2022-12-04T03:00:21.859   2216499743.3
RECEIVE_FREQ_1 =   2022-12-04T03:00:31.795   2216499742.3
RECEIVE_FREQ_1 =   2022-12-04T03:00:41.818   2216499740.9
RECEIVE_FREQ_1 =   2022-12-04T03:00:51.840   2216499739.3
RECEIVE_FREQ_1 =   2022-12-04T03:01:01.862   2216499737.5
RECEIVE_FREQ_1 =   2022-12-04T03:01:11.885   2216499736.1
RECEIVE_FREQ_1 =   2022-12-04T03:01:21.907   2216499734.4
RECEIVE_FREQ_1 =   2022-12-04T03:01:31.843   2216499732.7
RECEIVE_FREQ_1 =   2022-12-04T03:01:41.866   2216499731.3
RECEIVE_FREQ_1 =   2022-12-04T03:01:51.888   2216499730.0
RECEIVE_FREQ_1 =   2022-12-04T03:02:01.910   2216499728.3
RECEIVE_FREQ_1 =   2022-12-04T03:02:11.846   2216499726.7
RECEIVE_FREQ_1 =   2022-12-04T03:02:21.869   2216499724.9
RECEIVE_FREQ_1 =   2022-12-04T03:02:31.805   2216499723.6
RECEIVE_FREQ_1 =   2022-12-04T03:02:41.827   2216499722.0
RECEIVE_FREQ_1 =   2022-12-04T03:02:51.850   2216499720.3
RECEIVE_FREQ_1 =   2022-12-04T03:03:01.872   2216499718.8
RECEIVE_FREQ_1 =   2022-12-04T03:03:11.808   2216499717.5
RECEIVE_FREQ_1 =   2022-12-04T03:03:21.917   2216499715.8
RECEIVE_FREQ_1 =   2022-12-04T03:03:31.853   2216499713.8
RECEIVE_FREQ_1 =   2022-12-04T03:03:41.875   2216499712.7
RECEIVE_FREQ_1 =   2022-12-04T03:03:51.811   2216499711.7
RECEIVE_FREQ_1 =   2022-12-04T03:04:01.834   2216499710.0
RECEIVE_FREQ_1 =   2022-12-04T03:04:11.856   2216499708.0
RECEIVE_FREQ_1 =   2022-12-04T03:04:21.878   2216499706.1
RECEIVE_FREQ_1 =   2022-12-04T03:04:31.901   2216499705.0
RECEIVE_FREQ_1 =   2022-12-04T03:04:41.837   2216499703.4
RECEIVE_FREQ_1 =   2022-12-04T03:04:51.859   2216499701.7
RECEIVE_FREQ_1 =   2022-12-04T03:05:01.882   2216499699.9
RECEIVE_FREQ_1 =   2022-12-04T03:05:11.904   2216499698.7
RECEIVE_FREQ_1 =   2022-12-04T03:05:21.840   2216499697.2
RECEIVE_FREQ_1 =   2022-12-04T03:05:31.862   2216499695.6
RECEIVE_FREQ_1 =   2022-12-04T03:05:41.885   2216499694.3
RECEIVE_FREQ_1 =   2022-12-04T03:05:51.907   2216499692.2
RECEIVE_FREQ_1 =   2022-12-04T03:06:01.843   2216499691.1
RECEIVE_FREQ_1 =   2022-12-04T03:06:11.866   2216499689.5
RECEIVE_FREQ_1 =   2022-12-04T03:06:21.888   2216499687.9
RECEIVE_FREQ_1 =   2022-12-04T03:06:31.910   2216499686.6
RECEIVE_FREQ_1 =   2022-12-04T03:06:41.846   2216499684.8
RECEIVE_FREQ_1 =   2022-12-04T03:06:51.869   2216499683.4
RECEIVE_FREQ_1 =   2022-12-04T03:07:01.891   2216499682.2
RECEIVE_FREQ_1 =   2022-12-04T03:07:11.914   2216499679.8
RECEIVE_FREQ_1 =   2022-12-04T03:07:21.850   2216499679.0
RECEIVE_FREQ_1 =   2022-12-04T03:07:31.872   2216499677.4
RECEIVE_FREQ_1 =   2022-12-04T03:07:41.894   2216499675.9
RECEIVE_FREQ_1 =   2022-12-04T03:07:51.830   2216499674.3
RECEIVE_FREQ_1 =   2022-12-04T03:08:01.853   2216499672.6
RECEIVE_FREQ_1 =   2022-12-04T03:08:11.875   2216499671.2
RECEIVE_FREQ_1 =   2022-12-04T03:08:21.898   2216499669.7
RECEIVE_FREQ_1 =   2022-12-04T03:08:31.920   2216499668.8
RECEIVE_FREQ_1 =   2022-12-04T03:08:41.856   2216499667.0
RECEIVE_FREQ_1 =   2022-12-04T03:08:51.878   2216499665.2
RECEIVE_FREQ_1 =   2022-12-04T03:09:01.901   2216499663.7
RECEIVE_FREQ_1 =   2022-12-04T03:09:11.837   2216499661.7
RECEIVE_FREQ_1 =   2022-12-04T03:09:21.859   2216499661.1
RECEIVE_FREQ_1 =   2022-12-04T03:09:31.882   2216499658.3
RECEIVE_FREQ_1 =   2022-12-04T03:09:41.818   2216499657.6
RECEIVE_FREQ_1 =   2022-12-04T03:09:51.840   2216499655.4
RECEIVE_FREQ_1 =   2022-12-04T03:10:01.862   2216499654.4
RECEIVE_FREQ_1 =   2022-12-04T03:10:11.885   2216499652.8
RECEIVE_FREQ_1 =   2022-12-04T03:10:21.821   2216499650.5
RECEIVE_FREQ_1 =   2022-12-04T03:10:31.843   2216499649.6
RECEIVE_FREQ_1 =   2022-12-04T03:10:41.866   2216499647.8
RECEIVE_FREQ_1 =   2022-12-04T03:10:51.802   2216499646.2
RECEIVE_FREQ_1 =   2022-12-04T03:11:01.824   2216499645.0
RECEIVE_FREQ_1 =   2022-12-04T03:11:11.846   2216499643.3
RECEIVE_FREQ_1 =   2022-12-04T03:11:21.869   2216499641.5
RECEIVE_FREQ_1 =   2022-12-04T03:11:31.805   2216499640.6
RECEIVE_FREQ_1 =   2022-12-04T03:11:41.827   2216499638.5
RECEIVE_FREQ_1 =   2022-12-04T03:11:51.850   2216499637.4
RECEIVE_FREQ_1 =   2022-12-04T03:12:01.872   2216499635.4
RECEIVE_FREQ_1 =   2022-12-04T03:12:11.894   2216499634.3
RECEIVE_FREQ_1 =   2022-12-04T03:12:21.917   2216499632.2
RECEIVE_FREQ_1 =   2022-12-04T03:12:31.853   2216499630.9
RECEIVE_FREQ_1 =   2022-12-04T03:12:41.875   2216499629.1
RECEIVE_FREQ_1 =   2022-12-04T03:12:51.898   2216499627.4
RECEIVE_FREQ_1 =   2022-12-04T03:13:01.834   2216499626.2
RECEIVE_FREQ_1 =   2022-12-04T03:13:11.856   2216499624.6
RECEIVE_FREQ_1 =   2022-12-04T03:13:21.878   2216499623.4
RECEIVE_FREQ_1 =   2022-12-04T03:13:31.814   2216499621.3
RECEIVE_FREQ_1 =   2022-12-04T03:13:41.837   2216499620.0
RECEIVE_FREQ_1 =   2022-12-04T03:13:51.859   2216499618.9
RECEIVE_FREQ_1 =   2022-12-04T03:14:01.795   2216499617.0
RECEIVE_FREQ_1 =   2022-12-04T03:14:11.818   2216499614.8
RECEIVE_FREQ_1 =   2022-12-04T03:14:21.840   2216499613.5
RECEIVE_FREQ_1 =   2022-12-04T03:14:31.862   2216499611.9
RECEIVE_FREQ_1 =   2022-12-04T03:14:41.885   2216499610.5
RECEIVE_FREQ_1 =   2022-12-04T03:14:51.821   2216499609.2
RECEIVE_FREQ_1 =   2022-12-04T03:15:01.843   2216499607.7
RECEIVE_FREQ_1 =   2022-12-04T03:15:11.866   2216499605.9
RECEIVE_FREQ_1 =   2022-12-04T03:15:21.888   2216499604.2
RECEIVE_FREQ_1 =   2022-12-04T03:15:31.824   2216499602.8
RECEIVE_FREQ_1 =   2022-12-04T03:15:41.846   2216499601.1
RECEIVE_FREQ_1 =   2022-12-04T03:15:51.869   2216499600.0
RECEIVE_FREQ_1 =   2022-12-04T03:16:01.891   2216499598.2
RECEIVE_FREQ_1 =   2022-12-04T03:16:11.827   2216499596.1
RECEIVE_FREQ_1 =   2022-12-04T03:16:21.850   2216499594.7
RECEIVE_FREQ_1 =   2022-12-04T03:16:31.872   2216499593.2
RECEIVE_FREQ_1 =   2022-12-04T03:16:41.894   2216499591.6
RECEIVE_FREQ_1 =   2022-12-04T03:16:51.830   2216499589.8
RECEIVE_FREQ_1 =   2022-12-04T03:17:01.853   2216499588.5
RECEIVE_FREQ_1 =   2022-12-04T03:17:11.875   2216499587.1
RECEIVE_FREQ_1 =   2022-12-04T03:17:21.811   2216499585.3
RECEIVE_FREQ_1 =   2022-12-04T03:17:31.834   2216499583.5
RECEIVE_FREQ_1 =   2022-12-04T03:17:41.856   2216499582.1
RECEIVE_FREQ_1 =   2022-12-04T03:17:51.878   2216499580.1
RECEIVE_FREQ_1 =   2022-12-04T03:18:01.814   2216499578.8
RECEIVE_FREQ_1 =   2022-12-04T03:18:11.837   2216499577.5
RECEIVE_FREQ_1 =   2022-12-04T03:18:21.859   2216499575.8
RECEIVE_FREQ_1 =   2022-12-04T03:18:31.795   2216499574.0
RECEIVE_FREQ_1 =   2022-12-04T03:18:41.818   2216499572.7
RECEIVE_FREQ_1 =   2022-12-04T03:18:51.840   2216499570.3
RECEIVE_FREQ_1 =   2022-12-04T03:19:01.862   2216499569.0
RECEIVE_FREQ_1 =   2022-12-04T03:19:11.885   2216499567.4
RECEIVE_FREQ_1 =   2022-12-04T03:19:21.907   2216499566.1
RECEIVE_FREQ_1 =   2022-12-04T03:19:31.843   2216499564.5
RECEIVE_FREQ_1 =   2022-12-04T03:19:41.866   2216499563.0
RECEIVE_FREQ_1 =   2022-12-04T03:19:51.888   2216499560.9
RECEIVE_FREQ_1 =   2022-12-04T03:20:01.824   2216499559.7
RECEIVE_FREQ_1 =   2022-12-04T03:20:11.846   2216499557.8
RECEIVE_FREQ_1 =   2022-12-04T03:20:21.869   2216499556.7
RECEIVE_FREQ_1 =   2022-12-04T03:20:31.891   2216499555.0
RECEIVE_FREQ_1 =   2022-12-04T03:20:41.827   2216499553.7
RECEIVE_FREQ_1 =   2022-12-04T03:20:51.850   2216499551.5
RECEIVE_FREQ_1 =   2022-12-04T03:21:01.786   2216499550.0
RECEIVE_FREQ_1 =   2022-12-04T03:21:11.808   2216499548.2
RECEIVE_FREQ_1 =   2022-12-04T03:21:21.830   2216499546.4
RECEIVE_FREQ_1 =   2022-12-04T03:21:31.853   2216499544.9
RECEIVE_FREQ_1 =   2022-12-04T03:21:41.789   2216499543.2
RECEIVE_FREQ_1 =   2022-12-04T03:21:51.811   2216499541.8
RECEIVE_FREQ_1 =   2022-12-04T03:22:01.834   2216499540.2
RECEIVE_FREQ_1 =   2022-12-04T03:22:11.856   2216499538.0
RECEIVE_FREQ_1 =   2022-12-04T03:22:21.792   2216499536.9
RECEIVE_FREQ_1 =   2022-12-04T03:22:31.814   2216499535.5
RECEIVE_FREQ_1 =   2022-12-04T03:22:41.837   2216499533.7
RECEIVE_FREQ_1 =   2022-12-04T03:22:51.773   2216499531.7
RECEIVE_FREQ_1 =   2022-12-04T03:23:01.795   2216499530.7
RECEIVE_FREQ_1 =   2022-12-04T03:23:11.818   2216499528.6
RECEIVE_FREQ_1 =   2022-12-04T03:23:21.840   2216499526.9
RECEIVE_FREQ_1 =   2022-12-04T03:23:31.862   2216499525.2
RECEIVE_FREQ_1 =   2022-12-04T03:23:41.798   2216499523.8
RECEIVE_FREQ_1 =   2022-12-04T03:23:51.821   2216499522.4
RECEIVE_FREQ_1 =   2022-12-04T03:24:01.843   2216499521.1
RECEIVE_FREQ_1 =   2022-12-04T03:24:11.866   2216499519.5
RECEIVE_FREQ_1 =   2022-12-04T03:24:21.802   2216499517.5
RECEIVE_FREQ_1 =   2022-12-04T03:24:31.824   2216499515.7
RECEIVE_FREQ_1 =   2022-12-04T03:24:41.846   2216499514.0
RECEIVE_FREQ_1 =   2022-12-04T03:24:51.869   2216499512.7
RECEIVE_FREQ_1 =   2022-12-04T03:25:01.805   2216499510.9
RECEIVE_FREQ_1 =   2022-12-04T03:25:11.827   2216499509.5
RECEIVE_FREQ_1 =   2022-12-04T03:25:21.850   2216499508.2
RECEIVE_FREQ_1 =   2022-12-04T03:25:31.872   2216499506.7
RECEIVE_FREQ_1 =   2022-12-04T03:25:41.808   2216499505.2
RECEIVE_FREQ_1 =   2022-12-04T03:25:51.830   2216499503.0
RECEIVE_FREQ_1 =   2022-12-04T03:26:01.853   2216499501.7
RECEIVE_FREQ_1 =   2022-12-04T03:26:11.875   2216499500.0
RECEIVE_FREQ_1 =   2022-12-04T03:26:21.811   2216499498.7
RECEIVE_FREQ_1 =   2022-12-04T03:26:31.834   2216499496.6
RECEIVE_FREQ_1 =   2022-12-04T03:26:41.856   2216499495.4
RECEIVE_FREQ_1 =   2022-12-04T03:26:51.878   2216499493.5
RECEIVE_FREQ_1 =   2022-12-04T03:27:01.814   2216499492.6
RECEIVE_FREQ_1 =   2022-12-04T03:27:11.837   2216499490.1
RECEIVE_FREQ_1 =   2022-12-04T03:27:21.859   2216499489.2
RECEIVE_FREQ_1 =   2022-12-04T03:27:31.795   2216499487.2
RECEIVE_FREQ_1 =   2022-12-04T03:27:41.818   2216499485.7
RECEIVE_FREQ_1 =   2022-12-04T03:27:51.840   2216499484.0
RECEIVE_FREQ_1 =   2022-12-04T03:28:01.862   2216499483.2
RECEIVE_FREQ_1 =   2022-12-04T03:28:11.798   2216499481.2
RECEIVE_FREQ_1 =   2022-12-04T03:28:21.821   2216499479.6
RECEIVE_FREQ_1 =   2022-12-04T03:28:31.843   2216499477.5
RECEIVE_FREQ_1 =   2022-12-04T03:28:41.866   2216499476.0
RECEIVE_FREQ_1 =   2022-12-04T03:28:51.802   2216499474.6
RECEIVE_FREQ_1 =   2022-12-04T03:29:01.824   2216499473.3
RECEIVE_FREQ_1 =   2022-12-04T03:29:11.846   2216499471.7
RECEIVE_FREQ_1 =   2022-12-04T03:29:21.782   2216499470.4
RECEIVE_FREQ_1 =   2022-12-04T03:29:31.805   2216499468.3
RECEIVE_FREQ_1 =   2022-12-04T03:29:41.827   2216499467.3
RECEIVE_FREQ_1 =   2022-12-04T03:29:51.850   2216499465.6
RECEIVE_FREQ_1 =   2022-12-04T03:30:01.786   2216499464.1
RECEIVE_FREQ_1 =   2022-12-04T03:30:11.808   2216499462.7
RECEIVE_FREQ_1 =   2022-12-04T03:30:21.830   2216499461.0
RECEIVE_FREQ_1 =   2022-12-04T03:30:31.853   2216499459.4
RECEIVE_FREQ_1 =   2022-12-04T03:30:41.789   2216499457.5
RECEIVE_FREQ_1 =   2022-12-04T03:30:51.811   2216499456.5
RECEIVE_FREQ_1 =   2022-12-04T03:31:01.834   2216499454.3
RECEIVE_FREQ_1 =   2022-12-04T03:31:11.856   2216499453.2
RECEIVE_FREQ_1 =   2022-12-04T03:31:21.792   2216499451.1
RECEIVE_FREQ_1 =   2022-12-04T03:31:31.814   2216499450.0
RECEIVE_FREQ_1 =   2022-12-04T03:31:41.837   2216499448.1
RECEIVE_FREQ_1 =   2022-12-04T03:31:51.859   2216499446.8
RECEIVE_FREQ_1 =   2022-12-04T03:32:01.882   2216499444.9
RECEIVE_FREQ_1 =   2022-12-04T03:32:11.904   2216499443.4
RECEIVE_FREQ_1 =   2022-12-04T03:32:21.840   2216499442.0
RECEIVE_FREQ_1 =   2022-12-04T03:32:31.862   2216499440.3
RECEIVE_FREQ_1 =   2022-12-04T03:32:41.798   2216499439.1
RECEIVE_FREQ_1 =   2022-12-04T03:32:51.821   2216499437.6
RECEIVE_FREQ_1 =   2022-12-04T03:33:01.843   2216499435.6
RECEIVE_FREQ_1 =   2022-12-04T03:33:11.866   2216499434.4
RECEIVE_FREQ_1 =   2022-12-04T03:33:21.888   2216499432.4
RECEIVE_FREQ_1 =   2022-12-04T03:33:31.824   2216499430.8
RECEIVE_FREQ_1 =   2022-12-04T03:33:41.846   2216499429.5
RECEIVE_FREQ_1 =   2022-12-04T03:33:51.869   2216499427.5
RECEIVE_FREQ_1 =   2022-12-04T03:34:01.805   2216499426.4
RECEIVE_FREQ_1 =   2022-12-04T03:34:11.827   2216499424.7
RECEIVE_FREQ_1 =   2022-12-04T03:34:21.850   2216499422.6
RECEIVE_FREQ_1 =   2022-12-04T03:34:31.872   2216499421.3
RECEIVE_FREQ_1 =   2022-12-04T03:34:41.808   2216499419.8
RECEIVE_FREQ_1 =   2022-12-04T03:34:51.830   2216499418.0
RECEIVE_FREQ_1 =   2022-12-04T03:35:01.853   2216499416.9
RECEIVE_FREQ_1 =   2022-12-04T03:35:11.789   2216499415.1
RECEIVE_FREQ_1 =   2022-12-04T03:35:21.811   2216499413.6
RECEIVE_FREQ_1 =   2022-12-04T03:35:31.834   2216499411.3
RECEIVE_FREQ_1 =   2022-12-04T03:35:41.856   2216499410.5
RECEIVE_FREQ_1 =   2022-12-04T03:35:51.792   2216499408.5
RECEIVE_FREQ_1 =   2022-12-04T03:36:01.901   2216499406.5
RECEIVE_FREQ_1 =   2022-12-04T03:36:11.837   2216499405.3
RECEIVE_FREQ_1 =   2022-12-04T03:36:21.773   2216499403.1
RECEIVE_FREQ_1 =   2022-12-04T03:36:31.795   2216499401.7
RECEIVE_FREQ_1 =   2022-12-04T03:36:41.818   2216499400.1
RECEIVE_FREQ_1 =   2022-12-04T03:36:51.840   2216499398.3
RECEIVE_FREQ_1 =   2022-12-04T03:37:01.776   2216499396.7
RECEIVE_FREQ_1 =   2022-12-04T03:37:11.798   2216499395.3
RECEIVE_FREQ_1 =   2022-12-04T03:37:21.821   2216499394.1
RECEIVE_FREQ_1 =   2022-12-04T03:37:31.843   2216499392.1
RECEIVE_FREQ_1 =   2022-12-04T03:37:41.866   2216499390.4
RECEIVE_FREQ_1 =   2022-12-04T03:37:51.802   2216499389.4
RECEIVE_FREQ_1 =   2022-12-04T03:38:01.824   2216499387.6
RECEIVE_FREQ_1 =   2022-12-04T03:38:11.846   2216499385.9
RECEIVE_FREQ_1 =   2022-12-04T03:38:21.782   2216499384.1
RECEIVE_FREQ_1 =   2022-12-04T03:38:31.805   2216499382.6
RECEIVE_FREQ_1 =   2022-12-04T03:38:41.827   2216499381.2
RECEIVE_FREQ_1 =   2022-12-04T03:38:51.850   2216499379.1
RECEIVE_FREQ_1 =   2022-12-04T03:39:01.786   2216499377.7
RECEIVE_FREQ_1 =   2022-12-04T03:39:11.808   2216499376.1
RECEIVE_FREQ_1 =   2022-12-04T03:39:21.830   2216499374.2
RECEIVE_FREQ_1 =   2022-12-04T03:39:31.853   2216499373.0
RECEIVE_FREQ_1 =   2022-12-04T03:39:41.789   2216499371.2
RECEIVE_FREQ_1 =   2022-12-04T03:39:51.811   2216499369.5
RECEIVE_FREQ_1 =   2022-12-04T03:40:01.834   2216499367.6
RECEIVE_FREQ_1 =   2022-12-04T03:40:11.856   2216499366.1
RECEIVE_FREQ_1 =   2022-12-04T03:40:21.792   2216499364.2
RECEIVE_FREQ_1 =   2022-12-04T03:40:31.814   2216499362.4
RECEIVE_FREQ_1 =   2022-12-04T03:40:41.837   2216499361.3
RECEIVE_FREQ_1 =   2022-12-04T03:40:51.859   2216499359.7
RECEIVE_FREQ_1 =   2022-12-04T03:41:01.795   2216499357.6
RECEIVE_FREQ_1 =   2022-12-04T03:41:11.818   2216499356.2
RECEIVE_FREQ_1 =   2022-12-04T03:41:21.840   2216499355.2
RECEIVE_FREQ_1 =   2022-12-04T03:41:31.862   2216499352.8
RECEIVE_FREQ_1 =   2022-12-04T03:41:41.885   2216499351.4
RECEIVE_FREQ_1 =   2022-12-04T03:41:51.907   2216499349.7
RECEIVE_FREQ_1 =   2022-12-04T03:42:01.843   2216499348.1
RECEIVE_FREQ_1 =   2022-12-04T03:42:11.866   2216499346.7
RECEIVE_FREQ_1 =   2022-12-04T03:42:21.802   2216499345.1
RECEIVE_FREQ_1 =   2022-12-04T03:42:31.824   2216499342.7
RECEIVE_FREQ_1 =   2022-12-04T03:42:41.846   2216499341.7
RECEIVE_FREQ_1 =   2022-12-04T03:42:51.869   2216499339.7
RECEIVE_FREQ_1 =   2022-12-04T03:43:01.891   2216499337.9
RECEIVE_FREQ_1 =   2022-12-04T03:43:11.914   2216499336.2
RECEIVE_FREQ_1 =   2022-12-04T03:43:21.850   2216499334.9
RECEIVE_FREQ_1 =   2022-12-04T03:43:31.872   2216499333.0
RECEIVE_FREQ_1 =   2022-12-04T03:43:41.894   2216499331.2
RECEIVE_FREQ_1 =   2022-12-04T03:43:51.830   2216499329.2
RECEIVE_FREQ_1 =   2022-12-04T03:44:01.853   2216499327.8
RECEIVE_FREQ_1 =   2022-12-04T03:44:11.789   2216499326.5
RECEIVE_FREQ_1 =   2022-12-04T03:44:21.811   2216499324.8
RECEIVE_FREQ_1 =   2022-12-04T03:44:31.834   2216499323.4
RECEIVE_FREQ_1 =   2022-12-04T03:44:41.856   2216499321.3
RECEIVE_FREQ_1 =   2022-12-04T03:44:51.878   2216499320.0
RECEIVE_FREQ_1 =   2022-12-04T03:45:01.901   2216499318.0
RECEIVE_FREQ_1 =   2022-12-04T03:45:12.010   2216499317.1
RECEIVE_FREQ_1 =   2022-12-04T03:45:22.032   2216499314.9
RECEIVE_FREQ_1 =   2022-12-04T03:45:31.968   2216499312.8
RECEIVE_FREQ_1 =   2022-12-04T03:45:41.990   2216499311.6
RECEIVE_FREQ_1 =   2022-12-04T03:45:52.013   2216499310.3
RECEIVE_FREQ_1 =   2022-12-04T03:46:01.949   2216499308.3
RECEIVE_FREQ_1 =   2022-12-04T03:46:11.971   2216499306.8
RECEIVE_FREQ_1 =   2022-12-04T03:46:21.994   2216499304.8
RECEIVE_FREQ_1 =   2022-12-04T03:46:31.930   2216499303.0
RECEIVE_FREQ_1 =   2022-12-04T03:46:41.952   2216499301.4
RECEIVE_FREQ_1 =   2022-12-04T03:46:51.974   2216499299.7
RECEIVE_FREQ_1 =   2022-12-04T03:47:01.997   2216499298.6
RECEIVE_FREQ_1 =   2022-12-04T03:47:12.019   2216499296.6
RECEIVE_FREQ_1 =   2022-12-04T03:47:22.042   2216499294.7
RECEIVE_FREQ_1 =   2022-12-04T03:47:31.978   2216499293.5
RECEIVE_FREQ_1 =   2022-12-04T03:47:42.000   2216499291.3
RECEIVE_FREQ_1 =   2022-12-04T03:47:52.022   2216499289.9
RECEIVE_FREQ_1 =   2022-12-04T03:48:01.958   2216499288.3
RECEIVE_FREQ_1 =   2022-12-04T03:48:11.981   2216499286.5
RECEIVE_FREQ_1 =   2022-12-04T03:48:22.003   2216499284.8
RECEIVE_FREQ_1 =   2022-12-04T03:48:31.939   2216499283.4
RECEIVE_FREQ_1 =   2022-12-04T03:48:41.962   2216499282.0
RECEIVE_FREQ_1 =   2022-12-04T03:48:51.898   2216499280.2
RECEIVE_FREQ_1 =   2022-12-04T03:49:01.920   2216499278.3
RECEIVE_FREQ_1 =   2022-12-04T03:49:11.942   2216499276.5
RECEIVE_FREQ_1 =   2022-12-04T03:49:21.878   2216499275.1
RECEIVE_FREQ_1 =   2022-12-04T03:49:31.901   2216499273.6
RECEIVE_FREQ_1 =   2022-12-04T03:49:41.923   2216499272.0
RECEIVE_FREQ_1 =   2022-12-04T03:49:51.946   2216499270.1
RECEIVE_FREQ_1 =   2022-12-04T03:50:01.882   2216499269.0
RECEIVE_FREQ_1 =   2022-12-04T03:50:11.904   2216499266.7
RECEIVE_FREQ_1 =   2022-12-04T03:50:21.926   2216499265.5
RECEIVE_FREQ_1 =   2022-12-04T03:50:31.949   2216499264.1
RECEIVE_FREQ_1 =   2022-12-04T03:50:41.885   2216499262.7
RECEIVE_FREQ_1 =   2022-12-04T03:50:51.907   2216499261.0
RECEIVE_FREQ_1 =   2022-12-04T03:51:01.930   2216499258.8
RECEIVE_FREQ_1 =   2022-12-04T03:51:11.952   2216499257.3
RECEIVE_FREQ_1 =   2022-12-04T03:51:21.888   2216499255.9
RECEIVE_FREQ_1 =   2022-12-04T03:51:31.910   2216499254.0
RECEIVE_FREQ_1 =   2022-12-04T03:51:41.933   2216499252.5
RECEIVE_FREQ_1 =   2022-12-04T03:51:51.955   2216499250.5
RECEIVE_FREQ_1 =   2022-12-04T03:52:11.914   2216499247.6
RECEIVE_FREQ_1 =   2022-12-04T03:52:21.936   2216499246.0
RECEIVE_FREQ_1 =   2022-12-04T03:52:31.958   2216499244.2
RECEIVE_FREQ_1 =   2022-12-04T03:52:41.981   2216499242.5
RECEIVE_FREQ_1 =   2022-12-04T03:52:52.003   2216499241.4
RECEIVE_FREQ_1 =   2022-12-04T03:53:01.939   2216499239.5
RECEIVE_FREQ_1 =   2022-12-04T03:53:11.962   2216499238.1
RECEIVE_FREQ_1 =   2022-12-04T03:53:21.984   2216499236.2
RECEIVE_FREQ_1 =   2022-12-04T03:53:31.920   2216499234.6
RECEIVE_FREQ_1 =   2022-12-04T03:53:41.942   2216499233.5
RECEIVE_FREQ_1 =   2022-12-04T03:53:51.965   2216499231.3
RECEIVE_FREQ_1 =   2022-12-04T03:54:01.987   2216499230.1
RECEIVE_FREQ_1 =   2022-12-04T03:54:11.923   2216499228.3
RECEIVE_FREQ_1 =   2022-12-04T03:54:21.946   2216499226.3
RECEIVE_FREQ_1 =   2022-12-04T03:54:31.968   2216499224.6
RECEIVE_FREQ_1 =   2022-12-04T03:54:41.990   2216499223.2
RECEIVE_FREQ_1 =   2022-12-04T03:54:51.926   2216499221.9
RECEIVE_FREQ_1 =   2022-12-04T03:55:01.949   2216499220.0
RECEIVE_FREQ_1 =   2022-12-04T03:55:11.971   2216499218.3
RECEIVE_FREQ_1 =   2022-12-04T03:55:21.994   2216499217.0
RECEIVE_FREQ_1 =   2022-12-04T03:55:31.930   2216499215.5
RECEIVE_FREQ_1 =   2022-12-04T03:55:41.952   2216499213.5
RECEIVE_FREQ_1 =   2022-12-04T03:55:51.974   2216499211.7
RECEIVE_FREQ_1 =   2022-12-04T03:56:01.910   2216499210.4
RECEIVE_FREQ_1 =   2022-12-04T03:56:11.933   2216499208.3
RECEIVE_FREQ_1 =   2022-12-04T03:56:21.955   2216499206.9
RECEIVE_FREQ_1 =   2022-12-04T03:56:31.978   2216499205.2
RECEIVE_FREQ_1 =   2022-12-04T03:56:41.914   2216499203.6
RECEIVE_FREQ_1 =   2022-12-04T03:56:51.936   2216499202.4
RECEIVE_FREQ_1 =   2022-12-04T03:57:01.958   2216499200.7
RECEIVE_FREQ_1 =   2022-12-04T03:57:11.981   2216499198.8
RECEIVE_FREQ_1 =   2022-12-04T03:57:22.003   2216499197.4
RECEIVE_FREQ_1 =   2022-12-04T03:57:32.026   2216499195.2
RECEIVE_FREQ_1 =   2022-12-04T03:57:41.962   2216499193.9
RECEIVE_FREQ_1 =   2022-12-04T03:57:51.898   2216499192.4
RECEIVE_FREQ_1 =   2022-12-04T03:58:02.006   2216499190.6
RECEIVE_FREQ_1 =   2022-12-04T03:58:11.942   2216499188.9
RECEIVE_FREQ_1 =   2022-12-04T03:58:21.965   2216499187.4
RECEIVE_FREQ_1 =   2022-12-04T03:58:31.987   2216499185.9
RECEIVE_FREQ_1 =   2022-12-04T03:58:42.010   2216499184.3
RECEIVE_FREQ_1 =   2022-12-04T03:58:51.946   2216499182.9
RECEIVE_FREQ_1 =   2022-12-04T03:59:01.968   2216499181.1
RECEIVE_FREQ_1 =   2022-12-04T03:59:11.990   2216499179.4
RECEIVE_FREQ_1 =   2022-12-04T03:59:21.926   2216499178.1
RECEIVE_FREQ_1 =   2022-12-04T03:59:31.949   2216499176.1
RECEIVE_FREQ_1 =   2022-12-04T03:59:41.971   2216499174.9
RECEIVE_FREQ_1 =   2022-12-04T03:59:51.994   2216499172.7
RECEIVE_FREQ_1 =   2022-12-04T04:00:02.016   2216499171.5
RECEIVE_FREQ_1 =   2022-12-04T04:00:11.952   2216499170.1
RECEIVE_FREQ_1 =   2022-12-04T04:00:21.974   2216499167.7
RECEIVE_FREQ_1 =   2022-12-04T04:00:31.910   2216499166.7
RECEIVE_FREQ_1 =   2022-12-04T04:00:41.933   2216499164.9
RECEIVE_FREQ_1 =   2022-12-04T04:00:51.955   2216499163.4
RECEIVE_FREQ_1 =   2022-12-04T04:01:01.891   2216499161.4
RECEIVE_FREQ_1 =   2022-12-04T04:01:11.914   2216499160.0
RECEIVE_FREQ_1 =   2022-12-04T04:01:21.936   2216499158.4
RECEIVE_FREQ_1 =   2022-12-04T04:01:31.958   2216499155.9
RECEIVE_FREQ_1 =   2022-12-04T04:01:41.981   2216499154.8
RECEIVE_FREQ_1 =   2022-12-04T04:01:51.917   2216499152.8
RECEIVE_FREQ_1 =   2022-12-04T04:02:02.026   2216499151.2
RECEIVE_FREQ_1 =   2022-12-04T04:02:11.962   2216499149.6
RECEIVE_FREQ_1 =   2022-12-04T04:02:21.984   2216499148.1
RECEIVE_FREQ_1 =   2022-12-04T04:02:32.006   2216499146.2
RECEIVE_FREQ_1 =   2022-12-04T04:02:41.942   2216499144.4
RECEIVE_FREQ_1 =   2022-12-04T04:02:51.965   2216499143.1
RECEIVE_FREQ_1 =   2022-12-04T04:03:01.987   2216499141.5
RECEIVE_FREQ_1 =   2022-12-04T04:03:12.010   2216499139.4
RECEIVE_FREQ_1 =   2022-12-04T04:03:22.032   2216499138.1
RECEIVE_FREQ_1 =   2022-12-04T04:03:31.968   2216499136.2
RECEIVE_FREQ_1 =   2022-12-04T04:03:41.904   2216499134.8
RECEIVE_FREQ_1 =   2022-12-04T04:03:51.926   2216499133.0
RECEIVE_FREQ_1 =   2022-12-04T04:04:01.949   2216499131.5
RECEIVE_FREQ_1 =   2022-12-04T04:04:11.971   2216499129.8
RECEIVE_FREQ_1 =   2022-12-04T04:04:21.907   2216499127.9
RECEIVE_FREQ_1 =   2022-12-04T04:04:31.930   2216499126.6
RECEIVE_FREQ_1 =   2022-12-04T04:04:41.952   2216499125.2
RECEIVE_FREQ_1 =   2022-12-04T04:04:51.974   2216499123.3
RECEIVE_FREQ_1 =   2022-12-04T04:05:01.997   2216499121.5
RECEIVE_FREQ_1 =   2022-12-04T04:05:11.933   2216499119.9
RECEIVE_FREQ_1 =   2022-12-04T04:05:21.955   2216499118.2
RECEIVE_FREQ_1 =   2022-12-04T04:05:31.978   2216499117.1
RECEIVE_FREQ_1 =   2022-12-04T04:05:41.914   2216499115.0
RECEIVE_FREQ_1 =   2022-12-04T04:05:51.936   2216499113.8
RECEIVE_FREQ_1 =   2022-12-04T04:06:01.958   2216499111.8
RECEIVE_FREQ_1 =   2022-12-04T04:06:11.981   2216499110.6
RECEIVE_FREQ_1 =   2022-12-04T04:06:22.003   2216499108.5
RECEIVE_FREQ_1 =   2022-12-04T04:06:31.939   2216499107.1
RECEIVE_FREQ_1 =   2022-12-04T04:06:41.962   2216499104.9
RECEIVE_FREQ_1 =   2022-12-04T04:06:51.984   2216499103.4
RECEIVE_FREQ_1 =   2022-12-04T04:07:02.006   2216499101.9
RECEIVE_FREQ_1 =   2022-12-04T04:07:11.942   2216499100.3
RECEIVE_FREQ_1 =   2022-12-04T04:07:21.965   2216499098.8
RECEIVE_FREQ_1 =   2022-12-04T04:07:31.901   2216499096.9
RECEIVE_FREQ_1 =   2022-12-04T04:07:41.923   2216499095.3
RECEIVE_FREQ_1 =   2022-12-04T04:07:51.946   2216499093.4
RECEIVE_FREQ_1 =   2022-12-04T04:08:01.968   2216499091.6
RECEIVE_FREQ_1 =   2022-12-04T04:08:11.990   2216499090.2
RECEIVE_FREQ_1 =   2022-12-04T04:08:21.926   2216499088.4
RECEIVE_FREQ_1 =   2022-12-04T04:08:31.949   2216499087.0
RECEIVE_FREQ_1 =   2022-12-04T04:08:41.971   2216499084.6
RECEIVE_FREQ_1 =   2022-12-04T04:08:51.907   2216499083.5
RECEIVE_FREQ_1 =   2022-12-04T04:09:01.930   2216499081.5
RECEIVE_FREQ_1 =   2022-12-04T04:09:11.952   2216499079.8
RECEIVE_FREQ_1 =   2022-12-04T04:09:21.974   2216499078.4
RECEIVE_FREQ_1 =   2022-12-04T04:09:31.997   2216499076.6
RECEIVE_FREQ_1 =   2022-12-04T04:09:41.933   2216499075.3
RECEIVE_FREQ_1 =   2022-12-04T04:09:51.955   2216499073.7
RECEIVE_FREQ_1 =   2022-12-04T04:10:01.978   2216499071.9
RECEIVE_FREQ_1 =   2022-12-04T04:10:12.000   2216499070.3
RECEIVE_FREQ_1 =   2022-12-04T04:10:22.022   2216499068.7
RECEIVE_FREQ_1 =   2022-12-04T04:10:31.958   2216499067.1
RECEIVE_FREQ_1 =   2022-12-04T04:10:41.981   2216499065.1
RECEIVE_FREQ_1 =   2022-12-04T04:11:01.939   2216499062.2
RECEIVE_FREQ_1 =   2022-12-04T04:11:11.962   2216499060.5
RECEIVE_FREQ_1 =   2022-12-04T04:11:21.984   2216499058.7
RECEIVE_FREQ_1 =   2022-12-04T04:11:32.006   2216499056.8
RECEIVE_FREQ_1 =   2022-12-04T04:11:41.942   2216499055.1
RECEIVE_FREQ_1 =   2022-12-04T04:11:51.965   2216499054.2
RECEIVE_FREQ_1 =   2022-12-04T04:12:01.901   2216499052.1
RECEIVE_FREQ_1 =   2022-12-04T04:12:11.923   2216499050.4
RECEIVE_FREQ_1 =   2022-12-04T04:12:21.946   2216499048.8
RECEIVE_FREQ_1 =   2022-12-04T04:12:31.968   2216499047.0
RECEIVE_FREQ_1 =   2022-12-04T04:12:41.990   2216499045.4
RECEIVE_FREQ_1 =   2022-12-04T04:12:51.926   2216499043.5
RECEIVE_FREQ_1 =   2022-12-04T04:13:01.949   2216499042.5
RECEIVE_FREQ_1 =   2022-12-04T04:13:11.971   2216499040.9
RECEIVE_FREQ_1 =   2022-12-04T04:13:21.994   2216499038.9
RECEIVE_FREQ_1 =   2022-12-04T04:13:31.930   2216499037.6
