data/tdm/2022-11-18Z_2022-156A.tdm

CCSDS_TDM_VERS = 2.0
COMMENT TDM ARTEMIS 1 Doppler data by Scott Tilley for 2022-11-18 UTC
COMMENT Signal not demodulated, to low of SNR, centre carrier integrated in 10s by 0.1Hz bin and extracted for peak value.
CREATION_DATE = 2022-11-18Z
ORIGINATOR = SCOTT TILLEY

META_START
COMMENT 
COMMENT 
SYSTEM TIME = UTC
PARTICIPANT_1 = COSPAR 8049
PARTICIPANT_2 = 2022-156A
MODE = SEQUENTIAL
PATH = 2,1
INTEGRATION_INTERVAL = 10
INTEGRATION_REF = MIDDLE
FREQ_OFFSET = 0
TRANSMIT_DELAY_1 = 0
RECEIVE_DELAY_1 = 0
DATA_QUALITY = RAW
META_STOP

DATA_START
RECEIVE_FREQ_1 =   2022-11-18T13:28:01.891   2216495820.8
RECEIVE_FREQ_1 =   2022-11-18T13:28:11.914   2216495820.6
RECEIVE_FREQ_1 =   2022-11-18T13:28:21.850   2216495820.3
RECEIVE_FREQ_1 =   2022-11-18T13:28:31.872   2216495820.1
RECEIVE_FREQ_1 =   2022-11-18T13:28:41.894   2216495819.6
RECEIVE_FREQ_1 =   2022-11-18T13:28:51.830   2216495819.4
RECEIVE_FREQ_1 =   2022-11-18T13:29:01.853   2216495819.1
RECEIVE_FREQ_1 =   2022-11-18T13:29:11.875   2216495818.8
RECEIVE_FREQ_1 =   2022-11-18T13:29:21.898   2216495818.3
RECEIVE_FREQ_1 =   2022-11-18T13:29:31.920   2216495818.3
RECEIVE_FREQ_1 =   2022-11-18T13:29:41.856   2216495817.9
RECEIVE_FREQ_1 =   2022-11-18T13:29:51.878   2216495817.7
RECEIVE_FREQ_1 =   2022-11-18T13:30:01.901   2216495817.4
RECEIVE_FREQ_1 =   2022-11-18T13:30:11.837   2216495817.1
RECEIVE_FREQ_1 =   2022-11-18T13:30:21.859   2216495816.7
RECEIVE_FREQ_1 =   2022-11-18T13:30:31.882   2216495816.4
RECEIVE_FREQ_1 =   2022-11-18T13:30:41.904   2216495816.2
RECEIVE_FREQ_1 =   2022-11-18T13:30:51.840   2216495815.7
RECEIVE_FREQ_1 =   2022-11-18T13:31:01.862   2216495815.3
RECEIVE_FREQ_1 =   2022-11-18T13:31:11.885   2216495815.1
RECEIVE_FREQ_1 =   2022-11-18T13:31:21.821   2216495814.8
RECEIVE_FREQ_1 =   2022-11-18T13:31:31.843   2216495814.5
RECEIVE_FREQ_1 =   2022-11-18T13:31:41.866   2216495814.2
RECEIVE_FREQ_1 =   2022-11-18T13:31:51.888   2216495813.7
RECEIVE_FREQ_1 =   2022-11-18T13:32:01.910   2216495813.4
RECEIVE_FREQ_1 =   2022-11-18T13:32:21.869   2216495812.7
RECEIVE_FREQ_1 =   2022-11-18T13:32:31.891   2216495812.5
RECEIVE_FREQ_1 =   2022-11-18T13:32:41.914   2216495811.9
RECEIVE_FREQ_1 =   2022-11-18T13:33:11.894   2216495811.0
RECEIVE_FREQ_1 =   2022-11-18T13:34:01.834   2216495809.1
RECEIVE_FREQ_1 =   2022-11-18T13:34:11.856   2216495808.8
RECEIVE_FREQ_1 =   2022-11-18T13:34:21.878   2216495808.7
RECEIVE_FREQ_1 =   2022-11-18T13:34:31.901   2216495808.2
RECEIVE_FREQ_1 =   2022-11-18T13:34:41.837   2216495807.8
RECEIVE_FREQ_1 =   2022-11-18T13:34:51.859   2216495807.4
RECEIVE_FREQ_1 =   2022-11-18T13:35:01.882   2216495807.1
RECEIVE_FREQ_1 =   2022-11-18T13:35:11.904   2216495806.7
RECEIVE_FREQ_1 =   2022-11-18T13:35:21.840   2216495806.3
RECEIVE_FREQ_1 =   2022-11-18T13:35:31.862   2216495805.7
RECEIVE_FREQ_1 =   2022-11-18T13:35:41.885   2216495805.5
RECEIVE_FREQ_1 =   2022-11-18T13:35:51.907   2216495805.0
RECEIVE_FREQ_1 =   2022-11-18T13:36:01.843   2216495804.8
RECEIVE_FREQ_1 =   2022-11-18T13:36:11.866   2216495804.4
RECEIVE_FREQ_1 =   2022-11-18T13:36:21.888   2216495803.9
RECEIVE_FREQ_1 =   2022-11-18T13:36:31.824   2216495803.4
RECEIVE_FREQ_1 =   2022-11-18T13:36:41.846   2216495803.1
RECEIVE_FREQ_1 =   2022-11-18T13:37:01.891   2216495802.3
RECEIVE_FREQ_1 =   2022-11-18T13:37:11.827   2216495801.8
RECEIVE_FREQ_1 =   2022-11-18T13:37:31.872   2216495801.2
RECEIVE_FREQ_1 =   2022-11-18T13:37:41.894   2216495800.8
RECEIVE_FREQ_1 =   2022-11-18T13:37:51.917   2216495800.1
RECEIVE_FREQ_1 =   2022-11-18T13:38:01.853   2216495799.7
RECEIVE_FREQ_1 =   2022-11-18T13:38:11.875   2216495799.3
RECEIVE_FREQ_1 =   2022-11-18T13:38:21.898   2216495798.9
RECEIVE_FREQ_1 =   2022-11-18T13:38:31.834   2216495798.6
RECEIVE_FREQ_1 =   2022-11-18T13:38:41.856   2216495798.0
RECEIVE_FREQ_1 =   2022-11-18T13:38:51.878   2216495797.7
RECEIVE_FREQ_1 =   2022-11-18T13:39:01.901   2216495797.2
RECEIVE_FREQ_1 =   2022-11-18T13:39:11.837   2216495796.7
RECEIVE_FREQ_1 =   2022-11-18T13:39:21.859   2216495796.4
RECEIVE_FREQ_1 =   2022-11-18T13:39:31.882   2216495796.0
RECEIVE_FREQ_1 =   2022-11-18T13:39:41.904   2216495795.6
RECEIVE_FREQ_1 =   2022-11-18T13:39:51.840   2216495795.0
RECEIVE_FREQ_1 =   2022-11-18T13:40:01.862   2216495794.7
RECEIVE_FREQ_1 =   2022-11-18T13:40:11.885   2216495794.4
RECEIVE_FREQ_1 =   2022-11-18T13:40:21.821   2216495793.8
RECEIVE_FREQ_1 =   2022-11-18T13:40:31.843   2216495793.3
RECEIVE_FREQ_1 =   2022-11-18T13:40:41.866   2216495792.7
RECEIVE_FREQ_1 =   2022-11-18T13:40:51.888   2216495792.3
RECEIVE_FREQ_1 =   2022-11-18T13:41:01.824   2216495791.8
RECEIVE_FREQ_1 =   2022-11-18T13:41:11.846   2216495791.5
RECEIVE_FREQ_1 =   2022-11-18T13:41:21.869   2216495791.1
RECEIVE_FREQ_1 =   2022-11-18T13:41:31.891   2216495790.4
RECEIVE_FREQ_1 =   2022-11-18T13:41:41.827   2216495790.0
RECEIVE_FREQ_1 =   2022-11-18T13:41:51.850   2216495789.4
RECEIVE_FREQ_1 =   2022-11-18T13:42:01.872   2216495789.0
RECEIVE_FREQ_1 =   2022-11-18T13:42:11.894   2216495788.6
RECEIVE_FREQ_1 =   2022-11-18T13:42:21.830   2216495788.2
RECEIVE_FREQ_1 =   2022-11-18T13:42:31.853   2216495787.5
RECEIVE_FREQ_1 =   2022-11-18T13:42:41.875   2216495787.3
RECEIVE_FREQ_1 =   2022-11-18T13:42:51.898   2216495786.7
RECEIVE_FREQ_1 =   2022-11-18T13:43:01.834   2216495786.1
RECEIVE_FREQ_1 =   2022-11-18T13:43:11.856   2216495785.7
RECEIVE_FREQ_1 =   2022-11-18T13:43:21.878   2216495785.4
RECEIVE_FREQ_1 =   2022-11-18T13:43:31.901   2216495784.5
RECEIVE_FREQ_1 =   2022-11-18T13:43:41.837   2216495784.2
RECEIVE_FREQ_1 =   2022-11-18T13:43:51.859   2216495783.6
RECEIVE_FREQ_1 =   2022-11-18T13:44:01.882   2216495783.3
RECEIVE_FREQ_1 =   2022-11-18T13:44:11.818   2216495782.7
RECEIVE_FREQ_1 =   2022-11-18T13:44:21.840   2216495782.2
RECEIVE_FREQ_1 =   2022-11-18T13:44:31.862   2216495781.7
RECEIVE_FREQ_1 =   2022-11-18T13:44:41.885   2216495781.1
RECEIVE_FREQ_1 =   2022-11-18T13:44:51.821   2216495780.6
RECEIVE_FREQ_1 =   2022-11-18T13:45:01.843   2216495780.1
RECEIVE_FREQ_1 =   2022-11-18T13:45:11.866   2216495779.5
RECEIVE_FREQ_1 =   2022-11-18T13:45:21.888   2216495779.2
RECEIVE_FREQ_1 =   2022-11-18T13:45:31.824   2216495778.8
RECEIVE_FREQ_1 =   2022-11-18T13:45:41.846   2216495778.0
RECEIVE_FREQ_1 =   2022-11-18T13:45:51.869   2216495777.4
RECEIVE_FREQ_1 =   2022-11-18T13:46:01.891   2216495777.1
RECEIVE_FREQ_1 =   2022-11-18T13:46:11.827   2216495776.6
RECEIVE_FREQ_1 =   2022-11-18T13:46:21.850   2216495775.9
RECEIVE_FREQ_1 =   2022-11-18T13:46:31.872   2216495775.3
RECEIVE_FREQ_1 =   2022-11-18T13:46:41.894   2216495775.1
RECEIVE_FREQ_1 =   2022-11-18T13:46:51.830   2216495774.5
RECEIVE_FREQ_1 =   2022-11-18T13:47:01.853   2216495773.8
RECEIVE_FREQ_1 =   2022-11-18T13:47:11.875   2216495773.1
RECEIVE_FREQ_1 =   2022-11-18T13:47:21.898   2216495773.1
RECEIVE_FREQ_1 =   2022-11-18T13:47:31.834   2216495772.3
RECEIVE_FREQ_1 =   2022-11-18T13:47:41.856   2216495772.1
RECEIVE_FREQ_1 =   2022-11-18T13:47:51.878   2216495771.5
RECEIVE_FREQ_1 =   2022-11-18T13:48:01.901   2216495771.3
RECEIVE_FREQ_1 =   2022-11-18T13:48:11.837   2216495770.9
RECEIVE_FREQ_1 =   2022-11-18T13:48:21.859   2216495770.3
RECEIVE_FREQ_1 =   2022-11-18T13:48:31.882   2216495770.2
RECEIVE_FREQ_1 =   2022-11-18T13:48:41.904   2216495769.7
RECEIVE_FREQ_1 =   2022-11-18T13:48:51.840   2216495769.3
RECEIVE_FREQ_1 =   2022-11-18T13:49:01.862   2216495768.7
RECEIVE_FREQ_1 =   2022-11-18T13:49:11.885   2216495768.5
RECEIVE_FREQ_1 =   2022-11-18T13:49:21.907   2216495767.8
RECEIVE_FREQ_1 =   2022-11-18T13:49:31.843   2216495767.4
RECEIVE_FREQ_1 =   2022-11-18T13:49:41.866   2216495767.2
RECEIVE_FREQ_1 =   2022-11-18T13:49:51.888   2216495766.6
RECEIVE_FREQ_1 =   2022-11-18T13:50:01.910   2216495766.1
RECEIVE_FREQ_1 =   2022-11-18T13:50:11.846   2216495765.9
RECEIVE_FREQ_1 =   2022-11-18T13:50:21.869   2216495765.3
RECEIVE_FREQ_1 =   2022-11-18T13:50:41.827   2216495764.4
RECEIVE_FREQ_1 =   2022-11-18T13:50:51.850   2216495763.8
RECEIVE_FREQ_1 =   2022-11-18T13:51:01.872   2216495763.6
RECEIVE_FREQ_1 =   2022-11-18T13:51:21.830   2216495762.5
RECEIVE_FREQ_1 =   2022-11-18T13:51:31.853   2216495762.2
RECEIVE_FREQ_1 =   2022-11-18T13:51:41.875   2216495761.7
RECEIVE_FREQ_1 =   2022-11-18T13:51:51.898   2216495761.1
RECEIVE_FREQ_1 =   2022-11-18T13:52:01.834   2216495760.6
RECEIVE_FREQ_1 =   2022-11-18T13:52:21.878   2216495759.8
RECEIVE_FREQ_1 =   2022-11-18T13:52:31.901   2216495759.3
RECEIVE_FREQ_1 =   2022-11-18T13:52:41.837   2216495758.8
RECEIVE_FREQ_1 =   2022-11-18T13:52:51.859   2216495758.5
RECEIVE_FREQ_1 =   2022-11-18T13:53:01.882   2216495757.9
RECEIVE_FREQ_1 =   2022-11-18T13:53:11.904   2216495757.3
RECEIVE_FREQ_1 =   2022-11-18T13:53:21.840   2216495756.8
RECEIVE_FREQ_1 =   2022-11-18T13:53:31.862   2216495756.4
RECEIVE_FREQ_1 =   2022-11-18T13:53:41.885   2216495755.9
RECEIVE_FREQ_1 =   2022-11-18T13:53:51.907   2216495755.4
RECEIVE_FREQ_1 =   2022-11-18T13:54:01.843   2216495754.9
RECEIVE_FREQ_1 =   2022-11-18T13:54:11.866   2216495754.5
RECEIVE_FREQ_1 =   2022-11-18T13:54:21.888   2216495754.1
RECEIVE_FREQ_1 =   2022-11-18T13:54:31.824   2216495753.5
RECEIVE_FREQ_1 =   2022-11-18T13:54:41.846   2216495753.0
RECEIVE_FREQ_1 =   2022-11-18T13:54:51.869   2216495752.5
RECEIVE_FREQ_1 =   2022-11-18T13:55:11.914   2216495751.4
RECEIVE_FREQ_1 =   2022-11-18T13:55:21.850   2216495750.8
RECEIVE_FREQ_1 =   2022-11-18T13:55:31.872   2216495750.4
RECEIVE_FREQ_1 =   2022-11-18T13:55:41.894   2216495749.9
RECEIVE_FREQ_1 =   2022-11-18T13:55:51.917   2216495749.3
RECEIVE_FREQ_1 =   2022-11-18T13:56:21.898   2216495747.9
RECEIVE_FREQ_1 =   2022-11-18T13:56:31.834   2216495747.3
RECEIVE_FREQ_1 =   2022-11-18T13:56:41.856   2216495746.9
RECEIVE_FREQ_1 =   2022-11-18T13:56:51.878   2216495746.3
RECEIVE_FREQ_1 =   2022-11-18T13:57:01.901   2216495745.7
RECEIVE_FREQ_1 =   2022-11-18T13:57:31.882   2216495744.2
RECEIVE_FREQ_1 =   2022-11-18T13:58:21.907   2216495741.4
RECEIVE_FREQ_1 =   2022-11-18T13:58:31.843   2216495740.9
RECEIVE_FREQ_1 =   2022-11-18T13:59:01.910   2216495739.2
RECEIVE_FREQ_1 =   2022-11-18T13:59:11.846   2216495738.6
RECEIVE_FREQ_1 =   2022-11-18T13:59:21.869   2216495738.2
RECEIVE_FREQ_1 =   2022-11-18T13:59:31.891   2216495737.4
RECEIVE_FREQ_1 =   2022-11-18T13:59:41.914   2216495737.0
RECEIVE_FREQ_1 =   2022-11-18T13:59:51.850   2216495736.5
RECEIVE_FREQ_1 =   2022-11-18T14:00:01.872   2216495735.6
RECEIVE_FREQ_1 =   2022-11-18T14:00:11.894   2216495735.1
RECEIVE_FREQ_1 =   2022-11-18T14:00:21.830   2216495734.6
RECEIVE_FREQ_1 =   2022-11-18T14:00:31.853   2216495734.1
RECEIVE_FREQ_1 =   2022-11-18T14:00:51.898   2216495732.9
RECEIVE_FREQ_1 =   2022-11-18T14:01:01.834   2216495732.2
RECEIVE_FREQ_1 =   2022-11-18T14:01:11.856   2216495731.7
RECEIVE_FREQ_1 =   2022-11-18T14:01:41.837   2216495730.0
RECEIVE_FREQ_1 =   2022-11-18T14:01:51.859   2216495729.4
RECEIVE_FREQ_1 =   2022-11-18T14:02:01.882   2216495728.6
RECEIVE_FREQ_1 =   2022-11-18T14:02:11.904   2216495728.3
RECEIVE_FREQ_1 =   2022-11-18T14:02:21.840   2216495727.6
RECEIVE_FREQ_1 =   2022-11-18T14:02:31.862   2216495726.8
RECEIVE_FREQ_1 =   2022-11-18T14:02:41.885   2216495726.5
RECEIVE_FREQ_1 =   2022-11-18T14:02:51.907   2216495725.7
RECEIVE_FREQ_1 =   2022-11-18T14:03:01.843   2216495724.9
RECEIVE_FREQ_1 =   2022-11-18T14:03:11.866   2216495724.6
RECEIVE_FREQ_1 =   2022-11-18T14:03:31.910   2216495723.3
RECEIVE_FREQ_1 =   2022-11-18T14:03:51.869   2216495721.9
RECEIVE_FREQ_1 =   2022-11-18T14:04:11.914   2216495720.7
RECEIVE_FREQ_1 =   2022-11-18T14:04:21.850   2216495720.0
RECEIVE_FREQ_1 =   2022-11-18T14:04:31.872   2216495719.6
RECEIVE_FREQ_1 =   2022-11-18T14:04:41.894   2216495718.8
RECEIVE_FREQ_1 =   2022-11-18T14:04:51.830   2216495718.4
RECEIVE_FREQ_1 =   2022-11-18T14:05:01.853   2216495717.4
RECEIVE_FREQ_1 =   2022-11-18T14:05:11.875   2216495717.0
RECEIVE_FREQ_1 =   2022-11-18T14:05:21.898   2216495716.4
RECEIVE_FREQ_1 =   2022-11-18T14:05:31.834   2216495715.8
RECEIVE_FREQ_1 =   2022-11-18T14:05:41.856   2216495715.0
RECEIVE_FREQ_1 =   2022-11-18T14:05:51.878   2216495714.2
RECEIVE_FREQ_1 =   2022-11-18T14:06:01.901   2216495713.6
RECEIVE_FREQ_1 =   2022-11-18T14:06:11.837   2216495713.1
RECEIVE_FREQ_1 =   2022-11-18T14:06:21.859   2216495712.3
RECEIVE_FREQ_1 =   2022-11-18T14:06:31.882   2216495711.6
RECEIVE_FREQ_1 =   2022-11-18T14:06:41.904   2216495711.1
RECEIVE_FREQ_1 =   2022-11-18T14:06:51.840   2216495710.3
RECEIVE_FREQ_1 =   2022-11-18T14:07:01.862   2216495709.7
RECEIVE_FREQ_1 =   2022-11-18T14:07:11.885   2216495709.1
RECEIVE_FREQ_1 =   2022-11-18T14:07:21.907   2216495708.6
RECEIVE_FREQ_1 =   2022-11-18T14:07:31.843   2216495707.9
RECEIVE_FREQ_1 =   2022-11-18T14:07:41.866   2216495707.5
RECEIVE_FREQ_1 =   2022-11-18T14:07:51.888   2216495707.0
RECEIVE_FREQ_1 =   2022-11-18T14:08:01.910   2216495706.5
RECEIVE_FREQ_1 =   2022-11-18T14:08:11.846   2216495705.9
RECEIVE_FREQ_1 =   2022-11-18T14:08:21.869   2216495705.3
RECEIVE_FREQ_1 =   2022-11-18T14:08:31.891   2216495704.8
RECEIVE_FREQ_1 =   2022-11-18T14:08:41.914   2216495704.2
RECEIVE_FREQ_1 =   2022-11-18T14:08:51.850   2216495703.8
RECEIVE_FREQ_1 =   2022-11-18T14:09:01.872   2216495703.1
RECEIVE_FREQ_1 =   2022-11-18T14:09:11.894   2216495702.8
RECEIVE_FREQ_1 =   2022-11-18T14:09:21.917   2216495702.0
RECEIVE_FREQ_1 =   2022-11-18T14:09:31.853   2216495701.4
RECEIVE_FREQ_1 =   2022-11-18T14:09:41.875   2216495701.1
RECEIVE_FREQ_1 =   2022-11-18T14:09:51.898   2216495700.6
RECEIVE_FREQ_1 =   2022-11-18T14:10:01.834   2216495699.9
RECEIVE_FREQ_1 =   2022-11-18T14:10:11.856   2216495699.3
RECEIVE_FREQ_1 =   2022-11-18T14:10:21.878   2216495698.7
RECEIVE_FREQ_1 =   2022-11-18T14:10:31.901   2216495698.1
RECEIVE_FREQ_1 =   2022-11-18T14:10:41.837   2216495697.5
RECEIVE_FREQ_1 =   2022-11-18T14:10:51.859   2216495697.0
RECEIVE_FREQ_1 =   2022-11-18T14:11:01.882   2216495696.2
RECEIVE_FREQ_1 =   2022-11-18T14:11:11.904   2216495696.0
RECEIVE_FREQ_1 =   2022-11-18T14:11:21.840   2216495695.4
RECEIVE_FREQ_1 =   2022-11-18T14:11:31.862   2216495694.8
RECEIVE_FREQ_1 =   2022-11-18T14:11:41.885   2216495694.2
RECEIVE_FREQ_1 =   2022-11-18T14:11:51.907   2216495693.6
RECEIVE_FREQ_1 =   2022-11-18T14:12:01.843   2216495692.9
RECEIVE_FREQ_1 =   2022-11-18T14:12:11.866   2216495692.4
RECEIVE_FREQ_1 =   2022-11-18T14:12:21.888   2216495691.8
RECEIVE_FREQ_1 =   2022-11-18T14:12:31.824   2216495691.3
RECEIVE_FREQ_1 =   2022-11-18T14:12:41.846   2216495690.5
RECEIVE_FREQ_1 =   2022-11-18T14:12:51.869   2216495690.0
RECEIVE_FREQ_1 =   2022-11-18T14:13:11.827   2216495688.7
RECEIVE_FREQ_1 =   2022-11-18T14:13:21.850   2216495688.2
RECEIVE_FREQ_1 =   2022-11-18T14:13:31.872   2216495687.7
RECEIVE_FREQ_1 =   2022-11-18T14:13:41.894   2216495686.7
RECEIVE_FREQ_1 =   2022-11-18T14:13:51.917   2216495686.5
RECEIVE_FREQ_1 =   2022-11-18T14:14:01.853   2216495685.7
RECEIVE_FREQ_1 =   2022-11-18T14:14:11.875   2216495685.2
RECEIVE_FREQ_1 =   2022-11-18T14:14:21.898   2216495684.6
RECEIVE_FREQ_1 =   2022-11-18T14:14:31.834   2216495683.9
RECEIVE_FREQ_1 =   2022-11-18T14:14:41.856   2216495683.2
RECEIVE_FREQ_1 =   2022-11-18T14:14:51.878   2216495682.7
RECEIVE_FREQ_1 =   2022-11-18T14:15:01.814   2216495682.0
RECEIVE_FREQ_1 =   2022-11-18T14:15:11.837   2216495681.0
RECEIVE_FREQ_1 =   2022-11-18T14:15:21.859   2216495680.9
RECEIVE_FREQ_1 =   2022-11-18T14:15:31.882   2216495680.4
RECEIVE_FREQ_1 =   2022-11-18T14:15:41.904   2216495679.6
RECEIVE_FREQ_1 =   2022-11-18T14:15:51.840   2216495678.8
RECEIVE_FREQ_1 =   2022-11-18T14:16:01.862   2216495678.3
RECEIVE_FREQ_1 =   2022-11-18T14:16:11.885   2216495677.7
RECEIVE_FREQ_1 =   2022-11-18T14:16:21.821   2216495676.9
RECEIVE_FREQ_1 =   2022-11-18T14:16:31.843   2216495676.3
RECEIVE_FREQ_1 =   2022-11-18T14:16:41.866   2216495675.6
RECEIVE_FREQ_1 =   2022-11-18T14:16:51.888   2216495674.9
RECEIVE_FREQ_1 =   2022-11-18T14:17:01.910   2216495674.4
RECEIVE_FREQ_1 =   2022-11-18T14:17:11.846   2216495673.9
RECEIVE_FREQ_1 =   2022-11-18T14:17:21.869   2216495673.1
RECEIVE_FREQ_1 =   2022-11-18T14:17:31.891   2216495672.6
RECEIVE_FREQ_1 =   2022-11-18T14:17:41.827   2216495671.6
RECEIVE_FREQ_1 =   2022-11-18T14:17:51.850   2216495671.0
RECEIVE_FREQ_1 =   2022-11-18T14:18:01.872   2216495670.4
RECEIVE_FREQ_1 =   2022-11-18T14:18:11.894   2216495669.9
RECEIVE_FREQ_1 =   2022-11-18T14:18:21.830   2216495669.0
RECEIVE_FREQ_1 =   2022-11-18T14:18:31.853   2216495668.4
RECEIVE_FREQ_1 =   2022-11-18T14:18:41.875   2216495667.5
RECEIVE_FREQ_1 =   2022-11-18T14:18:51.898   2216495667.2
RECEIVE_FREQ_1 =   2022-11-18T14:19:01.920   2216495666.5
RECEIVE_FREQ_1 =   2022-11-18T14:19:11.856   2216495665.8
RECEIVE_FREQ_1 =   2022-11-18T14:19:21.878   2216495665.0
RECEIVE_FREQ_1 =   2022-11-18T14:19:31.901   2216495664.4
RECEIVE_FREQ_1 =   2022-11-18T14:19:41.837   2216495663.9
RECEIVE_FREQ_1 =   2022-11-18T14:19:51.859   2216495663.1
RECEIVE_FREQ_1 =   2022-11-18T14:20:01.882   2216495662.2
RECEIVE_FREQ_1 =   2022-11-18T14:20:11.904   2216495661.8
RECEIVE_FREQ_1 =   2022-11-18T14:20:21.840   2216495660.9
RECEIVE_FREQ_1 =   2022-11-18T14:20:31.862   2216495660.4
RECEIVE_FREQ_1 =   2022-11-18T14:20:41.885   2216495659.7
RECEIVE_FREQ_1 =   2022-11-18T14:20:51.907   2216495658.9
RECEIVE_FREQ_1 =   2022-11-18T14:21:01.843   2216495658.2
RECEIVE_FREQ_1 =   2022-11-18T14:21:11.866   2216495657.4
RECEIVE_FREQ_1 =   2022-11-18T14:21:21.888   2216495656.7
RECEIVE_FREQ_1 =   2022-11-18T14:21:31.910   2216495656.0
RECEIVE_FREQ_1 =   2022-11-18T14:21:41.846   2216495655.5
RECEIVE_FREQ_1 =   2022-11-18T14:21:51.869   2216495654.4
RECEIVE_FREQ_1 =   2022-11-18T14:22:01.891   2216495654.0
RECEIVE_FREQ_1 =   2022-11-18T14:22:11.827   2216495653.4
RECEIVE_FREQ_1 =   2022-11-18T14:22:21.850   2216495652.7
RECEIVE_FREQ_1 =   2022-11-18T14:22:31.872   2216495651.8
RECEIVE_FREQ_1 =   2022-11-18T14:22:41.894   2216495651.373
RECEIVE_FREQ_1 =   2022-11-18T14:22:51.830   2216495650.3
RECEIVE_FREQ_1 =   2022-11-18T14:23:01.853   2216495649.9
RECEIVE_FREQ_1 =   2022-11-18T14:23:11.875   2216495648.9
RECEIVE_FREQ_1 =   2022-11-18T14:23:21.898   2216495648.1
RECEIVE_FREQ_1 =   2022-11-18T14:23:31.834   2216495647.4
RECEIVE_FREQ_1 =   2022-11-18T14:23:41.856   2216495646.8
RECEIVE_FREQ_1 =   2022-11-18T14:23:51.878   2216495646.0
RECEIVE_FREQ_1 =   2022-11-18T14:24:01.901   2216495645.0
RECEIVE_FREQ_1 =   2022-11-18T14:24:11.837   2216495644.5
RECEIVE_FREQ_1 =   2022-11-18T14:24:21.859   2216495643.773
RECEIVE_FREQ_1 =   2022-11-18T14:24:31.882   2216495642.9
RECEIVE_FREQ_1 =   2022-11-18T14:24:41.904   2216495642.2
RECEIVE_FREQ_1 =   2022-11-18T14:24:51.840   2216495641.6
RECEIVE_FREQ_1 =   2022-11-18T14:25:01.862   2216495641.0
RECEIVE_FREQ_1 =   2022-11-18T14:25:11.885   2216495640.1
RECEIVE_FREQ_1 =   2022-11-18T14:25:21.821   2216495639.6
RECEIVE_FREQ_1 =   2022-11-18T14:25:31.843   2216495638.3
RECEIVE_FREQ_1 =   2022-11-18T14:25:41.866   2216495637.7
RECEIVE_FREQ_1 =   2022-11-18T14:25:51.888   2216495637.1
RECEIVE_FREQ_1 =   2022-11-18T14:26:01.910   2216495636.5
RECEIVE_FREQ_1 =   2022-11-18T14:26:11.846   2216495635.6
RECEIVE_FREQ_1 =   2022-11-18T14:26:21.869   2216495634.7
RECEIVE_FREQ_1 =   2022-11-18T14:26:31.891   2216495633.9
RECEIVE_FREQ_1 =   2022-11-18T14:26:41.914   2216495633.4
RECEIVE_FREQ_1 =   2022-11-18T14:26:51.850   2216495632.6
RECEIVE_FREQ_1 =   2022-11-18T14:27:01.872   2216495631.6
RECEIVE_FREQ_1 =   2022-11-18T14:27:11.894   2216495630.9
RECEIVE_FREQ_1 =   2022-11-18T14:27:21.830   2216495630.173
RECEIVE_FREQ_1 =   2022-11-18T14:27:31.853   2216495629.4
RECEIVE_FREQ_1 =   2022-11-18T14:27:41.875   2216495628.8
RECEIVE_FREQ_1 =   2022-11-18T14:27:51.898   2216495627.9
RECEIVE_FREQ_1 =   2022-11-18T14:28:01.834   2216495627.2
RECEIVE_FREQ_1 =   2022-11-18T14:28:11.856   2216495626.6
RECEIVE_FREQ_1 =   2022-11-18T14:28:21.878   2216495625.8
RECEIVE_FREQ_1 =   2022-11-18T14:28:31.901   2216495625.2
RECEIVE_FREQ_1 =   2022-11-18T14:28:41.837   2216495624.5
RECEIVE_FREQ_1 =   2022-11-18T14:28:51.859   2216495623.9
RECEIVE_FREQ_1 =   2022-11-18T14:29:01.882   2216495623.1
RECEIVE_FREQ_1 =   2022-11-18T14:29:11.904   2216495622.6
RECEIVE_FREQ_1 =   2022-11-18T14:29:21.840   2216495621.8
RECEIVE_FREQ_1 =   2022-11-18T14:29:31.862   2216495621.2
RECEIVE_FREQ_1 =   2022-11-18T14:29:41.885   2216495620.7
RECEIVE_FREQ_1 =   2022-11-18T14:29:51.907   2216495619.8
RECEIVE_FREQ_1 =   2022-11-18T14:30:01.843   2216495619.3
RECEIVE_FREQ_1 =   2022-11-18T14:30:11.866   2216495618.5
RECEIVE_FREQ_1 =   2022-11-18T14:30:21.888   2216495617.8
RECEIVE_FREQ_1 =   2022-11-18T14:30:31.910   2216495617.4
RECEIVE_FREQ_1 =   2022-11-18T14:30:41.846   2216495616.5
RECEIVE_FREQ_1 =   2022-11-18T14:30:51.869   2216495615.973
RECEIVE_FREQ_1 =   2022-11-18T14:31:01.891   2216495615.1
RECEIVE_FREQ_1 =   2022-11-18T14:31:11.827   2216495614.6
RECEIVE_FREQ_1 =   2022-11-18T14:31:21.850   2216495613.6
RECEIVE_FREQ_1 =   2022-11-18T14:31:31.872   2216495613.2
RECEIVE_FREQ_1 =   2022-11-18T14:31:41.894   2216495612.2
RECEIVE_FREQ_1 =   2022-11-18T14:31:51.830   2216495611.7
RECEIVE_FREQ_1 =   2022-11-18T14:32:01.853   2216495611.1
RECEIVE_FREQ_1 =   2022-11-18T14:32:11.875   2216495610.373
RECEIVE_FREQ_1 =   2022-11-18T14:32:21.898   2216495609.6
RECEIVE_FREQ_1 =   2022-11-18T14:32:31.834   2216495609.073
RECEIVE_FREQ_1 =   2022-11-18T14:32:41.856   2216495608.0
RECEIVE_FREQ_1 =   2022-11-18T14:32:51.878   2216495607.4
RECEIVE_FREQ_1 =   2022-11-18T14:33:01.901   2216495606.7
RECEIVE_FREQ_1 =   2022-11-18T14:33:11.837   2216495606.2
RECEIVE_FREQ_1 =   2022-11-18T14:33:21.859   2216495605.3
RECEIVE_FREQ_1 =   2022-11-18T14:33:31.882   2216495604.673
RECEIVE_FREQ_1 =   2022-11-18T14:33:41.904   2216495603.8
RECEIVE_FREQ_1 =   2022-11-18T14:33:51.840   2216495603.4
RECEIVE_FREQ_1 =   2022-11-18T14:34:01.862   2216495602.5
RECEIVE_FREQ_1 =   2022-11-18T14:34:11.885   2216495601.8
RECEIVE_FREQ_1 =   2022-11-18T14:34:21.821   2216495601.0
RECEIVE_FREQ_1 =   2022-11-18T14:34:31.843   2216495600.273
RECEIVE_FREQ_1 =   2022-11-18T14:34:41.866   2216495599.4
RECEIVE_FREQ_1 =   2022-11-18T14:34:51.888   2216495598.8
RECEIVE_FREQ_1 =   2022-11-18T14:35:01.910   2216495598.1
RECEIVE_FREQ_1 =   2022-11-18T14:35:11.846   2216495597.4
RECEIVE_FREQ_1 =   2022-11-18T14:35:21.869   2216495596.5
RECEIVE_FREQ_1 =   2022-11-18T14:35:31.891   2216495596.1
RECEIVE_FREQ_1 =   2022-11-18T14:35:41.914   2216495595.0
RECEIVE_FREQ_1 =   2022-11-18T14:35:51.850   2216495594.573
RECEIVE_FREQ_1 =   2022-11-18T14:36:01.872   2216495593.5
RECEIVE_FREQ_1 =   2022-11-18T14:36:11.894   2216495592.9
RECEIVE_FREQ_1 =   2022-11-18T14:36:21.830   2216495592.2
RECEIVE_FREQ_1 =   2022-11-18T14:36:31.853   2216495591.5
RECEIVE_FREQ_1 =   2022-11-18T14:36:41.875   2216495590.5
RECEIVE_FREQ_1 =   2022-11-18T14:36:51.898   2216495589.9
RECEIVE_FREQ_1 =   2022-11-18T14:37:01.834   2216495589.073
RECEIVE_FREQ_1 =   2022-11-18T14:37:11.856   2216495588.3
RECEIVE_FREQ_1 =   2022-11-18T14:37:21.878   2216495587.6
RECEIVE_FREQ_1 =   2022-11-18T14:37:31.901   2216495586.9
RECEIVE_FREQ_1 =   2022-11-18T14:37:41.837   2216495586.2
RECEIVE_FREQ_1 =   2022-11-18T14:37:51.859   2216495585.2
RECEIVE_FREQ_1 =   2022-11-18T14:38:01.882   2216495584.4
RECEIVE_FREQ_1 =   2022-11-18T14:38:11.904   2216495583.9
RECEIVE_FREQ_1 =   2022-11-18T14:38:21.840   2216495583.1
RECEIVE_FREQ_1 =   2022-11-18T14:38:31.862   2216495582.3
RECEIVE_FREQ_1 =   2022-11-18T14:38:41.885   2216495581.573
RECEIVE_FREQ_1 =   2022-11-18T14:38:51.907   2216495580.6
RECEIVE_FREQ_1 =   2022-11-18T14:39:01.843   2216495580.0
RECEIVE_FREQ_1 =   2022-11-18T14:39:11.866   2216495579.1
RECEIVE_FREQ_1 =   2022-11-18T14:39:21.888   2216495578.273
RECEIVE_FREQ_1 =   2022-11-18T14:39:31.910   2216495577.8
RECEIVE_FREQ_1 =   2022-11-18T14:39:41.846   2216495576.7
RECEIVE_FREQ_1 =   2022-11-18T14:39:51.869   2216495576.1
RECEIVE_FREQ_1 =   2022-11-18T14:40:01.891   2216495575.2
RECEIVE_FREQ_1 =   2022-11-18T14:40:11.827   2216495574.373
RECEIVE_FREQ_1 =   2022-11-18T14:40:21.850   2216495573.7
RECEIVE_FREQ_1 =   2022-11-18T14:40:31.872   2216495572.9
RECEIVE_FREQ_1 =   2022-11-18T14:40:41.894   2216495572.2
RECEIVE_FREQ_1 =   2022-11-18T14:40:51.830   2216495571.473
RECEIVE_FREQ_1 =   2022-11-18T14:41:01.853   2216495570.673
RECEIVE_FREQ_1 =   2022-11-18T14:41:11.875   2216495569.7
RECEIVE_FREQ_1 =   2022-11-18T14:41:21.898   2216495569.073
RECEIVE_FREQ_1 =   2022-11-18T14:41:31.834   2216495568.273
RECEIVE_FREQ_1 =   2022-11-18T14:41:41.856   2216495567.573
RECEIVE_FREQ_1 =   2022-11-18T14:41:51.878   2216495566.373
RECEIVE_FREQ_1 =   2022-11-18T14:42:01.901   2216495565.7
RECEIVE_FREQ_1 =   2022-11-18T14:42:11.837   2216495564.9
RECEIVE_FREQ_1 =   2022-11-18T14:42:21.859   2216495564.0
RECEIVE_FREQ_1 =   2022-11-18T14:42:31.882   2216495563.173
RECEIVE_FREQ_1 =   2022-11-18T14:42:41.904   2216495562.2
RECEIVE_FREQ_1 =   2022-11-18T14:42:51.926   2216495561.5
RECEIVE_FREQ_1 =   2022-11-18T14:43:01.862   2216495561.0
RECEIVE_FREQ_1 =   2022-11-18T14:43:11.885   2216495560.073
RECEIVE_FREQ_1 =   2022-11-18T14:43:21.821   2216495559.1
RECEIVE_FREQ_1 =   2022-11-18T14:43:31.843   2216495558.4
RECEIVE_FREQ_1 =   2022-11-18T14:43:41.866   2216495557.6
RECEIVE_FREQ_1 =   2022-11-18T14:43:51.888   2216495556.4
RECEIVE_FREQ_1 =   2022-11-18T14:44:01.824   2216495555.8
RECEIVE_FREQ_1 =   2022-11-18T14:44:11.846   2216495555.073
RECEIVE_FREQ_1 =   2022-11-18T14:44:21.869   2216495554.0
RECEIVE_FREQ_1 =   2022-11-18T14:44:31.891   2216495553.3
RECEIVE_FREQ_1 =   2022-11-18T14:44:41.914   2216495552.5
RECEIVE_FREQ_1 =   2022-11-18T14:44:51.850   2216495551.7
RECEIVE_FREQ_1 =   2022-11-18T14:45:01.872   2216495550.773
RECEIVE_FREQ_1 =   2022-11-18T14:45:11.894   2216495550.0
RECEIVE_FREQ_1 =   2022-11-18T14:45:21.830   2216495549.273
RECEIVE_FREQ_1 =   2022-11-18T14:45:31.853   2216495548.4
RECEIVE_FREQ_1 =   2022-11-18T14:45:41.875   2216495547.4
RECEIVE_FREQ_1 =   2022-11-18T14:45:51.898   2216495546.673
RECEIVE_FREQ_1 =   2022-11-18T14:46:01.834   2216495545.6
RECEIVE_FREQ_1 =   2022-11-18T14:46:11.856   2216495544.9
RECEIVE_FREQ_1 =   2022-11-18T14:46:21.878   2216495543.673
RECEIVE_FREQ_1 =   2022-11-18T14:46:31.901   2216495543.2
RECEIVE_FREQ_1 =   2022-11-18T14:46:41.837   2216495542.1
RECEIVE_FREQ_1 =   2022-11-18T14:46:51.859   2216495541.373
RECEIVE_FREQ_1 =   2022-11-18T14:47:01.882   2216495540.5
RECEIVE_FREQ_1 =   2022-11-18T14:47:11.904   2216495539.6
RECEIVE_FREQ_1 =   2022-11-18T14:47:21.840   2216495539.073
RECEIVE_FREQ_1 =   2022-11-18T14:47:31.862   2216495537.9
RECEIVE_FREQ_1 =   2022-11-18T14:47:41.885   2216495537.2
RECEIVE_FREQ_1 =   2022-11-18T14:47:51.821   2216495536.0
RECEIVE_FREQ_1 =   2022-11-18T14:48:01.843   2216495535.2
RECEIVE_FREQ_1 =   2022-11-18T14:48:11.866   2216495534.4
RECEIVE_FREQ_1 =   2022-11-18T14:48:21.888   2216495533.373
RECEIVE_FREQ_1 =   2022-11-18T14:48:31.910   2216495532.6
RECEIVE_FREQ_1 =   2022-11-18T14:48:41.846   2216495531.8
RECEIVE_FREQ_1 =   2022-11-18T14:48:51.869   2216495531.0
RECEIVE_FREQ_1 =   2022-11-18T14:49:01.891   2216495529.9
RECEIVE_FREQ_1 =   2022-11-18T14:49:11.827   2216495528.9
RECEIVE_FREQ_1 =   2022-11-18T14:49:21.850   2216495528.2
RECEIVE_FREQ_1 =   2022-11-18T14:49:31.872   2216495527.4
RECEIVE_FREQ_1 =   2022-11-18T14:49:41.894   2216495526.573
RECEIVE_FREQ_1 =   2022-11-18T14:49:51.830   2216495525.973
RECEIVE_FREQ_1 =   2022-11-18T14:50:01.853   2216495525.0
RECEIVE_FREQ_1 =   2022-11-18T14:50:11.875   2216495524.1
RECEIVE_FREQ_1 =   2022-11-18T14:50:21.898   2216495523.473
RECEIVE_FREQ_1 =   2022-11-18T14:50:31.834   2216495522.573
RECEIVE_FREQ_1 =   2022-11-18T14:50:41.856   2216495522.1
RECEIVE_FREQ_1 =   2022-11-18T14:50:51.878   2216495521.3
RECEIVE_FREQ_1 =   2022-11-18T14:51:01.901   2216495520.273
RECEIVE_FREQ_1 =   2022-11-18T14:51:11.837   2216495519.4
RECEIVE_FREQ_1 =   2022-11-18T14:51:21.859   2216495518.5
RECEIVE_FREQ_1 =   2022-11-18T14:51:31.882   2216495517.8
RECEIVE_FREQ_1 =   2022-11-18T14:51:41.904   2216495517.3
RECEIVE_FREQ_1 =   2022-11-18T14:51:51.840   2216495516.373
RECEIVE_FREQ_1 =   2022-11-18T14:52:01.862   2216495515.673
RECEIVE_FREQ_1 =   2022-11-18T14:52:11.885   2216495514.973
RECEIVE_FREQ_1 =   2022-11-18T14:52:21.907   2216495513.773
RECEIVE_FREQ_1 =   2022-11-18T14:52:31.843   2216495513.073
RECEIVE_FREQ_1 =   2022-11-18T14:52:41.866   2216495512.1
RECEIVE_FREQ_1 =   2022-11-18T14:52:51.888   2216495511.773
RECEIVE_FREQ_1 =   2022-11-18T14:53:01.910   2216495510.773
RECEIVE_FREQ_1 =   2022-11-18T14:53:11.846   2216495510.1
RECEIVE_FREQ_1 =   2022-11-18T14:53:21.869   2216495509.073
RECEIVE_FREQ_1 =   2022-11-18T14:53:31.891   2216495508.4
RECEIVE_FREQ_1 =   2022-11-18T14:53:41.914   2216495507.5
RECEIVE_FREQ_1 =   2022-11-18T14:53:51.850   2216495506.873
RECEIVE_FREQ_1 =   2022-11-18T14:54:01.872   2216495505.973
RECEIVE_FREQ_1 =   2022-11-18T14:54:11.894   2216495505.073
RECEIVE_FREQ_1 =   2022-11-18T14:54:21.830   2216495504.373
RECEIVE_FREQ_1 =   2022-11-18T14:54:31.853   2216495503.473
RECEIVE_FREQ_1 =   2022-11-18T14:54:41.875   2216495502.7
RECEIVE_FREQ_1 =   2022-11-18T14:54:51.898   2216495501.9
RECEIVE_FREQ_1 =   2022-11-18T14:55:01.834   2216495501.073
RECEIVE_FREQ_1 =   2022-11-18T14:55:11.856   2216495500.373
RECEIVE_FREQ_1 =   2022-11-18T14:55:21.878   2216495499.373
RECEIVE_FREQ_1 =   2022-11-18T14:55:31.901   2216495498.673
RECEIVE_FREQ_1 =   2022-11-18T14:55:41.923   2216495497.4
RECEIVE_FREQ_1 =   2022-11-18T14:55:51.859   2216495496.673
RECEIVE_FREQ_1 =   2022-11-18T14:56:01.882   2216495496.0
RECEIVE_FREQ_1 =   2022-11-18T14:56:11.904   2216495495.373
RECEIVE_FREQ_1 =   2022-11-18T14:56:21.840   2216495494.473
RECEIVE_FREQ_1 =   2022-11-18T14:56:31.862   2216495493.4
RECEIVE_FREQ_1 =   2022-11-18T14:56:41.885   2216495492.673
RECEIVE_FREQ_1 =   2022-11-18T14:56:51.821   2216495491.6
RECEIVE_FREQ_1 =   2022-11-18T14:57:01.843   2216495491.2
RECEIVE_FREQ_1 =   2022-11-18T14:57:11.866   2216495490.0
RECEIVE_FREQ_1 =   2022-11-18T14:57:21.888   2216495489.473
RECEIVE_FREQ_1 =   2022-11-18T14:57:31.910   2216495488.4
RECEIVE_FREQ_1 =   2022-11-18T14:57:41.846   2216495487.773
RECEIVE_FREQ_1 =   2022-11-18T14:57:51.869   2216495486.773
RECEIVE_FREQ_1 =   2022-11-18T14:58:01.891   2216495486.073
RECEIVE_FREQ_1 =   2022-11-18T14:58:11.827   2216495484.973
RECEIVE_FREQ_1 =   2022-11-18T14:58:21.850   2216495483.873
RECEIVE_FREQ_1 =   2022-11-18T14:58:31.872   2216495483.173
RECEIVE_FREQ_1 =   2022-11-18T14:58:41.894   2216495482.573
RECEIVE_FREQ_1 =   2022-11-18T14:58:51.830   2216495481.3
RECEIVE_FREQ_1 =   2022-11-18T14:59:01.853   2216495480.5
RECEIVE_FREQ_1 =   2022-11-18T14:59:11.875   2216495479.6
RECEIVE_FREQ_1 =   2022-11-18T14:59:21.898   2216495479.0
RECEIVE_FREQ_1 =   2022-11-18T14:59:31.834   2216495478.173
RECEIVE_FREQ_1 =   2022-11-18T14:59:41.856   2216495477.3
RECEIVE_FREQ_1 =   2022-11-18T14:59:51.878   2216495476.3
RECEIVE_FREQ_1 =   2022-11-18T15:00:01.901   2216495475.6
RECEIVE_FREQ_1 =   2022-11-18T15:00:11.837   2216495474.473
RECEIVE_FREQ_1 =   2022-11-18T15:00:21.859   2216495473.573
RECEIVE_FREQ_1 =   2022-11-18T15:00:31.882   2216495472.773
RECEIVE_FREQ_1 =   2022-11-18T15:00:41.904   2216495472.0
RECEIVE_FREQ_1 =   2022-11-18T15:00:51.926   2216495470.873
RECEIVE_FREQ_1 =   2022-11-18T15:01:01.862   2216495470.273
RECEIVE_FREQ_1 =   2022-11-18T15:01:11.885   2216495469.073
RECEIVE_FREQ_1 =   2022-11-18T15:01:21.907   2216495468.073
RECEIVE_FREQ_1 =   2022-11-18T15:01:31.843   2216495467.4
RECEIVE_FREQ_1 =   2022-11-18T15:01:41.866   2216495466.7
RECEIVE_FREQ_1 =   2022-11-18T15:01:51.888   2216495465.673
RECEIVE_FREQ_1 =   2022-11-18T15:02:01.910   2216495464.873
RECEIVE_FREQ_1 =   2022-11-18T15:02:11.846   2216495464.173
RECEIVE_FREQ_1 =   2022-11-18T15:02:21.869   2216495462.973
RECEIVE_FREQ_1 =   2022-11-18T15:02:31.891   2216495462.2
RECEIVE_FREQ_1 =   2022-11-18T15:02:41.827   2216495461.273
RECEIVE_FREQ_1 =   2022-11-18T15:02:51.850   2216495460.2
RECEIVE_FREQ_1 =   2022-11-18T15:03:01.872   2216495459.273
RECEIVE_FREQ_1 =   2022-11-18T15:03:11.894   2216495458.3
RECEIVE_FREQ_1 =   2022-11-18T15:03:21.830   2216495457.673
RECEIVE_FREQ_1 =   2022-11-18T15:03:31.853   2216495456.573
RECEIVE_FREQ_1 =   2022-11-18T15:03:41.875   2216495455.673
RECEIVE_FREQ_1 =   2022-11-18T15:03:51.898   2216495454.873
RECEIVE_FREQ_1 =   2022-11-18T15:04:01.834   2216495453.573
RECEIVE_FREQ_1 =   2022-11-18T15:04:11.856   2216495452.773
RECEIVE_FREQ_1 =   2022-11-18T15:04:21.878   2216495452.073
RECEIVE_FREQ_1 =   2022-11-18T15:04:31.901   2216495451.0
RECEIVE_FREQ_1 =   2022-11-18T15:04:41.837   2216495450.073
RECEIVE_FREQ_1 =   2022-11-18T15:04:51.859   2216495449.273
RECEIVE_FREQ_1 =   2022-11-18T15:05:01.882   2216495448.373
RECEIVE_FREQ_1 =   2022-11-18T15:05:11.904   2216495447.373
RECEIVE_FREQ_1 =   2022-11-18T15:05:21.840   2216495446.473
RECEIVE_FREQ_1 =   2022-11-18T15:05:31.862   2216495445.573
RECEIVE_FREQ_1 =   2022-11-18T15:05:41.885   2216495444.673
RECEIVE_FREQ_1 =   2022-11-18T15:05:51.821   2216495443.473
RECEIVE_FREQ_1 =   2022-11-18T15:06:01.843   2216495442.873
RECEIVE_FREQ_1 =   2022-11-18T15:06:11.866   2216495441.973
RECEIVE_FREQ_1 =   2022-11-18T15:06:21.888   2216495440.873
RECEIVE_FREQ_1 =   2022-11-18T15:06:31.910   2216495439.873
RECEIVE_FREQ_1 =   2022-11-18T15:06:41.846   2216495438.773
RECEIVE_FREQ_1 =   2022-11-18T15:06:51.869   2216495437.873
RECEIVE_FREQ_1 =   2022-11-18T15:07:01.891   2216495437.173
RECEIVE_FREQ_1 =   2022-11-18T15:07:11.827   2216495436.273
RECEIVE_FREQ_1 =   2022-11-18T15:07:21.850   2216495435.173
RECEIVE_FREQ_1 =   2022-11-18T15:07:31.872   2216495434.273
RECEIVE_FREQ_1 =   2022-11-18T15:07:41.894   2216495433.2
RECEIVE_FREQ_1 =   2022-11-18T15:07:51.917   2216495432.273
RECEIVE_FREQ_1 =   2022-11-18T15:08:01.853   2216495431.273
RECEIVE_FREQ_1 =   2022-11-18T15:08:11.875   2216495430.073
RECEIVE_FREQ_1 =   2022-11-18T15:08:21.898   2216495429.3
RECEIVE_FREQ_1 =   2022-11-18T15:08:31.834   2216495428.573
RECEIVE_FREQ_1 =   2022-11-18T15:08:41.856   2216495427.673
RECEIVE_FREQ_1 =   2022-11-18T15:08:51.878   2216495426.673
RECEIVE_FREQ_1 =   2022-11-18T15:09:01.901   2216495425.373
RECEIVE_FREQ_1 =   2022-11-18T15:09:11.837   2216495424.5
RECEIVE_FREQ_1 =   2022-11-18T15:09:21.859   2216495423.673
RECEIVE_FREQ_1 =   2022-11-18T15:09:31.882   2216495422.673
RECEIVE_FREQ_1 =   2022-11-18T15:09:41.904   2216495421.973
RECEIVE_FREQ_1 =   2022-11-18T15:09:51.840   2216495420.4
RECEIVE_FREQ_1 =   2022-11-18T15:10:01.862   2216495419.8
RECEIVE_FREQ_1 =   2022-11-18T15:10:11.885   2216495418.773
RECEIVE_FREQ_1 =   2022-11-18T15:10:21.907   2216495417.873
RECEIVE_FREQ_1 =   2022-11-18T15:10:31.843   2216495416.7
RECEIVE_FREQ_1 =   2022-11-18T15:10:41.866   2216495415.973
RECEIVE_FREQ_1 =   2022-11-18T15:10:51.888   2216495414.973
RECEIVE_FREQ_1 =   2022-11-18T15:11:01.910   2216495413.7
RECEIVE_FREQ_1 =   2022-11-18T15:11:11.846   2216495412.773
RECEIVE_FREQ_1 =   2022-11-18T15:11:21.869   2216495411.773
RECEIVE_FREQ_1 =   2022-11-18T15:11:31.891   2216495410.7
RECEIVE_FREQ_1 =   2022-11-18T15:11:41.827   2216495409.7
RECEIVE_FREQ_1 =   2022-11-18T15:11:51.850   2216495408.473
RECEIVE_FREQ_1 =   2022-11-18T15:12:01.872   2216495407.473
RECEIVE_FREQ_1 =   2022-11-18T15:12:21.830   2216495405.573
RECEIVE_FREQ_1 =   2022-11-18T15:12:51.898   2216495402.973
RECEIVE_FREQ_1 =   2022-11-18T15:13:21.878   2216495400.273
RECEIVE_FREQ_1 =   2022-11-18T15:13:31.901   2216495399.373
RECEIVE_FREQ_1 =   2022-11-18T15:13:41.923   2216495398.6
RECEIVE_FREQ_1 =   2022-11-18T15:13:51.859   2216495397.473
RECEIVE_FREQ_1 =   2022-11-18T15:14:01.882   2216495396.373
RECEIVE_FREQ_1 =   2022-11-18T15:14:11.904   2216495395.873
RECEIVE_FREQ_1 =   2022-11-18T15:14:21.840   2216495394.873
RECEIVE_FREQ_1 =   2022-11-18T15:14:41.885   2216495393.1
RECEIVE_FREQ_1 =   2022-11-18T15:14:51.907   2216495392.0
RECEIVE_FREQ_1 =   2022-11-18T15:15:11.866   2216495390.673
RECEIVE_FREQ_1 =   2022-11-18T15:15:21.888   2216495389.3
RECEIVE_FREQ_1 =   2022-11-18T15:15:31.824   2216495388.5
RECEIVE_FREQ_1 =   2022-11-18T15:16:21.850   2216495384.173
RECEIVE_FREQ_1 =   2022-11-18T15:16:41.894   2216495381.9
RECEIVE_FREQ_1 =   2022-11-18T15:17:01.853   2216495380.7
RECEIVE_FREQ_1 =   2022-11-18T15:18:11.837   2216495373.673
RECEIVE_FREQ_1 =   2022-11-18T15:18:31.882   2216495371.773
RECEIVE_FREQ_1 =   2022-11-18T15:18:41.904   2216495370.873
RECEIVE_FREQ_1 =   2022-11-18T15:18:51.840   2216495370.173
RECEIVE_FREQ_1 =   2022-11-18T15:20:01.910   2216495363.473
RECEIVE_FREQ_1 =   2022-11-18T15:20:21.869   2216495361.473
RECEIVE_FREQ_1 =   2022-11-18T15:20:31.891   2216495360.473
RECEIVE_FREQ_1 =   2022-11-18T15:21:21.830   2216495355.773
RECEIVE_FREQ_1 =   2022-11-18T15:23:21.840   2216495344.273
RECEIVE_FREQ_1 =   2022-11-18T15:23:31.862   2216495342.973
RECEIVE_FREQ_1 =   2022-11-18T15:23:41.885   2216495342.173
RECEIVE_FREQ_1 =   2022-11-18T15:23:51.907   2216495341.1
RECEIVE_FREQ_1 =   2022-11-18T15:24:01.843   2216495340.073
RECEIVE_FREQ_1 =   2022-11-18T15:24:11.866   2216495339.073
RECEIVE_FREQ_1 =   2022-11-18T15:24:21.888   2216495337.6
RECEIVE_FREQ_1 =   2022-11-18T15:25:01.891   2216495333.973
RECEIVE_FREQ_1 =   2022-11-18T15:25:51.830   2216495328.9
RECEIVE_FREQ_1 =   2022-11-18T15:26:31.834   2216495324.173
RECEIVE_FREQ_1 =   2022-11-18T15:26:51.878   2216495321.973
RECEIVE_FREQ_1 =   2022-11-18T15:27:51.840   2216495316.9
RECEIVE_FREQ_1 =   2022-11-18T15:28:01.862   2216495315.573
RECEIVE_FREQ_1 =   2022-11-18T15:28:21.907   2216495313.873
RECEIVE_FREQ_1 =   2022-11-18T15:28:31.843   2216495312.973
RECEIVE_FREQ_1 =   2022-11-18T15:28:41.866   2216495311.673
RECEIVE_FREQ_1 =   2022-11-18T15:28:51.888   2216495310.673
RECEIVE_FREQ_1 =   2022-11-18T15:29:31.891   2216495306.573
RECEIVE_FREQ_1 =   2022-11-18T15:29:41.914   2216495305.473
RECEIVE_FREQ_1 =   2022-11-18T15:29:51.850   2216495304.673
RECEIVE_FREQ_1 =   2022-11-18T15:30:01.872   2216495303.373
RECEIVE_FREQ_1 =   2022-11-18T15:30:11.894   2216495302.373
RECEIVE_FREQ_1 =   2022-11-18T15:30:21.830   2216495301.373
RECEIVE_FREQ_1 =   2022-11-18T15:30:31.853   2216495300.0
RECEIVE_FREQ_1 =   2022-11-18T15:30:41.875   2216495299.3
RECEIVE_FREQ_1 =   2022-11-18T15:30:51.898   2216495298.173
RECEIVE_FREQ_1 =   2022-11-18T15:31:01.920   2216495296.973
RECEIVE_FREQ_1 =   2022-11-18T15:31:11.856   2216495296.173
RECEIVE_FREQ_1 =   2022-11-18T15:31:21.878   2216495294.973
RECEIVE_FREQ_1 =   2022-11-18T15:31:31.901   2216495294.173
RECEIVE_FREQ_1 =   2022-11-18T15:31:41.837   2216495292.873
RECEIVE_FREQ_1 =   2022-11-18T15:31:51.859   2216495291.5
RECEIVE_FREQ_1 =   2022-11-18T15:32:01.882   2216495290.673
RECEIVE_FREQ_1 =   2022-11-18T15:32:11.904   2216495289.773
RECEIVE_FREQ_1 =   2022-11-18T15:32:21.840   2216495288.573
RECEIVE_FREQ_1 =   2022-11-18T15:32:31.862   2216495287.373
RECEIVE_FREQ_1 =   2022-11-18T15:32:41.885   2216495286.573
RECEIVE_FREQ_1 =   2022-11-18T15:32:51.907   2216495285.473
RECEIVE_FREQ_1 =   2022-11-18T15:33:01.843   2216495284.273
RECEIVE_FREQ_1 =   2022-11-18T15:33:11.866   2216495283.173
RECEIVE_FREQ_1 =   2022-11-18T15:33:21.888   2216495282.373
RECEIVE_FREQ_1 =   2022-11-18T15:33:31.910   2216495280.873
RECEIVE_FREQ_1 =   2022-11-18T15:33:41.846   2216495280.073
RECEIVE_FREQ_1 =   2022-11-18T15:33:51.869   2216495279.1
RECEIVE_FREQ_1 =   2022-11-18T15:34:01.891   2216495278.173
RECEIVE_FREQ_1 =   2022-11-18T15:34:11.827   2216495277.173
RECEIVE_FREQ_1 =   2022-11-18T15:34:21.850   2216495275.973
RECEIVE_FREQ_1 =   2022-11-18T15:34:31.872   2216495275.173
RECEIVE_FREQ_1 =   2022-11-18T15:34:41.894   2216495273.873
RECEIVE_FREQ_1 =   2022-11-18T15:34:51.830   2216495272.573
RECEIVE_FREQ_1 =   2022-11-18T15:35:01.853   2216495271.673
RECEIVE_FREQ_1 =   2022-11-18T15:35:11.875   2216495270.473
RECEIVE_FREQ_1 =   2022-11-18T15:35:21.898   2216495269.373
RECEIVE_FREQ_1 =   2022-11-18T15:35:31.920   2216495268.173
RECEIVE_FREQ_1 =   2022-11-18T15:35:41.856   2216495266.873
RECEIVE_FREQ_1 =   2022-11-18T15:35:51.878   2216495266.073
RECEIVE_FREQ_1 =   2022-11-18T15:36:01.901   2216495264.973
RECEIVE_FREQ_1 =   2022-11-18T15:36:11.837   2216495264.073
RECEIVE_FREQ_1 =   2022-11-18T15:36:21.859   2216495262.773
RECEIVE_FREQ_1 =   2022-11-18T15:36:31.882   2216495261.373
RECEIVE_FREQ_1 =   2022-11-18T15:36:41.904   2216495260.673
RECEIVE_FREQ_1 =   2022-11-18T15:36:51.840   2216495259.473
RECEIVE_FREQ_1 =   2022-11-18T15:37:01.862   2216495258.473
RECEIVE_FREQ_1 =   2022-11-18T15:37:11.885   2216495257.073
RECEIVE_FREQ_1 =   2022-11-18T15:37:21.907   2216495256.273
RECEIVE_FREQ_1 =   2022-11-18T15:37:31.843   2216495254.973
RECEIVE_FREQ_1 =   2022-11-18T15:37:41.866   2216495254.073
RECEIVE_FREQ_1 =   2022-11-18T15:37:51.888   2216495252.973
RECEIVE_FREQ_1 =   2022-11-18T15:38:01.910   2216495251.873
RECEIVE_FREQ_1 =   2022-11-18T15:38:21.869   2216495249.873
RECEIVE_FREQ_1 =   2022-11-18T15:38:31.891   2216495249.273
RECEIVE_FREQ_1 =   2022-11-18T15:38:41.827   2216495247.973
RECEIVE_FREQ_1 =   2022-11-18T15:38:51.850   2216495246.773
RECEIVE_FREQ_1 =   2022-11-18T15:39:01.872   2216495245.873
RECEIVE_FREQ_1 =   2022-11-18T15:39:11.894   2216495244.9
RECEIVE_FREQ_1 =   2022-11-18T15:39:21.830   2216495243.873
RECEIVE_FREQ_1 =   2022-11-18T15:39:41.875   2216495241.973
RECEIVE_FREQ_1 =   2022-11-18T15:39:51.898   2216495241.173
RECEIVE_FREQ_1 =   2022-11-18T15:40:01.834   2216495239.973
RECEIVE_FREQ_1 =   2022-11-18T15:40:11.856   2216495238.973
RECEIVE_FREQ_1 =   2022-11-18T15:40:21.878   2216495237.973
RECEIVE_FREQ_1 =   2022-11-18T15:40:31.901   2216495236.673
RECEIVE_FREQ_1 =   2022-11-18T15:40:41.837   2216495235.673
RECEIVE_FREQ_1 =   2022-11-18T15:40:51.859   2216495234.673
RECEIVE_FREQ_1 =   2022-11-18T15:41:01.882   2216495233.873
RECEIVE_FREQ_1 =   2022-11-18T15:41:11.904   2216495232.973
RECEIVE_FREQ_1 =   2022-11-18T15:41:21.840   2216495231.973
RECEIVE_FREQ_1 =   2022-11-18T15:41:31.862   2216495230.773
RECEIVE_FREQ_1 =   2022-11-18T15:41:41.885   2216495229.573
RECEIVE_FREQ_1 =   2022-11-18T15:41:51.821   2216495228.773
RECEIVE_FREQ_1 =   2022-11-18T15:42:01.843   2216495227.773
RECEIVE_FREQ_1 =   2022-11-18T15:42:11.866   2216495226.373
RECEIVE_FREQ_1 =   2022-11-18T15:42:21.888   2216495225.473
RECEIVE_FREQ_1 =   2022-11-18T15:42:31.910   2216495224.673
RECEIVE_FREQ_1 =   2022-11-18T15:42:41.846   2216495223.873
RECEIVE_FREQ_1 =   2022-11-18T15:42:51.869   2216495222.273
RECEIVE_FREQ_1 =   2022-11-18T15:43:01.891   2216495221.473
RECEIVE_FREQ_1 =   2022-11-18T15:43:11.827   2216495220.173
RECEIVE_FREQ_1 =   2022-11-18T15:43:21.850   2216495219.373
RECEIVE_FREQ_1 =   2022-11-18T15:43:31.872   2216495218.073
RECEIVE_FREQ_1 =   2022-11-18T15:43:41.894   2216495217.573
RECEIVE_FREQ_1 =   2022-11-18T15:43:51.830   2216495215.873
RECEIVE_FREQ_1 =   2022-11-18T15:44:01.853   2216495215.173
RECEIVE_FREQ_1 =   2022-11-18T15:44:11.875   2216495213.873
RECEIVE_FREQ_1 =   2022-11-18T15:44:21.898   2216495213.073
RECEIVE_FREQ_1 =   2022-11-18T15:44:31.920   2216495212.073
RECEIVE_FREQ_1 =   2022-11-18T15:44:41.856   2216495210.973
RECEIVE_FREQ_1 =   2022-11-18T15:44:51.878   2216495209.973
RECEIVE_FREQ_1 =   2022-11-18T15:45:01.901   2216495208.973
RECEIVE_FREQ_1 =   2022-11-18T15:45:21.859   2216495206.473
RECEIVE_FREQ_1 =   2022-11-18T15:45:31.882   2216495205.473
RECEIVE_FREQ_1 =   2022-11-18T15:45:41.904   2216495204.273
RECEIVE_FREQ_1 =   2022-11-18T15:45:51.840   2216495203.673
RECEIVE_FREQ_1 =   2022-11-18T15:46:01.862   2216495202.473
RECEIVE_FREQ_1 =   2022-11-18T15:46:11.885   2216495201.773
RECEIVE_FREQ_1 =   2022-11-18T15:46:21.907   2216495200.073
RECEIVE_FREQ_1 =   2022-11-18T15:46:31.930   2216495199.273
RECEIVE_FREQ_1 =   2022-11-18T15:46:41.866   2216495198.173
RECEIVE_FREQ_1 =   2022-11-18T15:46:51.888   2216495197.273
RECEIVE_FREQ_1 =   2022-11-18T15:47:01.910   2216495195.973
RECEIVE_FREQ_1 =   2022-11-18T15:47:11.933   2216495194.873
RECEIVE_FREQ_1 =   2022-11-18T15:47:21.869   2216495193.873
RECEIVE_FREQ_1 =   2022-11-18T15:47:31.891   2216495192.773
RECEIVE_FREQ_1 =   2022-11-18T15:47:41.914   2216495191.573
RECEIVE_FREQ_1 =   2022-11-18T15:48:01.872   2216495189.673
RECEIVE_FREQ_1 =   2022-11-18T15:48:11.894   2216495188.273
RECEIVE_FREQ_1 =   2022-11-18T15:48:21.917   2216495187.173
RECEIVE_FREQ_1 =   2022-11-18T15:48:31.853   2216495186.273
RECEIVE_FREQ_1 =   2022-11-18T15:48:41.875   2216495185.073
RECEIVE_FREQ_1 =   2022-11-18T15:48:51.898   2216495184.073
RECEIVE_FREQ_1 =   2022-11-18T15:49:01.920   2216495183.173
RECEIVE_FREQ_1 =   2022-11-18T15:49:11.856   2216495182.173
RECEIVE_FREQ_1 =   2022-11-18T15:49:21.878   2216495180.873
RECEIVE_FREQ_1 =   2022-11-18T15:49:31.901   2216495179.573
RECEIVE_FREQ_1 =   2022-11-18T15:49:41.837   2216495178.673
RECEIVE_FREQ_1 =   2022-11-18T15:49:51.859   2216495177.873
RECEIVE_FREQ_1 =   2022-11-18T15:50:01.882   2216495176.173
RECEIVE_FREQ_1 =   2022-11-18T15:50:11.904   2216495175.273
RECEIVE_FREQ_1 =   2022-11-18T15:50:21.840   2216495174.273
RECEIVE_FREQ_1 =   2022-11-18T15:50:31.862   2216495173.073
RECEIVE_FREQ_1 =   2022-11-18T15:50:41.885   2216495171.973
RECEIVE_FREQ_1 =   2022-11-18T15:50:51.907   2216495171.073
RECEIVE_FREQ_1 =   2022-11-18T15:51:01.843   2216495169.973
RECEIVE_FREQ_1 =   2022-11-18T15:51:11.866   2216495168.673
RECEIVE_FREQ_1 =   2022-11-18T15:51:21.888   2216495167.673
RECEIVE_FREQ_1 =   2022-11-18T15:51:31.910   2216495166.473
RECEIVE_FREQ_1 =   2022-11-18T15:51:41.846   2216495165.573
RECEIVE_FREQ_1 =   2022-11-18T15:51:51.869   2216495164.473
RECEIVE_FREQ_1 =   2022-11-18T15:52:01.891   2216495163.173
RECEIVE_FREQ_1 =   2022-11-18T15:52:11.914   2216495162.073
RECEIVE_FREQ_1 =   2022-11-18T15:52:21.850   2216495160.873
RECEIVE_FREQ_1 =   2022-11-18T15:52:31.872   2216495160.473
RECEIVE_FREQ_1 =   2022-11-18T15:52:41.894   2216495158.673
RECEIVE_FREQ_1 =   2022-11-18T15:52:51.830   2216495157.873
RECEIVE_FREQ_1 =   2022-11-18T15:53:01.853   2216495156.473
RECEIVE_FREQ_1 =   2022-11-18T15:53:11.875   2216495155.573
RECEIVE_FREQ_1 =   2022-11-18T15:53:21.898   2216495154.273
RECEIVE_FREQ_1 =   2022-11-18T15:53:31.920   2216495153.473
RECEIVE_FREQ_1 =   2022-11-18T15:53:41.856   2216495151.973
RECEIVE_FREQ_1 =   2022-11-18T15:53:51.878   2216495150.973
RECEIVE_FREQ_1 =   2022-11-18T15:54:01.901   2216495149.873
RECEIVE_FREQ_1 =   2022-11-18T15:54:11.837   2216495148.773
RECEIVE_FREQ_1 =   2022-11-18T15:54:21.859   2216495147.373
RECEIVE_FREQ_1 =   2022-11-18T15:54:31.882   2216495146.473
RECEIVE_FREQ_1 =   2022-11-18T15:54:41.904   2216495145.273
RECEIVE_FREQ_1 =   2022-11-18T15:54:51.840   2216495144.173
RECEIVE_FREQ_1 =   2022-11-18T15:55:01.862   2216495143.173
RECEIVE_FREQ_1 =   2022-11-18T15:55:11.885   2216495142.273
RECEIVE_FREQ_1 =   2022-11-18T15:55:21.907   2216495140.773
RECEIVE_FREQ_1 =   2022-11-18T15:55:31.930   2216495139.773
RECEIVE_FREQ_1 =   2022-11-18T15:55:51.888   2216495137.373
RECEIVE_FREQ_1 =   2022-11-18T15:56:01.910   2216495136.473
RECEIVE_FREQ_1 =   2022-11-18T15:56:11.846   2216495135.173
RECEIVE_FREQ_1 =   2022-11-18T15:56:21.869   2216495133.773
RECEIVE_FREQ_1 =   2022-11-18T15:56:31.891   2216495132.973
RECEIVE_FREQ_1 =   2022-11-18T15:56:41.914   2216495132.073
RECEIVE_FREQ_1 =   2022-11-18T15:56:51.850   2216495130.873
RECEIVE_FREQ_1 =   2022-11-18T15:57:01.872   2216495129.673
RECEIVE_FREQ_1 =   2022-11-18T15:57:11.894   2216495128.273
RECEIVE_FREQ_1 =   2022-11-18T15:57:21.917   2216495126.873
RECEIVE_FREQ_1 =   2022-11-18T15:57:31.853   2216495125.973
RECEIVE_FREQ_1 =   2022-11-18T15:57:41.875   2216495124.873
RECEIVE_FREQ_1 =   2022-11-18T15:57:51.898   2216495123.773
RECEIVE_FREQ_1 =   2022-11-18T15:58:01.834   2216495122.473
RECEIVE_FREQ_1 =   2022-11-18T15:58:11.856   2216495121.173
RECEIVE_FREQ_1 =   2022-11-18T15:58:21.878   2216495120.273
RECEIVE_FREQ_1 =   2022-11-18T15:58:31.901   2216495118.973
RECEIVE_FREQ_1 =   2022-11-18T15:58:41.837   2216495117.773
RECEIVE_FREQ_1 =   2022-11-18T15:58:51.859   2216495116.873
RECEIVE_FREQ_1 =   2022-11-18T15:59:01.882   2216495115.473
RECEIVE_FREQ_1 =   2022-11-18T15:59:11.904   2216495114.473
RECEIVE_FREQ_1 =   2022-11-18T15:59:21.926   2216495113.273
RECEIVE_FREQ_1 =   2022-11-18T15:59:31.862   2216495112.173
RECEIVE_FREQ_1 =   2022-11-18T15:59:41.885   2216495111.373
RECEIVE_FREQ_1 =   2022-11-18T15:59:51.907   2216495109.773
RECEIVE_FREQ_1 =   2022-11-18T16:00:01.843   2216495108.373
RECEIVE_FREQ_1 =   2022-11-18T16:00:21.888   2216495106.673
RECEIVE_FREQ_1 =   2022-11-18T16:00:31.910   2216495105.373
RECEIVE_FREQ_1 =   2022-11-18T16:00:41.846   2216495104.173
RECEIVE_FREQ_1 =   2022-11-18T16:00:51.869   2216495102.973
RECEIVE_FREQ_1 =   2022-11-18T16:01:01.891   2216495101.573
RECEIVE_FREQ_1 =   2022-11-18T16:01:11.914   2216495100.373
RECEIVE_FREQ_1 =   2022-11-18T16:01:21.850   2216495099.373
RECEIVE_FREQ_1 =   2022-11-18T16:01:31.872   2216495098.273
RECEIVE_FREQ_1 =   2022-11-18T16:01:41.894   2216495096.973
RECEIVE_FREQ_1 =   2022-11-18T16:01:51.917   2216495095.673
RECEIVE_FREQ_1 =   2022-11-18T16:02:01.853   2216495094.673
RECEIVE_FREQ_1 =   2022-11-18T16:02:11.875   2216495093.373
RECEIVE_FREQ_1 =   2022-11-18T16:02:21.898   2216495092.373
RECEIVE_FREQ_1 =   2022-11-18T16:02:31.920   2216495090.973
RECEIVE_FREQ_1 =   2022-11-18T16:02:41.856   2216495089.673
RECEIVE_FREQ_1 =   2022-11-18T16:02:51.878   2216495088.573
RECEIVE_FREQ_1 =   2022-11-18T16:03:01.901   2216495087.273
RECEIVE_FREQ_1 =   2022-11-18T16:03:11.837   2216495086.573
RECEIVE_FREQ_1 =   2022-11-18T16:03:21.859   2216495085.373
RECEIVE_FREQ_1 =   2022-11-18T16:03:31.882   2216495083.973
RECEIVE_FREQ_1 =   2022-11-18T16:03:41.904   2216495082.573
RECEIVE_FREQ_1 =   2022-11-18T16:03:51.840   2216495081.673
RECEIVE_FREQ_1 =   2022-11-18T16:04:01.862   2216495080.273
RECEIVE_FREQ_1 =   2022-11-18T16:04:11.885   2216495079.173
RECEIVE_FREQ_1 =   2022-11-18T16:04:21.907   2216495078.073
RECEIVE_FREQ_1 =   2022-11-18T16:04:31.843   2216495076.873
RECEIVE_FREQ_1 =   2022-11-18T16:04:41.866   2216495075.973
RECEIVE_FREQ_1 =   2022-11-18T16:04:51.888   2216495074.173
RECEIVE_FREQ_1 =   2022-11-18T16:05:01.910   2216495073.573
RECEIVE_FREQ_1 =   2022-11-18T16:05:11.933   2216495072.073
RECEIVE_FREQ_1 =   2022-11-18T16:05:21.869   2216495070.973
RECEIVE_FREQ_1 =   2022-11-18T16:05:31.891   2216495069.573
RECEIVE_FREQ_1 =   2022-11-18T16:05:41.914   2216495068.473
RECEIVE_FREQ_1 =   2022-11-18T16:05:51.850   2216495067.373
RECEIVE_FREQ_1 =   2022-11-18T16:06:01.872   2216495066.273
RECEIVE_FREQ_1 =   2022-11-18T16:06:11.894   2216495065.073
RECEIVE_FREQ_1 =   2022-11-18T16:06:21.917   2216495063.773
RECEIVE_FREQ_1 =   2022-11-18T16:06:31.853   2216495062.873
RECEIVE_FREQ_1 =   2022-11-18T16:06:41.875   2216495061.873
RECEIVE_FREQ_1 =   2022-11-18T16:06:51.898   2216495061.173
RECEIVE_FREQ_1 =   2022-11-18T16:07:01.920   2216495059.673
RECEIVE_FREQ_1 =   2022-11-18T16:07:11.856   2216495058.573
RECEIVE_FREQ_1 =   2022-11-18T16:07:21.878   2216495057.473
RECEIVE_FREQ_1 =   2022-11-18T16:07:41.837   2216495054.973
RECEIVE_FREQ_1 =   2022-11-18T16:07:51.859   2216495054.273
RECEIVE_FREQ_1 =   2022-11-18T16:08:01.882   2216495053.073
RECEIVE_FREQ_1 =   2022-11-18T16:08:11.904   2216495051.973
RECEIVE_FREQ_1 =   2022-11-18T16:08:21.840   2216495050.673
RECEIVE_FREQ_1 =   2022-11-18T16:08:31.862   2216495049.373
RECEIVE_FREQ_1 =   2022-11-18T16:08:41.885   2216495048.273
RECEIVE_FREQ_1 =   2022-11-18T16:08:51.907   2216495047.173
RECEIVE_FREQ_1 =   2022-11-18T16:09:01.930   2216495045.973
RECEIVE_FREQ_1 =   2022-11-18T16:09:11.866   2216495045.173
RECEIVE_FREQ_1 =   2022-11-18T16:09:21.888   2216495043.873
RECEIVE_FREQ_1 =   2022-11-18T16:09:31.910   2216495042.573
RECEIVE_FREQ_1 =   2022-11-18T16:09:41.846   2216495041.573
RECEIVE_FREQ_1 =   2022-11-18T16:09:51.869   2216495040.473
RECEIVE_FREQ_1 =   2022-11-18T16:10:01.891   2216495039.373
RECEIVE_FREQ_1 =   2022-11-18T16:10:11.914   2216495037.973
RECEIVE_FREQ_1 =   2022-11-18T16:10:21.850   2216495036.973
RECEIVE_FREQ_1 =   2022-11-18T16:10:31.872   2216495036.073
RECEIVE_FREQ_1 =   2022-11-18T16:10:41.894   2216495034.773
RECEIVE_FREQ_1 =   2022-11-18T16:10:51.917   2216495033.773
RECEIVE_FREQ_1 =   2022-11-18T16:11:01.853   2216495032.673
RECEIVE_FREQ_1 =   2022-11-18T16:11:11.875   2216495031.473
RECEIVE_FREQ_1 =   2022-11-18T16:11:21.898   2216495030.173
RECEIVE_FREQ_1 =   2022-11-18T16:11:31.920   2216495028.773
RECEIVE_FREQ_1 =   2022-11-18T16:11:41.856   2216495028.073
RECEIVE_FREQ_1 =   2022-11-18T16:11:51.878   2216495026.873
RECEIVE_FREQ_1 =   2022-11-18T16:12:01.901   2216495025.773
RECEIVE_FREQ_1 =   2022-11-18T16:12:11.923   2216495024.373
RECEIVE_FREQ_1 =   2022-11-18T16:12:21.859   2216495023.273
RECEIVE_FREQ_1 =   2022-11-18T16:12:31.882   2216495021.973
RECEIVE_FREQ_1 =   2022-11-18T16:12:41.904   2216495021.073
RECEIVE_FREQ_1 =   2022-11-18T16:12:51.840   2216495019.973
RECEIVE_FREQ_1 =   2022-11-18T16:13:01.862   2216495018.573
RECEIVE_FREQ_1 =   2022-11-18T16:13:11.885   2216495017.873
RECEIVE_FREQ_1 =   2022-11-18T16:13:21.907   2216495016.673
RECEIVE_FREQ_1 =   2022-11-18T16:13:31.843   2216495015.373
RECEIVE_FREQ_1 =   2022-11-18T16:13:41.866   2216495014.173
RECEIVE_FREQ_1 =   2022-11-18T16:13:51.888   2216495012.973
RECEIVE_FREQ_1 =   2022-11-18T16:14:01.910   2216495011.773
RECEIVE_FREQ_1 =   2022-11-18T16:14:11.846   2216495010.773
RECEIVE_FREQ_1 =   2022-11-18T16:14:21.869   2216495009.673
RECEIVE_FREQ_1 =   2022-11-18T16:14:31.891   2216495008.2
RECEIVE_FREQ_1 =   2022-11-18T16:14:41.827   2216495007.173
RECEIVE_FREQ_1 =   2022-11-18T16:14:51.850   2216495006.073
RECEIVE_FREQ_1 =   2022-11-18T16:15:01.872   2216495004.973
RECEIVE_FREQ_1 =   2022-11-18T16:15:11.894   2216495003.673
RECEIVE_FREQ_1 =   2022-11-18T16:15:21.830   2216495002.673
RECEIVE_FREQ_1 =   2022-11-18T16:15:31.853   2216495001.373
RECEIVE_FREQ_1 =   2022-11-18T16:15:41.875   2216495000.273
RECEIVE_FREQ_1 =   2022-11-18T16:15:51.898   2216494999.073
RECEIVE_FREQ_1 =   2022-11-18T16:16:01.834   2216494997.873
RECEIVE_FREQ_1 =   2022-11-18T16:16:11.856   2216494996.573
RECEIVE_FREQ_1 =   2022-11-18T16:16:21.878   2216494995.773
RECEIVE_FREQ_1 =   2022-11-18T16:16:31.901   2216494994.573
RECEIVE_FREQ_1 =   2022-11-18T16:16:41.837   2216494993.373
RECEIVE_FREQ_1 =   2022-11-18T16:16:51.859   2216494991.873
RECEIVE_FREQ_1 =   2022-11-18T16:17:01.882   2216494990.773
RECEIVE_FREQ_1 =   2022-11-18T16:17:11.904   2216494989.373
RECEIVE_FREQ_1 =   2022-11-18T16:17:21.926   2216494988.673
RECEIVE_FREQ_1 =   2022-11-18T16:17:31.862   2216494987.073
RECEIVE_FREQ_1 =   2022-11-18T16:17:41.885   2216494986.173
RECEIVE_FREQ_1 =   2022-11-18T16:17:51.907   2216494985.073
RECEIVE_FREQ_1 =   2022-11-18T16:18:01.843   2216494983.773
RECEIVE_FREQ_1 =   2022-11-18T16:18:11.866   2216494982.473
RECEIVE_FREQ_1 =   2022-11-18T16:18:21.888   2216494981.473
RECEIVE_FREQ_1 =   2022-11-18T16:18:31.910   2216494980.473
RECEIVE_FREQ_1 =   2022-11-18T16:18:41.846   2216494979.173
RECEIVE_FREQ_1 =   2022-11-18T16:18:51.869   2216494977.973
RECEIVE_FREQ_1 =   2022-11-18T16:19:01.891   2216494976.673
RECEIVE_FREQ_1 =   2022-11-18T16:19:11.914   2216494975.673
RECEIVE_FREQ_1 =   2022-11-18T16:19:21.850   2216494974.373
RECEIVE_FREQ_1 =   2022-11-18T16:19:31.872   2216494973.273
RECEIVE_FREQ_1 =   2022-11-18T16:19:41.894   2216494971.873
RECEIVE_FREQ_1 =   2022-11-18T16:19:51.917   2216494970.873
RECEIVE_FREQ_1 =   2022-11-18T16:20:01.853   2216494969.673
RECEIVE_FREQ_1 =   2022-11-18T16:20:11.875   2216494968.473
RECEIVE_FREQ_1 =   2022-11-18T16:20:21.898   2216494967.073
RECEIVE_FREQ_1 =   2022-11-18T16:20:31.920   2216494965.673
RECEIVE_FREQ_1 =   2022-11-18T16:20:41.856   2216494964.973
RECEIVE_FREQ_1 =   2022-11-18T16:20:51.878   2216494963.7
RECEIVE_FREQ_1 =   2022-11-18T16:21:01.901   2216494962.273
RECEIVE_FREQ_1 =   2022-11-18T16:21:11.837   2216494961.473
RECEIVE_FREQ_1 =   2022-11-18T16:21:21.859   2216494959.773
RECEIVE_FREQ_1 =   2022-11-18T16:21:31.882   2216494958.773
RECEIVE_FREQ_1 =   2022-11-18T16:21:41.904   2216494957.373
RECEIVE_FREQ_1 =   2022-11-18T16:21:51.840   2216494956.273
RECEIVE_FREQ_1 =   2022-11-18T16:22:01.862   2216494955.073
RECEIVE_FREQ_1 =   2022-11-18T16:22:11.885   2216494953.873
RECEIVE_FREQ_1 =   2022-11-18T16:22:21.907   2216494952.773
RECEIVE_FREQ_1 =   2022-11-18T16:22:31.843   2216494951.473
RECEIVE_FREQ_1 =   2022-11-18T16:22:41.866   2216494950.0
RECEIVE_FREQ_1 =   2022-11-18T16:22:51.888   2216494949.173
RECEIVE_FREQ_1 =   2022-11-18T16:23:01.910   2216494948.173
RECEIVE_FREQ_1 =   2022-11-18T16:23:11.846   2216494946.973
RECEIVE_FREQ_1 =   2022-11-18T16:23:21.869   2216494945.673
RECEIVE_FREQ_1 =   2022-11-18T16:23:31.891   2216494944.273
RECEIVE_FREQ_1 =   2022-11-18T16:23:41.914   2216494943.373
RECEIVE_FREQ_1 =   2022-11-18T16:23:51.936   2216494941.873
RECEIVE_FREQ_1 =   2022-11-18T16:24:01.872   2216494940.873
RECEIVE_FREQ_1 =   2022-11-18T16:24:21.917   2216494938.173
RECEIVE_FREQ_1 =   2022-11-18T16:24:31.853   2216494937.073
RECEIVE_FREQ_1 =   2022-11-18T16:24:41.875   2216494935.6
RECEIVE_FREQ_1 =   2022-11-18T16:24:51.898   2216494934.673
RECEIVE_FREQ_1 =   2022-11-18T16:25:01.920   2216494933.473
RECEIVE_FREQ_1 =   2022-11-18T16:25:21.878   2216494931.073
RECEIVE_FREQ_1 =   2022-11-18T16:25:31.901   2216494929.773
RECEIVE_FREQ_1 =   2022-11-18T16:25:41.923   2216494928.573
RECEIVE_FREQ_1 =   2022-11-18T16:25:51.859   2216494927.173
RECEIVE_FREQ_1 =   2022-11-18T16:26:01.882   2216494926.073
RECEIVE_FREQ_1 =   2022-11-18T16:26:11.904   2216494924.973
RECEIVE_FREQ_1 =   2022-11-18T16:26:21.840   2216494923.773
RECEIVE_FREQ_1 =   2022-11-18T16:26:31.862   2216494922.573
RECEIVE_FREQ_1 =   2022-11-18T16:26:41.885   2216494921.073
RECEIVE_FREQ_1 =   2022-11-18T16:26:51.907   2216494919.873
RECEIVE_FREQ_1 =   2022-11-18T16:27:01.843   2216494918.473
RECEIVE_FREQ_1 =   2022-11-18T16:27:11.866   2216494917.673
RECEIVE_FREQ_1 =   2022-11-18T16:27:21.888   2216494916.273
RECEIVE_FREQ_1 =   2022-11-18T16:27:31.910   2216494915.073
RECEIVE_FREQ_1 =   2022-11-18T16:27:41.846   2216494914.1
RECEIVE_FREQ_1 =   2022-11-18T16:27:51.869   2216494912.773
RECEIVE_FREQ_1 =   2022-11-18T16:28:01.891   2216494911.273
RECEIVE_FREQ_1 =   2022-11-18T16:28:11.914   2216494909.873
RECEIVE_FREQ_1 =   2022-11-18T16:28:21.850   2216494909.173
RECEIVE_FREQ_1 =   2022-11-18T16:28:31.872   2216494907.773
RECEIVE_FREQ_1 =   2022-11-18T16:28:51.917   2216494905.173
RECEIVE_FREQ_1 =   2022-11-18T16:29:11.875   2216494902.473
RECEIVE_FREQ_1 =   2022-11-18T16:29:21.898   2216494901.273
RECEIVE_FREQ_1 =   2022-11-18T16:29:31.920   2216494900.273
RECEIVE_FREQ_1 =   2022-11-18T16:29:41.856   2216494899.073
RECEIVE_FREQ_1 =   2022-11-18T16:29:51.878   2216494897.773
RECEIVE_FREQ_1 =   2022-11-18T16:30:01.901   2216494896.473
RECEIVE_FREQ_1 =   2022-11-18T16:30:21.859   2216494894.273
RECEIVE_FREQ_1 =   2022-11-18T16:30:31.882   2216494892.973
RECEIVE_FREQ_1 =   2022-11-18T16:30:41.904   2216494891.373
RECEIVE_FREQ_1 =   2022-11-18T16:30:51.926   2216494890.373
RECEIVE_FREQ_1 =   2022-11-18T16:31:01.862   2216494889.073
RECEIVE_FREQ_1 =   2022-11-18T16:31:11.885   2216494887.773
RECEIVE_FREQ_1 =   2022-11-18T16:31:21.907   2216494886.673
RECEIVE_FREQ_1 =   2022-11-18T16:31:31.930   2216494885.573
RECEIVE_FREQ_1 =   2022-11-18T16:31:41.866   2216494884.073
RECEIVE_FREQ_1 =   2022-11-18T16:31:51.888   2216494882.973
RECEIVE_FREQ_1 =   2022-11-18T16:32:01.910   2216494881.773
RECEIVE_FREQ_1 =   2022-11-18T16:32:11.933   2216494880.173
RECEIVE_FREQ_1 =   2022-11-18T16:32:21.869   2216494878.7
RECEIVE_FREQ_1 =   2022-11-18T16:32:31.891   2216494877.873
RECEIVE_FREQ_1 =   2022-11-18T16:32:41.914   2216494876.373
RECEIVE_FREQ_1 =   2022-11-18T16:32:51.850   2216494875.173
RECEIVE_FREQ_1 =   2022-11-18T16:33:01.872   2216494874.073
