data/tdm/2022-12-02Z_2022-156A.tdm

CCSDS_TDM_VERS = 2.0
COMMENT TDM ARTEMIS 1 Doppler data by Scott Tilley for 2022-12-02 UTC
COMMENT Signal not demodulated, to low of SNR, centre carrier integrated in 10s by 0.1Hz bin and extracted for peak value.
CREATION_DATE = 2022-12-02Z
ORIGINATOR = SCOTT TILLEY

META_START
COMMENT 
COMMENT 
SYSTEM TIME = UTC
PARTICIPANT_1 = COSPAR 8049
PARTICIPANT_2 = 2022-156A
MODE = SEQUENTIAL
PATH = 2,1
INTEGRATION_INTERVAL = 10
INTEGRATION_REF = MIDDLE
FREQ_OFFSET = 0
TRANSMIT_DELAY_1 = 0
RECEIVE_DELAY_1 = 0
DATA_QUALITY = RAW
META_STOP

DATA_START
RECEIVE_FREQ_1 =   2022-12-03T00:06:01.066   2216502053.9
RECEIVE_FREQ_1 =   2022-12-03T00:06:11.088   2216502053.0
RECEIVE_FREQ_1 =   2022-12-03T00:06:21.110   2216502052.2
RECEIVE_FREQ_1 =   2022-12-03T00:06:31.046   2216502051.0
RECEIVE_FREQ_1 =   2022-12-03T00:06:41.069   2216502050.3
RECEIVE_FREQ_1 =   2022-12-03T00:06:51.091   2216502049.3
RECEIVE_FREQ_1 =   2022-12-03T00:07:01.114   2216502048.2
RECEIVE_FREQ_1 =   2022-12-03T00:07:11.050   2216502047.3
RECEIVE_FREQ_1 =   2022-12-03T00:07:21.072   2216502046.1
RECEIVE_FREQ_1 =   2022-12-03T00:07:31.094   2216502045.1
RECEIVE_FREQ_1 =   2022-12-03T00:07:41.030   2216502044.5
RECEIVE_FREQ_1 =   2022-12-03T00:07:51.053   2216502043.7
RECEIVE_FREQ_1 =   2022-12-03T00:08:01.075   2216502042.5
RECEIVE_FREQ_1 =   2022-12-03T00:08:11.098   2216502041.3
RECEIVE_FREQ_1 =   2022-12-03T00:08:21.120   2216502040.3
RECEIVE_FREQ_1 =   2022-12-03T00:08:31.056   2216502039.5
RECEIVE_FREQ_1 =   2022-12-03T00:08:41.078   2216502038.7
RECEIVE_FREQ_1 =   2022-12-03T00:08:51.101   2216502037.6
RECEIVE_FREQ_1 =   2022-12-03T00:09:01.037   2216502036.7
RECEIVE_FREQ_1 =   2022-12-03T00:09:11.059   2216502035.8
RECEIVE_FREQ_1 =   2022-12-03T00:09:21.082   2216502034.5
RECEIVE_FREQ_1 =   2022-12-03T00:09:31.104   2216502033.6
RECEIVE_FREQ_1 =   2022-12-03T00:09:41.040   2216502032.6
RECEIVE_FREQ_1 =   2022-12-03T00:09:51.062   2216502031.8
RECEIVE_FREQ_1 =   2022-12-03T00:10:01.085   2216502030.3
RECEIVE_FREQ_1 =   2022-12-03T00:10:11.107   2216502029.5
RECEIVE_FREQ_1 =   2022-12-03T00:10:21.130   2216502028.7
RECEIVE_FREQ_1 =   2022-12-03T00:10:31.066   2216502027.6
RECEIVE_FREQ_1 =   2022-12-03T00:10:41.088   2216502026.6
RECEIVE_FREQ_1 =   2022-12-03T00:11:01.046   2216502024.5
RECEIVE_FREQ_1 =   2022-12-03T00:11:21.091   2216502022.6
RECEIVE_FREQ_1 =   2022-12-03T00:11:31.114   2216502021.7
RECEIVE_FREQ_1 =   2022-12-03T00:12:01.094   2216502018.6
RECEIVE_FREQ_1 =   2022-12-03T00:12:11.117   2216502017.3
RECEIVE_FREQ_1 =   2022-12-03T00:12:31.075   2216502015.3
RECEIVE_FREQ_1 =   2022-12-03T00:12:41.098   2216502014.4
RECEIVE_FREQ_1 =   2022-12-03T00:12:51.120   2216502013.7
RECEIVE_FREQ_1 =   2022-12-03T00:13:01.056   2216502012.3
RECEIVE_FREQ_1 =   2022-12-03T00:13:11.078   2216502011.2
RECEIVE_FREQ_1 =   2022-12-03T00:13:21.101   2216502010.4
RECEIVE_FREQ_1 =   2022-12-03T00:13:31.123   2216502009.3
RECEIVE_FREQ_1 =   2022-12-03T00:13:41.059   2216502008.1
RECEIVE_FREQ_1 =   2022-12-03T00:13:51.082   2216502007.2
RECEIVE_FREQ_1 =   2022-12-03T00:14:01.104   2216502006.2
RECEIVE_FREQ_1 =   2022-12-03T00:14:11.040   2216502005.3
RECEIVE_FREQ_1 =   2022-12-03T00:14:21.062   2216502004.0
RECEIVE_FREQ_1 =   2022-12-03T00:14:41.107   2216502002.2
RECEIVE_FREQ_1 =   2022-12-03T00:14:51.043   2216502001.1
RECEIVE_FREQ_1 =   2022-12-03T00:15:01.066   2216502000.0
RECEIVE_FREQ_1 =   2022-12-03T00:15:11.088   2216501999.0
RECEIVE_FREQ_1 =   2022-12-03T00:15:31.046   2216501996.6
RECEIVE_FREQ_1 =   2022-12-03T00:15:41.069   2216501995.8
RECEIVE_FREQ_1 =   2022-12-03T00:16:11.136   2216501992.7
RECEIVE_FREQ_1 =   2022-12-03T00:16:21.072   2216501991.5
RECEIVE_FREQ_1 =   2022-12-03T00:16:31.094   2216501990.3
RECEIVE_FREQ_1 =   2022-12-03T00:16:41.117   2216501989.1
RECEIVE_FREQ_1 =   2022-12-03T00:16:51.139   2216501988.6
RECEIVE_FREQ_1 =   2022-12-03T00:17:01.075   2216501987.2
RECEIVE_FREQ_1 =   2022-12-03T00:17:11.098   2216501986.2
RECEIVE_FREQ_1 =   2022-12-03T00:17:31.056   2216501984.1
RECEIVE_FREQ_1 =   2022-12-03T00:17:41.078   2216501982.8
RECEIVE_FREQ_1 =   2022-12-03T00:17:51.101   2216501981.8
RECEIVE_FREQ_1 =   2022-12-03T00:18:01.123   2216501980.8
RECEIVE_FREQ_1 =   2022-12-03T00:18:11.059   2216501979.6
RECEIVE_FREQ_1 =   2022-12-03T00:18:21.082   2216501978.4
RECEIVE_FREQ_1 =   2022-12-03T00:18:31.104   2216501977.7
RECEIVE_FREQ_1 =   2022-12-03T00:18:41.126   2216501976.3
RECEIVE_FREQ_1 =   2022-12-03T00:18:51.062   2216501975.4
RECEIVE_FREQ_1 =   2022-12-03T00:19:01.085   2216501974.1
RECEIVE_FREQ_1 =   2022-12-03T00:19:11.107   2216501973.2
RECEIVE_FREQ_1 =   2022-12-03T00:19:21.043   2216501972.0
RECEIVE_FREQ_1 =   2022-12-03T00:19:31.066   2216501970.9
RECEIVE_FREQ_1 =   2022-12-03T00:19:41.088   2216501970.0
RECEIVE_FREQ_1 =   2022-12-03T00:19:51.110   2216501969.0
RECEIVE_FREQ_1 =   2022-12-03T00:20:01.133   2216501967.4
RECEIVE_FREQ_1 =   2022-12-03T00:20:11.069   2216501966.5
RECEIVE_FREQ_1 =   2022-12-03T00:20:21.091   2216501965.3
RECEIVE_FREQ_1 =   2022-12-03T00:20:31.114   2216501964.2
RECEIVE_FREQ_1 =   2022-12-03T00:20:41.050   2216501962.8
RECEIVE_FREQ_1 =   2022-12-03T00:20:51.072   2216501961.8
RECEIVE_FREQ_1 =   2022-12-03T00:21:01.094   2216501961.2
RECEIVE_FREQ_1 =   2022-12-03T00:21:11.117   2216501959.9
RECEIVE_FREQ_1 =   2022-12-03T00:21:21.053   2216501958.7
RECEIVE_FREQ_1 =   2022-12-03T00:21:31.075   2216501957.5
RECEIVE_FREQ_1 =   2022-12-03T00:21:41.098   2216501956.8
RECEIVE_FREQ_1 =   2022-12-03T00:21:51.034   2216501955.3
RECEIVE_FREQ_1 =   2022-12-03T00:22:01.056   2216501954.5
RECEIVE_FREQ_1 =   2022-12-03T00:22:11.078   2216501952.9
RECEIVE_FREQ_1 =   2022-12-03T00:22:21.101   2216501952.1
RECEIVE_FREQ_1 =   2022-12-03T00:22:31.037   2216501950.8
RECEIVE_FREQ_1 =   2022-12-03T00:22:41.059   2216501950.0
RECEIVE_FREQ_1 =   2022-12-03T00:22:51.082   2216501948.6
RECEIVE_FREQ_1 =   2022-12-03T00:23:01.104   2216501947.6
RECEIVE_FREQ_1 =   2022-12-03T00:23:11.040   2216501946.4
RECEIVE_FREQ_1 =   2022-12-03T00:23:21.062   2216501945.1
RECEIVE_FREQ_1 =   2022-12-03T00:23:31.085   2216501944.3
RECEIVE_FREQ_1 =   2022-12-03T00:23:41.107   2216501942.9
RECEIVE_FREQ_1 =   2022-12-03T00:23:51.043   2216501941.9
RECEIVE_FREQ_1 =   2022-12-03T00:24:01.066   2216501940.8
RECEIVE_FREQ_1 =   2022-12-03T00:24:11.088   2216501939.4
RECEIVE_FREQ_1 =   2022-12-03T00:24:21.110   2216501938.7
RECEIVE_FREQ_1 =   2022-12-03T00:24:31.046   2216501937.0
RECEIVE_FREQ_1 =   2022-12-03T00:24:41.069   2216501936.1
RECEIVE_FREQ_1 =   2022-12-03T00:24:51.091   2216501935.2
RECEIVE_FREQ_1 =   2022-12-03T00:25:01.114   2216501933.9
RECEIVE_FREQ_1 =   2022-12-03T00:25:11.050   2216501933.0
RECEIVE_FREQ_1 =   2022-12-03T00:25:21.072   2216501932.0
RECEIVE_FREQ_1 =   2022-12-03T00:25:31.094   2216501930.9
RECEIVE_FREQ_1 =   2022-12-03T00:25:41.117   2216501929.8
RECEIVE_FREQ_1 =   2022-12-03T00:25:51.139   2216501928.9
RECEIVE_FREQ_1 =   2022-12-03T00:26:01.075   2216501927.9
RECEIVE_FREQ_1 =   2022-12-03T00:26:11.098   2216501926.9
RECEIVE_FREQ_1 =   2022-12-03T00:26:21.120   2216501925.5
RECEIVE_FREQ_1 =   2022-12-03T00:26:31.056   2216501924.8
RECEIVE_FREQ_1 =   2022-12-03T00:26:41.078   2216501923.8
RECEIVE_FREQ_1 =   2022-12-03T00:26:51.101   2216501922.4
RECEIVE_FREQ_1 =   2022-12-03T00:27:01.037   2216501921.5
RECEIVE_FREQ_1 =   2022-12-03T00:27:11.059   2216501920.4
RECEIVE_FREQ_1 =   2022-12-03T00:27:21.082   2216501919.3
RECEIVE_FREQ_1 =   2022-12-03T00:27:31.104   2216501918.5
RECEIVE_FREQ_1 =   2022-12-03T00:27:41.126   2216501917.4
RECEIVE_FREQ_1 =   2022-12-03T00:27:51.062   2216501916.4
RECEIVE_FREQ_1 =   2022-12-03T00:28:01.085   2216501915.1
RECEIVE_FREQ_1 =   2022-12-03T00:28:11.107   2216501914.2
RECEIVE_FREQ_1 =   2022-12-03T00:28:21.130   2216501913.1
RECEIVE_FREQ_1 =   2022-12-03T00:28:31.066   2216501912.0
RECEIVE_FREQ_1 =   2022-12-03T00:28:41.088   2216501911.1
RECEIVE_FREQ_1 =   2022-12-03T00:28:51.110   2216501909.9
RECEIVE_FREQ_1 =   2022-12-03T00:29:01.046   2216501908.5
RECEIVE_FREQ_1 =   2022-12-03T00:29:11.069   2216501907.6
RECEIVE_FREQ_1 =   2022-12-03T00:29:21.091   2216501906.5
RECEIVE_FREQ_1 =   2022-12-03T00:29:31.114   2216501905.6
RECEIVE_FREQ_1 =   2022-12-03T00:29:41.050   2216501904.5
RECEIVE_FREQ_1 =   2022-12-03T00:29:51.072   2216501903.2
RECEIVE_FREQ_1 =   2022-12-03T00:30:01.094   2216501902.7
RECEIVE_FREQ_1 =   2022-12-03T00:30:11.117   2216501901.3
RECEIVE_FREQ_1 =   2022-12-03T00:30:21.053   2216501900.4
RECEIVE_FREQ_1 =   2022-12-03T00:30:31.075   2216501899.0
RECEIVE_FREQ_1 =   2022-12-03T00:30:41.098   2216501898.1
RECEIVE_FREQ_1 =   2022-12-03T00:30:51.120   2216501897.0
RECEIVE_FREQ_1 =   2022-12-03T00:31:01.056   2216501895.6
RECEIVE_FREQ_1 =   2022-12-03T00:31:11.078   2216501894.9
RECEIVE_FREQ_1 =   2022-12-03T00:31:31.123   2216501892.8
RECEIVE_FREQ_1 =   2022-12-03T00:31:41.059   2216501891.6
RECEIVE_FREQ_1 =   2022-12-03T00:31:51.082   2216501890.2
RECEIVE_FREQ_1 =   2022-12-03T00:32:01.104   2216501889.3
RECEIVE_FREQ_1 =   2022-12-03T00:32:11.126   2216501888.1
RECEIVE_FREQ_1 =   2022-12-03T00:32:21.062   2216501887.1
RECEIVE_FREQ_1 =   2022-12-03T00:32:31.085   2216501885.8
RECEIVE_FREQ_1 =   2022-12-03T00:32:41.107   2216501885.0
RECEIVE_FREQ_1 =   2022-12-03T00:32:51.043   2216501883.8
RECEIVE_FREQ_1 =   2022-12-03T00:33:01.066   2216501882.7
RECEIVE_FREQ_1 =   2022-12-03T00:33:11.088   2216501881.5
RECEIVE_FREQ_1 =   2022-12-03T00:33:21.110   2216501880.4
RECEIVE_FREQ_1 =   2022-12-03T00:33:31.046   2216501879.5
RECEIVE_FREQ_1 =   2022-12-03T00:33:41.069   2216501878.0
RECEIVE_FREQ_1 =   2022-12-03T00:33:51.091   2216501876.9
RECEIVE_FREQ_1 =   2022-12-03T00:34:01.114   2216501876.0
RECEIVE_FREQ_1 =   2022-12-03T00:34:11.050   2216501874.9
RECEIVE_FREQ_1 =   2022-12-03T00:34:21.072   2216501873.5
RECEIVE_FREQ_1 =   2022-12-03T00:34:31.094   2216501872.5
RECEIVE_FREQ_1 =   2022-12-03T00:34:41.117   2216501871.5
RECEIVE_FREQ_1 =   2022-12-03T00:34:51.053   2216501870.5
RECEIVE_FREQ_1 =   2022-12-03T00:35:01.075   2216501869.4
RECEIVE_FREQ_1 =   2022-12-03T00:35:11.098   2216501868.0
RECEIVE_FREQ_1 =   2022-12-03T00:35:21.120   2216501867.0
RECEIVE_FREQ_1 =   2022-12-03T00:35:31.056   2216501865.8
RECEIVE_FREQ_1 =   2022-12-03T00:35:41.078   2216501864.4
RECEIVE_FREQ_1 =   2022-12-03T00:35:51.101   2216501863.5
RECEIVE_FREQ_1 =   2022-12-03T00:36:01.123   2216501862.6
RECEIVE_FREQ_1 =   2022-12-03T00:36:11.059   2216501861.1
RECEIVE_FREQ_1 =   2022-12-03T00:36:21.082   2216501860.1
RECEIVE_FREQ_1 =   2022-12-03T00:36:31.104   2216501859.3
RECEIVE_FREQ_1 =   2022-12-03T00:36:41.040   2216501857.8
RECEIVE_FREQ_1 =   2022-12-03T00:36:51.062   2216501856.6
RECEIVE_FREQ_1 =   2022-12-03T00:37:01.085   2216501855.6
RECEIVE_FREQ_1 =   2022-12-03T00:37:11.107   2216501854.6
RECEIVE_FREQ_1 =   2022-12-03T00:37:21.043   2216501853.2
RECEIVE_FREQ_1 =   2022-12-03T00:37:31.066   2216501852.2
RECEIVE_FREQ_1 =   2022-12-03T00:37:41.088   2216501851.2
RECEIVE_FREQ_1 =   2022-12-03T00:37:51.110   2216501849.9
RECEIVE_FREQ_1 =   2022-12-03T00:38:01.046   2216501848.8
RECEIVE_FREQ_1 =   2022-12-03T00:38:11.069   2216501847.5
RECEIVE_FREQ_1 =   2022-12-03T00:38:21.091   2216501846.2
RECEIVE_FREQ_1 =   2022-12-03T00:38:31.114   2216501845.2
RECEIVE_FREQ_1 =   2022-12-03T00:38:41.050   2216501844.0
RECEIVE_FREQ_1 =   2022-12-03T00:38:51.072   2216501843.1
RECEIVE_FREQ_1 =   2022-12-03T00:39:01.094   2216501841.7
RECEIVE_FREQ_1 =   2022-12-03T00:39:11.117   2216501840.7
RECEIVE_FREQ_1 =   2022-12-03T00:39:21.053   2216501839.5
RECEIVE_FREQ_1 =   2022-12-03T00:39:31.075   2216501838.1
RECEIVE_FREQ_1 =   2022-12-03T00:39:41.098   2216501836.9
RECEIVE_FREQ_1 =   2022-12-03T00:39:51.120   2216501835.9
RECEIVE_FREQ_1 =   2022-12-03T00:40:01.056   2216501834.8
RECEIVE_FREQ_1 =   2022-12-03T00:40:11.078   2216501833.6
RECEIVE_FREQ_1 =   2022-12-03T00:40:21.101   2216501832.3
RECEIVE_FREQ_1 =   2022-12-03T00:40:31.037   2216501831.1
RECEIVE_FREQ_1 =   2022-12-03T00:40:41.146   2216501829.8
RECEIVE_FREQ_1 =   2022-12-03T00:40:51.082   2216501828.9
RECEIVE_FREQ_1 =   2022-12-03T00:41:01.104   2216501827.5
RECEIVE_FREQ_1 =   2022-12-03T00:41:11.040   2216501826.2
RECEIVE_FREQ_1 =   2022-12-03T00:41:21.062   2216501824.9
RECEIVE_FREQ_1 =   2022-12-03T00:41:31.085   2216501824.2
RECEIVE_FREQ_1 =   2022-12-03T00:41:41.107   2216501822.9
RECEIVE_FREQ_1 =   2022-12-03T00:41:51.043   2216501821.5
RECEIVE_FREQ_1 =   2022-12-03T00:42:01.066   2216501820.5
RECEIVE_FREQ_1 =   2022-12-03T00:42:11.088   2216501819.2
RECEIVE_FREQ_1 =   2022-12-03T00:42:21.110   2216501818.1
RECEIVE_FREQ_1 =   2022-12-03T00:42:31.046   2216501816.9
RECEIVE_FREQ_1 =   2022-12-03T00:42:41.069   2216501815.6
RECEIVE_FREQ_1 =   2022-12-03T00:42:51.091   2216501814.4
RECEIVE_FREQ_1 =   2022-12-03T00:43:01.114   2216501812.9
RECEIVE_FREQ_1 =   2022-12-03T00:43:11.050   2216501812.4
RECEIVE_FREQ_1 =   2022-12-03T00:43:21.072   2216501810.6
RECEIVE_FREQ_1 =   2022-12-03T00:43:31.094   2216501809.6
RECEIVE_FREQ_1 =   2022-12-03T00:43:41.117   2216501808.3
RECEIVE_FREQ_1 =   2022-12-03T00:43:51.053   2216501807.5
RECEIVE_FREQ_1 =   2022-12-03T00:44:01.075   2216501805.9
RECEIVE_FREQ_1 =   2022-12-03T00:44:11.098   2216501804.5
RECEIVE_FREQ_1 =   2022-12-03T00:44:21.120   2216501803.4
RECEIVE_FREQ_1 =   2022-12-03T00:44:31.056   2216501802.4
RECEIVE_FREQ_1 =   2022-12-03T00:44:41.078   2216501801.3
RECEIVE_FREQ_1 =   2022-12-03T00:44:51.101   2216501799.9
RECEIVE_FREQ_1 =   2022-12-03T00:45:01.037   2216501798.4
RECEIVE_FREQ_1 =   2022-12-03T00:45:11.059   2216501797.0
RECEIVE_FREQ_1 =   2022-12-03T00:45:21.082   2216501796.1
RECEIVE_FREQ_1 =   2022-12-03T00:45:31.104   2216501794.8
RECEIVE_FREQ_1 =   2022-12-03T00:45:41.040   2216501793.8
RECEIVE_FREQ_1 =   2022-12-03T00:45:51.062   2216501792.3
RECEIVE_FREQ_1 =   2022-12-03T00:46:01.085   2216501791.0
RECEIVE_FREQ_1 =   2022-12-03T00:46:11.107   2216501790.1
RECEIVE_FREQ_1 =   2022-12-03T00:46:21.043   2216501788.8
RECEIVE_FREQ_1 =   2022-12-03T00:46:31.066   2216501787.6
RECEIVE_FREQ_1 =   2022-12-03T00:46:41.088   2216501786.5
RECEIVE_FREQ_1 =   2022-12-03T00:47:01.133   2216501784.0
RECEIVE_FREQ_1 =   2022-12-03T00:47:11.069   2216501782.5
RECEIVE_FREQ_1 =   2022-12-03T00:47:21.091   2216501781.7
RECEIVE_FREQ_1 =   2022-12-03T00:47:31.114   2216501780.1
RECEIVE_FREQ_1 =   2022-12-03T00:47:41.136   2216501778.6
RECEIVE_FREQ_1 =   2022-12-03T00:47:51.072   2216501777.4
RECEIVE_FREQ_1 =   2022-12-03T00:48:01.094   2216501776.4
RECEIVE_FREQ_1 =   2022-12-03T00:48:11.117   2216501775.0
RECEIVE_FREQ_1 =   2022-12-03T00:48:21.053   2216501774.2
RECEIVE_FREQ_1 =   2022-12-03T00:48:31.075   2216501772.6
RECEIVE_FREQ_1 =   2022-12-03T00:48:41.098   2216501771.2
RECEIVE_FREQ_1 =   2022-12-03T00:48:51.120   2216501770.2
RECEIVE_FREQ_1 =   2022-12-03T00:49:01.056   2216501768.8
RECEIVE_FREQ_1 =   2022-12-03T00:49:11.078   2216501768.3
RECEIVE_FREQ_1 =   2022-12-03T00:49:21.101   2216501767.0
RECEIVE_FREQ_1 =   2022-12-03T00:49:31.123   2216501765.9
RECEIVE_FREQ_1 =   2022-12-03T00:49:41.059   2216501764.6
RECEIVE_FREQ_1 =   2022-12-03T00:49:51.082   2216501763.4
RECEIVE_FREQ_1 =   2022-12-03T00:50:01.104   2216501762.3
RECEIVE_FREQ_1 =   2022-12-03T00:50:11.040   2216501760.9
RECEIVE_FREQ_1 =   2022-12-03T00:50:21.062   2216501760.0
RECEIVE_FREQ_1 =   2022-12-03T00:50:31.085   2216501758.6
RECEIVE_FREQ_1 =   2022-12-03T00:50:41.107   2216501757.7
RECEIVE_FREQ_1 =   2022-12-03T00:50:51.043   2216501756.6
RECEIVE_FREQ_1 =   2022-12-03T00:51:01.066   2216501755.2
RECEIVE_FREQ_1 =   2022-12-03T00:51:11.088   2216501754.3
RECEIVE_FREQ_1 =   2022-12-03T00:51:21.110   2216501753.4
RECEIVE_FREQ_1 =   2022-12-03T00:51:31.046   2216501751.7
RECEIVE_FREQ_1 =   2022-12-03T00:51:41.069   2216501750.6
RECEIVE_FREQ_1 =   2022-12-03T00:51:51.091   2216501749.7
RECEIVE_FREQ_1 =   2022-12-03T00:52:01.114   2216501748.1
RECEIVE_FREQ_1 =   2022-12-03T00:52:11.050   2216501747.0
RECEIVE_FREQ_1 =   2022-12-03T00:52:21.072   2216501746.0
RECEIVE_FREQ_1 =   2022-12-03T00:52:31.094   2216501744.6
RECEIVE_FREQ_1 =   2022-12-03T00:52:41.117   2216501743.8
RECEIVE_FREQ_1 =   2022-12-03T00:52:51.053   2216501742.6
RECEIVE_FREQ_1 =   2022-12-03T00:53:01.075   2216501741.3
RECEIVE_FREQ_1 =   2022-12-03T00:53:11.098   2216501740.4
RECEIVE_FREQ_1 =   2022-12-03T00:53:21.120   2216501738.8
RECEIVE_FREQ_1 =   2022-12-03T00:53:51.101   2216501735.4
RECEIVE_FREQ_1 =   2022-12-03T00:54:01.037   2216501734.1
RECEIVE_FREQ_1 =   2022-12-03T00:54:11.059   2216501732.8
RECEIVE_FREQ_1 =   2022-12-03T00:54:21.082   2216501731.7
RECEIVE_FREQ_1 =   2022-12-03T00:54:31.104   2216501730.7
RECEIVE_FREQ_1 =   2022-12-03T00:54:41.040   2216501729.4
RECEIVE_FREQ_1 =   2022-12-03T00:54:51.062   2216501728.2
RECEIVE_FREQ_1 =   2022-12-03T00:55:01.085   2216501727.0
RECEIVE_FREQ_1 =   2022-12-03T00:55:11.107   2216501725.7
RECEIVE_FREQ_1 =   2022-12-03T00:55:21.130   2216501724.6
RECEIVE_FREQ_1 =   2022-12-03T00:55:31.066   2216501723.3
RECEIVE_FREQ_1 =   2022-12-03T00:55:41.088   2216501722.0
RECEIVE_FREQ_1 =   2022-12-03T00:55:51.110   2216501720.8
RECEIVE_FREQ_1 =   2022-12-03T00:56:01.046   2216501719.9
RECEIVE_FREQ_1 =   2022-12-03T00:56:11.069   2216501718.5
RECEIVE_FREQ_1 =   2022-12-03T00:56:21.091   2216501717.5
RECEIVE_FREQ_1 =   2022-12-03T00:56:31.114   2216501716.5
RECEIVE_FREQ_1 =   2022-12-03T00:56:41.136   2216501715.0
RECEIVE_FREQ_1 =   2022-12-03T00:56:51.072   2216501713.9
RECEIVE_FREQ_1 =   2022-12-03T00:57:01.094   2216501712.5
RECEIVE_FREQ_1 =   2022-12-03T00:57:11.117   2216501711.2
RECEIVE_FREQ_1 =   2022-12-03T00:57:21.139   2216501710.2
RECEIVE_FREQ_1 =   2022-12-03T00:57:31.075   2216501708.7
RECEIVE_FREQ_1 =   2022-12-03T00:57:41.098   2216501707.5
RECEIVE_FREQ_1 =   2022-12-03T00:57:51.120   2216501706.2
RECEIVE_FREQ_1 =   2022-12-03T00:58:01.056   2216501705.0
RECEIVE_FREQ_1 =   2022-12-03T00:58:11.078   2216501704.3
RECEIVE_FREQ_1 =   2022-12-03T00:58:21.101   2216501702.5
RECEIVE_FREQ_1 =   2022-12-03T00:58:31.037   2216501701.4
RECEIVE_FREQ_1 =   2022-12-03T00:58:41.059   2216501700.4
RECEIVE_FREQ_1 =   2022-12-03T00:58:51.082   2216501699.2
RECEIVE_FREQ_1 =   2022-12-03T00:59:01.104   2216501697.5
RECEIVE_FREQ_1 =   2022-12-03T00:59:11.126   2216501696.7
RECEIVE_FREQ_1 =   2022-12-03T00:59:21.062   2216501695.2
RECEIVE_FREQ_1 =   2022-12-03T00:59:31.085   2216501694.1
RECEIVE_FREQ_1 =   2022-12-03T00:59:41.107   2216501692.9
RECEIVE_FREQ_1 =   2022-12-03T00:59:51.130   2216501691.9
RECEIVE_FREQ_1 =   2022-12-03T01:00:01.066   2216501690.3
RECEIVE_FREQ_1 =   2022-12-03T01:00:11.088   2216501689.2
RECEIVE_FREQ_1 =   2022-12-03T01:00:21.110   2216501687.9
RECEIVE_FREQ_1 =   2022-12-03T01:00:31.046   2216501686.6
RECEIVE_FREQ_1 =   2022-12-03T01:00:41.069   2216501685.6
RECEIVE_FREQ_1 =   2022-12-03T01:00:51.091   2216501683.9
RECEIVE_FREQ_1 =   2022-12-03T01:01:01.114   2216501682.8
RECEIVE_FREQ_1 =   2022-12-03T01:01:11.050   2216501681.5
RECEIVE_FREQ_1 =   2022-12-03T01:01:21.072   2216501680.7
RECEIVE_FREQ_1 =   2022-12-03T01:01:31.094   2216501679.3
RECEIVE_FREQ_1 =   2022-12-03T01:01:41.117   2216501678.0
RECEIVE_FREQ_1 =   2022-12-03T01:01:51.053   2216501677.0
RECEIVE_FREQ_1 =   2022-12-03T01:02:01.075   2216501675.6
RECEIVE_FREQ_1 =   2022-12-03T01:02:11.098   2216501674.1
RECEIVE_FREQ_1 =   2022-12-03T01:02:21.120   2216501672.7
RECEIVE_FREQ_1 =   2022-12-03T01:02:31.056   2216501671.5
RECEIVE_FREQ_1 =   2022-12-03T01:02:41.078   2216501670.5
RECEIVE_FREQ_1 =   2022-12-03T01:02:51.101   2216501669.0
RECEIVE_FREQ_1 =   2022-12-03T01:03:01.037   2216501667.8
RECEIVE_FREQ_1 =   2022-12-03T01:03:11.059   2216501666.6
RECEIVE_FREQ_1 =   2022-12-03T01:03:21.082   2216501665.6
RECEIVE_FREQ_1 =   2022-12-03T01:03:31.104   2216501664.1
RECEIVE_FREQ_1 =   2022-12-03T01:03:41.040   2216501662.8
RECEIVE_FREQ_1 =   2022-12-03T01:03:51.062   2216501661.5
RECEIVE_FREQ_1 =   2022-12-03T01:04:01.085   2216501660.3
RECEIVE_FREQ_1 =   2022-12-03T01:04:11.107   2216501659.4
RECEIVE_FREQ_1 =   2022-12-03T01:04:21.043   2216501657.6
RECEIVE_FREQ_1 =   2022-12-03T01:04:31.066   2216501656.2
RECEIVE_FREQ_1 =   2022-12-03T01:04:41.088   2216501655.1
RECEIVE_FREQ_1 =   2022-12-03T01:04:51.110   2216501653.9
RECEIVE_FREQ_1 =   2022-12-03T01:05:01.046   2216501652.4
RECEIVE_FREQ_1 =   2022-12-03T01:05:11.069   2216501651.6
RECEIVE_FREQ_1 =   2022-12-03T01:05:21.091   2216501650.2
RECEIVE_FREQ_1 =   2022-12-03T01:05:31.114   2216501649.0
RECEIVE_FREQ_1 =   2022-12-03T01:05:41.050   2216501647.6
RECEIVE_FREQ_1 =   2022-12-03T01:05:51.072   2216501646.3
RECEIVE_FREQ_1 =   2022-12-03T01:06:01.094   2216501644.9
RECEIVE_FREQ_1 =   2022-12-03T01:06:11.117   2216501643.7
RECEIVE_FREQ_1 =   2022-12-03T01:06:21.053   2216501642.5
RECEIVE_FREQ_1 =   2022-12-03T01:06:31.075   2216501641.0
RECEIVE_FREQ_1 =   2022-12-03T01:06:41.098   2216501639.9
RECEIVE_FREQ_1 =   2022-12-03T01:06:51.034   2216501638.2
RECEIVE_FREQ_1 =   2022-12-03T01:07:01.056   2216501637.1
RECEIVE_FREQ_1 =   2022-12-03T01:07:11.078   2216501635.8
RECEIVE_FREQ_1 =   2022-12-03T01:07:21.101   2216501634.6
RECEIVE_FREQ_1 =   2022-12-03T01:07:31.037   2216501633.2
RECEIVE_FREQ_1 =   2022-12-03T01:07:41.059   2216501631.9
RECEIVE_FREQ_1 =   2022-12-03T01:07:51.082   2216501630.5
RECEIVE_FREQ_1 =   2022-12-03T01:08:01.104   2216501629.2
RECEIVE_FREQ_1 =   2022-12-03T01:08:11.040   2216501628.2
RECEIVE_FREQ_1 =   2022-12-03T01:08:21.149   2216501626.8
RECEIVE_FREQ_1 =   2022-12-03T01:08:31.085   2216501625.6
RECEIVE_FREQ_1 =   2022-12-03T01:08:41.107   2216501624.3
RECEIVE_FREQ_1 =   2022-12-03T01:08:51.130   2216501623.2
RECEIVE_FREQ_1 =   2022-12-03T01:09:01.066   2216501621.6
RECEIVE_FREQ_1 =   2022-12-03T01:09:11.088   2216501619.9
RECEIVE_FREQ_1 =   2022-12-03T01:09:21.110   2216501618.7
RECEIVE_FREQ_1 =   2022-12-03T01:09:31.046   2216501617.6
RECEIVE_FREQ_1 =   2022-12-03T01:09:41.069   2216501616.3
RECEIVE_FREQ_1 =   2022-12-03T01:09:51.091   2216501615.1
RECEIVE_FREQ_1 =   2022-12-03T01:10:01.114   2216501613.6
RECEIVE_FREQ_1 =   2022-12-03T01:10:11.050   2216501612.2
RECEIVE_FREQ_1 =   2022-12-03T01:10:21.072   2216501610.9
RECEIVE_FREQ_1 =   2022-12-03T01:10:31.094   2216501609.7
RECEIVE_FREQ_1 =   2022-12-03T01:10:41.117   2216501608.3
RECEIVE_FREQ_1 =   2022-12-03T01:10:51.139   2216501607.1
RECEIVE_FREQ_1 =   2022-12-03T01:11:01.075   2216501605.9
RECEIVE_FREQ_1 =   2022-12-03T01:11:11.098   2216501604.1
RECEIVE_FREQ_1 =   2022-12-03T01:11:21.120   2216501603.1
RECEIVE_FREQ_1 =   2022-12-03T01:11:31.056   2216501601.8
RECEIVE_FREQ_1 =   2022-12-03T01:11:41.078   2216501600.6
RECEIVE_FREQ_1 =   2022-12-03T01:11:51.101   2216501598.8
RECEIVE_FREQ_1 =   2022-12-03T01:12:01.037   2216501597.6
RECEIVE_FREQ_1 =   2022-12-03T01:12:11.059   2216501596.4
RECEIVE_FREQ_1 =   2022-12-03T01:12:21.082   2216501595.0
RECEIVE_FREQ_1 =   2022-12-03T01:12:31.104   2216501593.8
RECEIVE_FREQ_1 =   2022-12-03T01:12:41.040   2216501592.3
RECEIVE_FREQ_1 =   2022-12-03T01:12:51.062   2216501590.8
RECEIVE_FREQ_1 =   2022-12-03T01:13:01.085   2216501589.7
RECEIVE_FREQ_1 =   2022-12-03T01:13:11.107   2216501588.4
RECEIVE_FREQ_1 =   2022-12-03T01:13:21.043   2216501586.8
RECEIVE_FREQ_1 =   2022-12-03T01:13:31.066   2216501585.4
RECEIVE_FREQ_1 =   2022-12-03T01:13:41.088   2216501584.4
RECEIVE_FREQ_1 =   2022-12-03T01:13:51.110   2216501583.1
RECEIVE_FREQ_1 =   2022-12-03T01:14:01.046   2216501582.0
RECEIVE_FREQ_1 =   2022-12-03T01:14:11.069   2216501580.1
RECEIVE_FREQ_1 =   2022-12-03T01:14:21.091   2216501579.1
RECEIVE_FREQ_1 =   2022-12-03T01:14:31.114   2216501577.5
RECEIVE_FREQ_1 =   2022-12-03T01:14:41.050   2216501576.1
RECEIVE_FREQ_1 =   2022-12-03T01:14:51.072   2216501575.3
RECEIVE_FREQ_1 =   2022-12-03T01:15:01.094   2216501573.7
RECEIVE_FREQ_1 =   2022-12-03T01:15:11.117   2216501572.7
RECEIVE_FREQ_1 =   2022-12-03T01:15:21.053   2216501571.3
RECEIVE_FREQ_1 =   2022-12-03T01:15:31.075   2216501569.9
RECEIVE_FREQ_1 =   2022-12-03T01:15:41.098   2216501568.7
RECEIVE_FREQ_1 =   2022-12-03T01:15:51.120   2216501567.5
RECEIVE_FREQ_1 =   2022-12-03T01:16:01.056   2216501566.4
RECEIVE_FREQ_1 =   2022-12-03T01:16:11.078   2216501565.0
RECEIVE_FREQ_1 =   2022-12-03T01:16:21.101   2216501563.7
RECEIVE_FREQ_1 =   2022-12-03T01:16:31.037   2216501562.9
RECEIVE_FREQ_1 =   2022-12-03T01:16:41.059   2216501561.2
RECEIVE_FREQ_1 =   2022-12-03T01:16:51.082   2216501560.0
RECEIVE_FREQ_1 =   2022-12-03T01:17:01.104   2216501558.8
RECEIVE_FREQ_1 =   2022-12-03T01:17:11.040   2216501557.5
RECEIVE_FREQ_1 =   2022-12-03T01:17:21.062   2216501556.3
RECEIVE_FREQ_1 =   2022-12-03T01:17:31.085   2216501554.7
RECEIVE_FREQ_1 =   2022-12-03T01:17:41.107   2216501553.8
RECEIVE_FREQ_1 =   2022-12-03T01:17:51.043   2216501552.1
RECEIVE_FREQ_1 =   2022-12-03T01:18:01.066   2216501551.2
RECEIVE_FREQ_1 =   2022-12-03T01:18:11.088   2216501549.6
RECEIVE_FREQ_1 =   2022-12-03T01:18:21.110   2216501548.3
RECEIVE_FREQ_1 =   2022-12-03T01:18:31.046   2216501547.1
RECEIVE_FREQ_1 =   2022-12-03T01:18:41.069   2216501545.9
RECEIVE_FREQ_1 =   2022-12-03T01:18:51.091   2216501544.9
RECEIVE_FREQ_1 =   2022-12-03T01:19:01.114   2216501543.5
RECEIVE_FREQ_1 =   2022-12-03T01:19:11.050   2216501542.2
RECEIVE_FREQ_1 =   2022-12-03T01:19:21.072   2216501541.0
RECEIVE_FREQ_1 =   2022-12-03T01:19:31.094   2216501539.8
RECEIVE_FREQ_1 =   2022-12-03T01:19:41.117   2216501537.9
RECEIVE_FREQ_1 =   2022-12-03T01:19:51.053   2216501536.8
RECEIVE_FREQ_1 =   2022-12-03T01:20:01.075   2216501535.8
RECEIVE_FREQ_1 =   2022-12-03T01:20:11.098   2216501534.2
RECEIVE_FREQ_1 =   2022-12-03T01:20:21.120   2216501533.3
RECEIVE_FREQ_1 =   2022-12-03T01:20:31.056   2216501531.7
RECEIVE_FREQ_1 =   2022-12-03T01:20:41.078   2216501530.7
RECEIVE_FREQ_1 =   2022-12-03T01:20:51.101   2216501528.8
RECEIVE_FREQ_1 =   2022-12-03T01:21:01.037   2216501527.8
RECEIVE_FREQ_1 =   2022-12-03T01:21:11.059   2216501526.8
RECEIVE_FREQ_1 =   2022-12-03T01:21:21.082   2216501525.5
RECEIVE_FREQ_1 =   2022-12-03T01:21:31.104   2216501523.9
RECEIVE_FREQ_1 =   2022-12-03T01:21:41.040   2216501522.7
RECEIVE_FREQ_1 =   2022-12-03T01:21:51.062   2216501521.5
RECEIVE_FREQ_1 =   2022-12-03T01:22:01.085   2216501520.0
RECEIVE_FREQ_1 =   2022-12-03T01:22:11.107   2216501518.3
RECEIVE_FREQ_1 =   2022-12-03T01:22:21.043   2216501517.2
RECEIVE_FREQ_1 =   2022-12-03T01:22:31.066   2216501516.0
RECEIVE_FREQ_1 =   2022-12-03T01:22:41.088   2216501514.7
RECEIVE_FREQ_1 =   2022-12-03T01:22:51.110   2216501513.5
RECEIVE_FREQ_1 =   2022-12-03T01:23:01.046   2216501512.4
RECEIVE_FREQ_1 =   2022-12-03T01:23:11.069   2216501511.2
RECEIVE_FREQ_1 =   2022-12-03T01:23:21.091   2216501509.5
RECEIVE_FREQ_1 =   2022-12-03T01:23:31.114   2216501508.6
RECEIVE_FREQ_1 =   2022-12-03T01:23:41.050   2216501507.2
RECEIVE_FREQ_1 =   2022-12-03T01:23:51.072   2216501505.5
RECEIVE_FREQ_1 =   2022-12-03T01:24:01.094   2216501504.4
RECEIVE_FREQ_1 =   2022-12-03T01:24:11.117   2216501503.2
RECEIVE_FREQ_1 =   2022-12-03T01:24:21.053   2216501501.8
RECEIVE_FREQ_1 =   2022-12-03T01:24:31.075   2216501500.5
RECEIVE_FREQ_1 =   2022-12-03T01:24:41.098   2216501499.1
RECEIVE_FREQ_1 =   2022-12-03T01:24:51.034   2216501497.6
RECEIVE_FREQ_1 =   2022-12-03T01:25:01.056   2216501496.4
RECEIVE_FREQ_1 =   2022-12-03T01:25:11.078   2216501495.2
RECEIVE_FREQ_1 =   2022-12-03T01:25:21.101   2216501493.8
RECEIVE_FREQ_1 =   2022-12-03T01:25:31.123   2216501492.4
RECEIVE_FREQ_1 =   2022-12-03T01:25:41.059   2216501491.1
RECEIVE_FREQ_1 =   2022-12-03T01:25:51.082   2216501489.5
RECEIVE_FREQ_1 =   2022-12-03T01:26:01.104   2216501488.5
RECEIVE_FREQ_1 =   2022-12-03T01:26:11.040   2216501487.4
RECEIVE_FREQ_1 =   2022-12-03T01:26:21.062   2216501485.7
RECEIVE_FREQ_1 =   2022-12-03T01:26:31.085   2216501484.1
RECEIVE_FREQ_1 =   2022-12-03T01:26:41.107   2216501483.2
RECEIVE_FREQ_1 =   2022-12-03T01:26:51.043   2216501481.4
RECEIVE_FREQ_1 =   2022-12-03T01:27:01.066   2216501480.4
RECEIVE_FREQ_1 =   2022-12-03T01:27:11.088   2216501478.7
RECEIVE_FREQ_1 =   2022-12-03T01:27:21.110   2216501477.9
RECEIVE_FREQ_1 =   2022-12-03T01:27:31.046   2216501476.5
RECEIVE_FREQ_1 =   2022-12-03T01:27:41.069   2216501474.7
RECEIVE_FREQ_1 =   2022-12-03T01:27:51.091   2216501473.6
RECEIVE_FREQ_1 =   2022-12-03T01:28:01.114   2216501472.1
RECEIVE_FREQ_1 =   2022-12-03T01:28:11.050   2216501471.0
RECEIVE_FREQ_1 =   2022-12-03T01:28:21.072   2216501469.3
RECEIVE_FREQ_1 =   2022-12-03T01:28:31.094   2216501468.1
RECEIVE_FREQ_1 =   2022-12-03T01:28:41.117   2216501466.7
RECEIVE_FREQ_1 =   2022-12-03T01:28:51.053   2216501465.3
RECEIVE_FREQ_1 =   2022-12-03T01:29:01.075   2216501464.1
RECEIVE_FREQ_1 =   2022-12-03T01:29:11.098   2216501462.9
RECEIVE_FREQ_1 =   2022-12-03T01:29:21.034   2216501461.7
RECEIVE_FREQ_1 =   2022-12-03T01:29:31.056   2216501460.2
RECEIVE_FREQ_1 =   2022-12-03T01:29:41.078   2216501458.9
RECEIVE_FREQ_1 =   2022-12-03T01:29:51.101   2216501457.5
RECEIVE_FREQ_1 =   2022-12-03T01:30:01.037   2216501456.2
RECEIVE_FREQ_1 =   2022-12-03T01:30:11.059   2216501454.7
RECEIVE_FREQ_1 =   2022-12-03T01:30:21.082   2216501453.3
RECEIVE_FREQ_1 =   2022-12-03T01:30:31.104   2216501452.0
RECEIVE_FREQ_1 =   2022-12-03T01:30:41.040   2216501450.6
RECEIVE_FREQ_1 =   2022-12-03T01:30:51.062   2216501449.1
RECEIVE_FREQ_1 =   2022-12-03T01:31:01.085   2216501447.6
RECEIVE_FREQ_1 =   2022-12-03T01:31:11.107   2216501446.2
RECEIVE_FREQ_1 =   2022-12-03T01:31:21.130   2216501445.4
RECEIVE_FREQ_1 =   2022-12-03T01:31:31.066   2216501444.1
RECEIVE_FREQ_1 =   2022-12-03T01:31:41.088   2216501442.3
RECEIVE_FREQ_1 =   2022-12-03T01:31:51.110   2216501441.2
RECEIVE_FREQ_1 =   2022-12-03T01:32:01.046   2216501440.0
RECEIVE_FREQ_1 =   2022-12-03T01:32:11.069   2216501438.0
RECEIVE_FREQ_1 =   2022-12-03T01:32:21.091   2216501436.7
RECEIVE_FREQ_1 =   2022-12-03T01:32:31.114   2216501435.5
RECEIVE_FREQ_1 =   2022-12-03T01:32:41.050   2216501433.9
RECEIVE_FREQ_1 =   2022-12-03T01:32:51.072   2216501432.7
RECEIVE_FREQ_1 =   2022-12-03T01:33:01.094   2216501431.6
RECEIVE_FREQ_1 =   2022-12-03T01:33:11.117   2216501430.1
RECEIVE_FREQ_1 =   2022-12-03T01:33:21.053   2216501428.7
RECEIVE_FREQ_1 =   2022-12-03T01:33:31.075   2216501427.2
RECEIVE_FREQ_1 =   2022-12-03T01:33:41.098   2216501425.7
RECEIVE_FREQ_1 =   2022-12-03T01:33:51.120   2216501424.5
RECEIVE_FREQ_1 =   2022-12-03T01:34:01.056   2216501422.6
RECEIVE_FREQ_1 =   2022-12-03T01:34:11.078   2216501422.1
RECEIVE_FREQ_1 =   2022-12-03T01:34:21.101   2216501420.5
RECEIVE_FREQ_1 =   2022-12-03T01:34:31.037   2216501418.7
RECEIVE_FREQ_1 =   2022-12-03T01:34:41.059   2216501417.4
RECEIVE_FREQ_1 =   2022-12-03T01:34:51.082   2216501415.9
RECEIVE_FREQ_1 =   2022-12-03T01:35:01.104   2216501415.1
RECEIVE_FREQ_1 =   2022-12-03T01:35:11.040   2216501413.3
RECEIVE_FREQ_1 =   2022-12-03T01:35:21.062   2216501411.8
RECEIVE_FREQ_1 =   2022-12-03T01:35:31.085   2216501410.1
RECEIVE_FREQ_1 =   2022-12-03T01:35:41.107   2216501409.1
RECEIVE_FREQ_1 =   2022-12-03T01:35:51.043   2216501407.5
RECEIVE_FREQ_1 =   2022-12-03T01:36:01.066   2216501406.5
RECEIVE_FREQ_1 =   2022-12-03T01:36:11.088   2216501404.7
RECEIVE_FREQ_1 =   2022-12-03T01:36:21.110   2216501403.7
RECEIVE_FREQ_1 =   2022-12-03T01:36:31.046   2216501401.9
RECEIVE_FREQ_1 =   2022-12-03T01:36:41.069   2216501400.9
RECEIVE_FREQ_1 =   2022-12-03T01:36:51.091   2216501399.3
RECEIVE_FREQ_1 =   2022-12-03T01:37:01.114   2216501397.8
RECEIVE_FREQ_1 =   2022-12-03T01:37:11.050   2216501396.4
RECEIVE_FREQ_1 =   2022-12-03T01:37:21.072   2216501395.1
RECEIVE_FREQ_1 =   2022-12-03T01:37:31.094   2216501393.6
RECEIVE_FREQ_1 =   2022-12-03T01:37:41.117   2216501392.3
RECEIVE_FREQ_1 =   2022-12-03T01:37:51.053   2216501390.7
RECEIVE_FREQ_1 =   2022-12-03T01:38:01.075   2216501389.8
RECEIVE_FREQ_1 =   2022-12-03T01:38:11.098   2216501388.0
RECEIVE_FREQ_1 =   2022-12-03T01:38:21.120   2216501386.7
RECEIVE_FREQ_1 =   2022-12-03T01:38:31.056   2216501385.2
RECEIVE_FREQ_1 =   2022-12-03T01:38:41.078   2216501383.6
RECEIVE_FREQ_1 =   2022-12-03T01:38:51.101   2216501382.4
RECEIVE_FREQ_1 =   2022-12-03T01:39:01.037   2216501380.8
RECEIVE_FREQ_1 =   2022-12-03T01:39:11.059   2216501379.5
RECEIVE_FREQ_1 =   2022-12-03T01:39:21.082   2216501378.0
RECEIVE_FREQ_1 =   2022-12-03T01:39:31.104   2216501376.6
RECEIVE_FREQ_1 =   2022-12-03T01:39:41.040   2216501375.0
RECEIVE_FREQ_1 =   2022-12-03T01:39:51.062   2216501373.6
RECEIVE_FREQ_1 =   2022-12-03T01:40:01.085   2216501372.6
RECEIVE_FREQ_1 =   2022-12-03T01:40:11.107   2216501370.6
RECEIVE_FREQ_1 =   2022-12-03T01:40:21.130   2216501369.8
RECEIVE_FREQ_1 =   2022-12-03T01:40:31.066   2216501368.1
RECEIVE_FREQ_1 =   2022-12-03T01:40:41.088   2216501366.9
RECEIVE_FREQ_1 =   2022-12-03T01:40:51.110   2216501365.4
RECEIVE_FREQ_1 =   2022-12-03T01:41:11.069   2216501362.3
RECEIVE_FREQ_1 =   2022-12-03T01:41:21.091   2216501360.8
RECEIVE_FREQ_1 =   2022-12-03T01:41:31.114   2216501359.6
RECEIVE_FREQ_1 =   2022-12-03T01:41:41.050   2216501357.9
RECEIVE_FREQ_1 =   2022-12-03T01:41:51.072   2216501357.7
RECEIVE_FREQ_1 =   2022-12-03T01:42:01.094   2216501355.4
RECEIVE_FREQ_1 =   2022-12-03T01:42:11.117   2216501353.4
RECEIVE_FREQ_1 =   2022-12-03T01:42:21.053   2216501352.3
RECEIVE_FREQ_1 =   2022-12-03T01:42:31.075   2216501350.8
RECEIVE_FREQ_1 =   2022-12-03T01:42:41.098   2216501349.3
RECEIVE_FREQ_1 =   2022-12-03T01:42:51.120   2216501347.8
RECEIVE_FREQ_1 =   2022-12-03T01:43:01.056   2216501346.1
RECEIVE_FREQ_1 =   2022-12-03T01:43:11.078   2216501345.2
RECEIVE_FREQ_1 =   2022-12-03T01:43:21.101   2216501343.5
RECEIVE_FREQ_1 =   2022-12-03T01:43:31.123   2216501342.6
RECEIVE_FREQ_1 =   2022-12-03T01:43:41.059   2216501341.0
RECEIVE_FREQ_1 =   2022-12-03T01:43:51.082   2216501339.6
RECEIVE_FREQ_1 =   2022-12-03T01:44:01.104   2216501338.3
RECEIVE_FREQ_1 =   2022-12-03T01:44:11.040   2216501336.8
RECEIVE_FREQ_1 =   2022-12-03T01:44:21.062   2216501336.3
RECEIVE_FREQ_1 =   2022-12-03T01:44:31.085   2216501334.4
RECEIVE_FREQ_1 =   2022-12-03T01:44:41.107   2216501333.0
RECEIVE_FREQ_1 =   2022-12-03T01:44:51.043   2216501331.5
RECEIVE_FREQ_1 =   2022-12-03T01:45:01.066   2216501330.0
RECEIVE_FREQ_1 =   2022-12-03T01:45:11.088   2216501329.0
RECEIVE_FREQ_1 =   2022-12-03T01:45:21.110   2216501327.0
RECEIVE_FREQ_1 =   2022-12-03T01:45:31.046   2216501326.0
RECEIVE_FREQ_1 =   2022-12-03T01:45:41.069   2216501324.5
RECEIVE_FREQ_1 =   2022-12-03T01:45:51.091   2216501323.3
RECEIVE_FREQ_1 =   2022-12-03T01:46:01.114   2216501322.2
RECEIVE_FREQ_1 =   2022-12-03T01:46:11.050   2216501320.7
RECEIVE_FREQ_1 =   2022-12-03T01:46:21.072   2216501319.1
RECEIVE_FREQ_1 =   2022-12-03T01:46:31.094   2216501317.9
RECEIVE_FREQ_1 =   2022-12-03T01:46:41.117   2216501316.4
RECEIVE_FREQ_1 =   2022-12-03T01:46:51.053   2216501315.3
RECEIVE_FREQ_1 =   2022-12-03T01:47:01.075   2216501314.0
RECEIVE_FREQ_1 =   2022-12-03T01:47:11.098   2216501312.1
RECEIVE_FREQ_1 =   2022-12-03T01:47:31.056   2216501309.5
RECEIVE_FREQ_1 =   2022-12-03T01:47:41.078   2216501308.3
RECEIVE_FREQ_1 =   2022-12-03T01:47:51.101   2216501307.0
RECEIVE_FREQ_1 =   2022-12-03T01:48:11.059   2216501303.7
RECEIVE_FREQ_1 =   2022-12-03T01:48:21.082   2216501302.2
RECEIVE_FREQ_1 =   2022-12-03T01:48:31.104   2216501301.4
RECEIVE_FREQ_1 =   2022-12-03T01:48:41.040   2216501299.8
RECEIVE_FREQ_1 =   2022-12-03T01:48:51.062   2216501298.3
RECEIVE_FREQ_1 =   2022-12-03T01:49:01.085   2216501297.3
RECEIVE_FREQ_1 =   2022-12-03T01:49:11.107   2216501295.7
RECEIVE_FREQ_1 =   2022-12-03T01:49:21.043   2216501294.2
RECEIVE_FREQ_1 =   2022-12-03T01:49:31.066   2216501292.8
RECEIVE_FREQ_1 =   2022-12-03T01:49:41.088   2216501291.5
RECEIVE_FREQ_1 =   2022-12-03T01:49:51.110   2216501290.2
RECEIVE_FREQ_1 =   2022-12-03T01:50:01.133   2216501288.8
RECEIVE_FREQ_1 =   2022-12-03T01:50:11.069   2216501287.3
RECEIVE_FREQ_1 =   2022-12-03T01:50:21.091   2216501285.9
RECEIVE_FREQ_1 =   2022-12-03T01:50:31.114   2216501284.6
RECEIVE_FREQ_1 =   2022-12-03T01:50:41.050   2216501283.1
RECEIVE_FREQ_1 =   2022-12-03T01:50:51.072   2216501282.0
RECEIVE_FREQ_1 =   2022-12-03T01:51:01.094   2216501280.1
RECEIVE_FREQ_1 =   2022-12-03T01:51:11.117   2216501278.9
RECEIVE_FREQ_1 =   2022-12-03T01:51:21.053   2216501277.7
RECEIVE_FREQ_1 =   2022-12-03T01:51:31.075   2216501276.4
RECEIVE_FREQ_1 =   2022-12-03T01:51:41.098   2216501274.6
RECEIVE_FREQ_1 =   2022-12-03T01:51:51.120   2216501273.5
RECEIVE_FREQ_1 =   2022-12-03T01:52:01.056   2216501272.0
RECEIVE_FREQ_1 =   2022-12-03T01:52:11.078   2216501270.6
RECEIVE_FREQ_1 =   2022-12-03T01:52:21.101   2216501269.3
RECEIVE_FREQ_1 =   2022-12-03T01:52:31.123   2216501267.7
RECEIVE_FREQ_1 =   2022-12-03T01:52:41.059   2216501266.4
RECEIVE_FREQ_1 =   2022-12-03T01:52:51.082   2216501264.9
RECEIVE_FREQ_1 =   2022-12-03T01:53:01.104   2216501263.6
RECEIVE_FREQ_1 =   2022-12-03T01:53:11.040   2216501262.1
RECEIVE_FREQ_1 =   2022-12-03T01:53:21.062   2216501260.5
RECEIVE_FREQ_1 =   2022-12-03T01:53:31.085   2216501259.2
RECEIVE_FREQ_1 =   2022-12-03T01:53:41.107   2216501257.9
RECEIVE_FREQ_1 =   2022-12-03T01:53:51.130   2216501256.2
RECEIVE_FREQ_1 =   2022-12-03T01:54:01.066   2216501255.1
RECEIVE_FREQ_1 =   2022-12-03T01:54:21.110   2216501251.9
RECEIVE_FREQ_1 =   2022-12-03T01:54:31.046   2216501250.5
RECEIVE_FREQ_1 =   2022-12-03T01:54:41.069   2216501249.5
RECEIVE_FREQ_1 =   2022-12-03T01:54:51.091   2216501247.9
RECEIVE_FREQ_1 =   2022-12-03T01:55:01.114   2216501246.7
RECEIVE_FREQ_1 =   2022-12-03T01:55:11.136   2216501245.2
RECEIVE_FREQ_1 =   2022-12-03T01:55:21.072   2216501243.7
RECEIVE_FREQ_1 =   2022-12-03T01:55:31.094   2216501242.1
RECEIVE_FREQ_1 =   2022-12-03T01:55:41.117   2216501240.5
RECEIVE_FREQ_1 =   2022-12-03T01:55:51.053   2216501239.3
RECEIVE_FREQ_1 =   2022-12-03T01:56:01.075   2216501237.7
RECEIVE_FREQ_1 =   2022-12-03T01:56:11.098   2216501236.4
RECEIVE_FREQ_1 =   2022-12-03T01:56:21.120   2216501235.2
RECEIVE_FREQ_1 =   2022-12-03T01:56:31.056   2216501233.9
RECEIVE_FREQ_1 =   2022-12-03T01:56:41.078   2216501232.6
RECEIVE_FREQ_1 =   2022-12-03T01:56:51.101   2216501230.8
RECEIVE_FREQ_1 =   2022-12-03T01:57:01.123   2216501229.8
RECEIVE_FREQ_1 =   2022-12-03T01:57:11.059   2216501227.7
RECEIVE_FREQ_1 =   2022-12-03T01:57:21.082   2216501226.4
RECEIVE_FREQ_1 =   2022-12-03T01:57:31.104   2216501225.3
RECEIVE_FREQ_1 =   2022-12-03T01:57:41.040   2216501223.6
RECEIVE_FREQ_1 =   2022-12-03T01:57:51.062   2216501222.5
RECEIVE_FREQ_1 =   2022-12-03T01:58:01.085   2216501220.9
RECEIVE_FREQ_1 =   2022-12-03T01:58:11.107   2216501219.1
RECEIVE_FREQ_1 =   2022-12-03T01:58:21.043   2216501217.9
RECEIVE_FREQ_1 =   2022-12-03T01:58:31.066   2216501216.6
RECEIVE_FREQ_1 =   2022-12-03T01:58:41.088   2216501214.9
RECEIVE_FREQ_1 =   2022-12-03T01:58:51.110   2216501213.6
RECEIVE_FREQ_1 =   2022-12-03T01:59:01.046   2216501212.3
RECEIVE_FREQ_1 =   2022-12-03T01:59:11.069   2216501211.2
RECEIVE_FREQ_1 =   2022-12-03T01:59:21.091   2216501209.2
RECEIVE_FREQ_1 =   2022-12-03T01:59:31.114   2216501207.7
RECEIVE_FREQ_1 =   2022-12-03T01:59:41.050   2216501206.4
RECEIVE_FREQ_1 =   2022-12-03T01:59:51.072   2216501204.7
RECEIVE_FREQ_1 =   2022-12-03T02:00:01.094   2216501203.5
RECEIVE_FREQ_1 =   2022-12-03T02:00:11.030   2216501202.1
RECEIVE_FREQ_1 =   2022-12-03T02:00:21.053   2216501200.4
RECEIVE_FREQ_1 =   2022-12-03T02:00:31.075   2216501199.3
RECEIVE_FREQ_1 =   2022-12-03T02:00:41.098   2216501197.7
RECEIVE_FREQ_1 =   2022-12-03T02:00:51.120   2216501195.8
RECEIVE_FREQ_1 =   2022-12-03T02:01:01.056   2216501194.5
RECEIVE_FREQ_1 =   2022-12-03T02:01:11.078   2216501193.3
RECEIVE_FREQ_1 =   2022-12-03T02:01:21.101   2216501191.7
RECEIVE_FREQ_1 =   2022-12-03T02:01:31.037   2216501190.1
RECEIVE_FREQ_1 =   2022-12-03T02:01:41.059   2216501188.9
RECEIVE_FREQ_1 =   2022-12-03T02:01:51.082   2216501187.7
RECEIVE_FREQ_1 =   2022-12-03T02:02:01.104   2216501186.3
RECEIVE_FREQ_1 =   2022-12-03T02:02:11.126   2216501184.7
RECEIVE_FREQ_1 =   2022-12-03T02:02:21.062   2216501183.0
RECEIVE_FREQ_1 =   2022-12-03T02:02:31.085   2216501181.5
RECEIVE_FREQ_1 =   2022-12-03T02:02:41.107   2216501180.0
RECEIVE_FREQ_1 =   2022-12-03T02:02:51.043   2216501178.2
RECEIVE_FREQ_1 =   2022-12-03T02:03:01.066   2216501177.2
RECEIVE_FREQ_1 =   2022-12-03T02:03:11.088   2216501176.0
RECEIVE_FREQ_1 =   2022-12-03T02:03:21.110   2216501174.2
RECEIVE_FREQ_1 =   2022-12-03T02:03:31.046   2216501173.4
RECEIVE_FREQ_1 =   2022-12-03T02:03:41.069   2216501171.5
RECEIVE_FREQ_1 =   2022-12-03T02:03:51.091   2216501170.0
RECEIVE_FREQ_1 =   2022-12-03T02:04:01.114   2216501168.3
RECEIVE_FREQ_1 =   2022-12-03T02:04:11.050   2216501166.9
RECEIVE_FREQ_1 =   2022-12-03T02:04:21.072   2216501165.9
RECEIVE_FREQ_1 =   2022-12-03T02:04:31.094   2216501164.2
RECEIVE_FREQ_1 =   2022-12-03T02:04:41.117   2216501162.5
RECEIVE_FREQ_1 =   2022-12-03T02:04:51.053   2216501160.9
RECEIVE_FREQ_1 =   2022-12-03T02:05:01.075   2216501159.5
RECEIVE_FREQ_1 =   2022-12-03T02:05:11.098   2216501158.1
RECEIVE_FREQ_1 =   2022-12-03T02:05:21.034   2216501156.9
RECEIVE_FREQ_1 =   2022-12-03T02:05:31.056   2216501154.9
RECEIVE_FREQ_1 =   2022-12-03T02:05:41.078   2216501153.4
RECEIVE_FREQ_1 =   2022-12-03T02:05:51.101   2216501151.9
RECEIVE_FREQ_1 =   2022-12-03T02:06:01.037   2216501150.6
RECEIVE_FREQ_1 =   2022-12-03T02:06:11.059   2216501149.1
RECEIVE_FREQ_1 =   2022-12-03T02:06:31.104   2216501146.2
RECEIVE_FREQ_1 =   2022-12-03T02:06:41.126   2216501144.9
RECEIVE_FREQ_1 =   2022-12-03T02:06:51.149   2216501143.3
RECEIVE_FREQ_1 =   2022-12-03T02:07:01.085   2216501141.9
RECEIVE_FREQ_1 =   2022-12-03T02:07:11.107   2216501140.5
RECEIVE_FREQ_1 =   2022-12-03T02:07:21.130   2216501139.1
RECEIVE_FREQ_1 =   2022-12-03T02:07:31.066   2216501137.5
RECEIVE_FREQ_1 =   2022-12-03T02:07:51.110   2216501134.6
RECEIVE_FREQ_1 =   2022-12-03T02:08:01.046   2216501133.2
RECEIVE_FREQ_1 =   2022-12-03T02:08:11.069   2216501131.4
RECEIVE_FREQ_1 =   2022-12-03T02:08:21.091   2216501130.1
RECEIVE_FREQ_1 =   2022-12-03T02:08:31.114   2216501128.6
RECEIVE_FREQ_1 =   2022-12-03T02:08:41.050   2216501127.0
RECEIVE_FREQ_1 =   2022-12-03T02:08:51.072   2216501125.2
RECEIVE_FREQ_1 =   2022-12-03T02:09:01.094   2216501123.8
RECEIVE_FREQ_1 =   2022-12-03T02:09:11.117   2216501122.6
RECEIVE_FREQ_1 =   2022-12-03T02:09:21.053   2216501121.0
RECEIVE_FREQ_1 =   2022-12-03T02:09:31.075   2216501119.8
RECEIVE_FREQ_1 =   2022-12-03T02:09:41.098   2216501118.3
RECEIVE_FREQ_1 =   2022-12-03T02:09:51.120   2216501116.5
RECEIVE_FREQ_1 =   2022-12-03T02:10:01.056   2216501115.0
RECEIVE_FREQ_1 =   2022-12-03T02:10:11.078   2216501113.5
RECEIVE_FREQ_1 =   2022-12-03T02:10:21.101   2216501112.1
RECEIVE_FREQ_1 =   2022-12-03T02:10:31.123   2216501110.7
RECEIVE_FREQ_1 =   2022-12-03T02:10:41.059   2216501109.3
RECEIVE_FREQ_1 =   2022-12-03T02:10:51.082   2216501107.7
RECEIVE_FREQ_1 =   2022-12-03T02:11:01.104   2216501106.2
RECEIVE_FREQ_1 =   2022-12-03T02:11:11.040   2216501104.2
RECEIVE_FREQ_1 =   2022-12-03T02:11:21.062   2216501102.8
RECEIVE_FREQ_1 =   2022-12-03T02:11:31.085   2216501101.4
RECEIVE_FREQ_1 =   2022-12-03T02:11:41.107   2216501099.9
RECEIVE_FREQ_1 =   2022-12-03T02:11:51.043   2216501098.6
RECEIVE_FREQ_1 =   2022-12-03T02:12:01.066   2216501097.1
RECEIVE_FREQ_1 =   2022-12-03T02:12:11.088   2216501095.7
RECEIVE_FREQ_1 =   2022-12-03T02:12:21.110   2216501094.1
RECEIVE_FREQ_1 =   2022-12-03T02:12:31.046   2216501092.7
RECEIVE_FREQ_1 =   2022-12-03T02:12:41.069   2216501091.1
RECEIVE_FREQ_1 =   2022-12-03T02:12:51.091   2216501089.7
RECEIVE_FREQ_1 =   2022-12-03T02:13:01.114   2216501088.0
RECEIVE_FREQ_1 =   2022-12-03T02:13:11.050   2216501086.5
RECEIVE_FREQ_1 =   2022-12-03T02:13:21.072   2216501085.2
RECEIVE_FREQ_1 =   2022-12-03T02:13:31.094   2216501083.5
RECEIVE_FREQ_1 =   2022-12-03T02:13:41.117   2216501081.8
RECEIVE_FREQ_1 =   2022-12-03T02:13:51.053   2216501080.5
RECEIVE_FREQ_1 =   2022-12-03T02:14:01.075   2216501079.0
RECEIVE_FREQ_1 =   2022-12-03T02:14:11.098   2216501077.2
RECEIVE_FREQ_1 =   2022-12-03T02:14:21.120   2216501076.0
RECEIVE_FREQ_1 =   2022-12-03T02:14:31.056   2216501074.8
RECEIVE_FREQ_1 =   2022-12-03T02:14:41.078   2216501073.0
RECEIVE_FREQ_1 =   2022-12-03T02:14:51.101   2216501071.7
RECEIVE_FREQ_1 =   2022-12-03T02:15:01.037   2216501069.8
RECEIVE_FREQ_1 =   2022-12-03T02:15:11.146   2216501068.2
RECEIVE_FREQ_1 =   2022-12-03T02:15:21.082   2216501067.0
RECEIVE_FREQ_1 =   2022-12-03T02:15:31.104   2216501065.2
RECEIVE_FREQ_1 =   2022-12-03T02:15:41.040   2216501063.8
RECEIVE_FREQ_1 =   2022-12-03T02:15:51.062   2216501062.2
RECEIVE_FREQ_1 =   2022-12-03T02:16:01.085   2216501060.8
RECEIVE_FREQ_1 =   2022-12-03T02:16:11.107   2216501059.3
RECEIVE_FREQ_1 =   2022-12-03T02:16:21.043   2216501057.7
RECEIVE_FREQ_1 =   2022-12-03T02:16:31.066   2216501056.5
RECEIVE_FREQ_1 =   2022-12-03T02:16:41.088   2216501054.5
RECEIVE_FREQ_1 =   2022-12-03T02:16:51.110   2216501053.5
RECEIVE_FREQ_1 =   2022-12-03T02:17:01.046   2216501051.9
RECEIVE_FREQ_1 =   2022-12-03T02:17:11.069   2216501050.4
RECEIVE_FREQ_1 =   2022-12-03T02:17:21.091   2216501048.2
RECEIVE_FREQ_1 =   2022-12-03T02:17:31.114   2216501047.1
RECEIVE_FREQ_1 =   2022-12-03T02:17:41.050   2216501045.3
RECEIVE_FREQ_1 =   2022-12-03T02:17:51.072   2216501043.9
RECEIVE_FREQ_1 =   2022-12-03T02:18:01.094   2216501043.0
RECEIVE_FREQ_1 =   2022-12-03T02:18:11.117   2216501041.3
RECEIVE_FREQ_1 =   2022-12-03T02:18:21.053   2216501039.8
RECEIVE_FREQ_1 =   2022-12-03T02:18:31.075   2216501038.3
RECEIVE_FREQ_1 =   2022-12-03T02:18:41.098   2216501037.1
RECEIVE_FREQ_1 =   2022-12-03T02:18:51.120   2216501035.7
RECEIVE_FREQ_1 =   2022-12-03T02:19:01.056   2216501033.9
RECEIVE_FREQ_1 =   2022-12-03T02:19:11.078   2216501032.4
RECEIVE_FREQ_1 =   2022-12-03T02:19:21.101   2216501030.6
RECEIVE_FREQ_1 =   2022-12-03T02:19:31.037   2216501029.2
RECEIVE_FREQ_1 =   2022-12-03T02:19:41.059   2216501028.3
RECEIVE_FREQ_1 =   2022-12-03T02:19:51.082   2216501026.5
RECEIVE_FREQ_1 =   2022-12-03T02:20:01.104   2216501025.1
RECEIVE_FREQ_1 =   2022-12-03T02:20:11.126   2216501023.6
RECEIVE_FREQ_1 =   2022-12-03T02:20:21.149   2216501022.2
RECEIVE_FREQ_1 =   2022-12-03T02:20:31.085   2216501021.0
RECEIVE_FREQ_1 =   2022-12-03T02:20:41.107   2216501019.4
RECEIVE_FREQ_1 =   2022-12-03T02:20:51.043   2216501017.5
RECEIVE_FREQ_1 =   2022-12-03T02:21:01.066   2216501016.1
RECEIVE_FREQ_1 =   2022-12-03T02:21:11.088   2216501014.9
RECEIVE_FREQ_1 =   2022-12-03T02:21:21.110   2216501013.8
RECEIVE_FREQ_1 =   2022-12-03T02:21:31.046   2216501011.5
RECEIVE_FREQ_1 =   2022-12-03T02:21:41.069   2216501010.7
RECEIVE_FREQ_1 =   2022-12-03T02:21:51.091   2216501008.8
RECEIVE_FREQ_1 =   2022-12-03T02:22:01.114   2216501007.2
RECEIVE_FREQ_1 =   2022-12-03T02:22:11.050   2216501006.2
RECEIVE_FREQ_1 =   2022-12-03T02:22:21.072   2216501004.8
RECEIVE_FREQ_1 =   2022-12-03T02:22:31.094   2216501003.0
RECEIVE_FREQ_1 =   2022-12-03T02:22:41.117   2216501001.4
RECEIVE_FREQ_1 =   2022-12-03T02:22:51.053   2216501000.0
RECEIVE_FREQ_1 =   2022-12-03T02:23:01.075   2216500998.5
RECEIVE_FREQ_1 =   2022-12-03T02:23:11.098   2216500996.8
RECEIVE_FREQ_1 =   2022-12-03T02:23:21.034   2216500995.4
RECEIVE_FREQ_1 =   2022-12-03T02:23:31.056   2216500994.1
RECEIVE_FREQ_1 =   2022-12-03T02:23:41.078   2216500993.1
RECEIVE_FREQ_1 =   2022-12-03T02:23:51.101   2216500991.1
RECEIVE_FREQ_1 =   2022-12-03T02:24:01.123   2216500989.7
RECEIVE_FREQ_1 =   2022-12-03T02:24:11.059   2216500988.2
RECEIVE_FREQ_1 =   2022-12-03T02:24:21.082   2216500986.4
RECEIVE_FREQ_1 =   2022-12-03T02:24:31.104   2216500985.2
RECEIVE_FREQ_1 =   2022-12-03T02:24:41.040   2216500983.7
RECEIVE_FREQ_1 =   2022-12-03T02:24:51.062   2216500982.3
RECEIVE_FREQ_1 =   2022-12-03T02:25:01.085   2216500980.6
RECEIVE_FREQ_1 =   2022-12-03T02:25:11.107   2216500979.2
RECEIVE_FREQ_1 =   2022-12-03T02:25:21.043   2216500977.9
RECEIVE_FREQ_1 =   2022-12-03T02:25:31.066   2216500976.3
RECEIVE_FREQ_1 =   2022-12-03T02:25:41.088   2216500975.0
RECEIVE_FREQ_1 =   2022-12-03T02:25:51.110   2216500973.6
RECEIVE_FREQ_1 =   2022-12-03T02:26:01.046   2216500971.6
RECEIVE_FREQ_1 =   2022-12-03T02:26:11.069   2216500970.3
RECEIVE_FREQ_1 =   2022-12-03T02:26:21.091   2216500968.8
RECEIVE_FREQ_1 =   2022-12-03T02:26:31.114   2216500967.6
RECEIVE_FREQ_1 =   2022-12-03T02:26:41.050   2216500965.7
RECEIVE_FREQ_1 =   2022-12-03T02:26:51.072   2216500964.4
RECEIVE_FREQ_1 =   2022-12-03T02:27:01.094   2216500962.7
RECEIVE_FREQ_1 =   2022-12-03T02:27:11.117   2216500961.1
RECEIVE_FREQ_1 =   2022-12-03T02:27:21.053   2216500960.1
RECEIVE_FREQ_1 =   2022-12-03T02:27:31.075   2216500958.4
RECEIVE_FREQ_1 =   2022-12-03T02:27:41.098   2216500956.8
RECEIVE_FREQ_1 =   2022-12-03T02:27:51.120   2216500955.3
RECEIVE_FREQ_1 =   2022-12-03T02:28:01.056   2216500953.9
RECEIVE_FREQ_1 =   2022-12-03T02:28:11.078   2216500952.3
RECEIVE_FREQ_1 =   2022-12-03T02:28:21.101   2216500951.0
RECEIVE_FREQ_1 =   2022-12-03T02:28:31.123   2216500949.5
RECEIVE_FREQ_1 =   2022-12-03T02:28:41.059   2216500948.2
RECEIVE_FREQ_1 =   2022-12-03T02:28:51.082   2216500946.5
RECEIVE_FREQ_1 =   2022-12-03T02:29:01.104   2216500944.6
RECEIVE_FREQ_1 =   2022-12-03T02:29:11.040   2216500943.6
RECEIVE_FREQ_1 =   2022-12-03T02:29:21.062   2216500941.8
RECEIVE_FREQ_1 =   2022-12-03T02:29:31.085   2216500940.4
RECEIVE_FREQ_1 =   2022-12-03T02:29:41.107   2216500939.0
RECEIVE_FREQ_1 =   2022-12-03T02:29:51.043   2216500937.2
RECEIVE_FREQ_1 =   2022-12-03T02:30:01.066   2216500936.3
RECEIVE_FREQ_1 =   2022-12-03T02:30:11.088   2216500934.5
RECEIVE_FREQ_1 =   2022-12-03T02:30:21.110   2216500932.9
RECEIVE_FREQ_1 =   2022-12-03T02:30:31.046   2216500930.9
RECEIVE_FREQ_1 =   2022-12-03T02:30:41.069   2216500929.9
RECEIVE_FREQ_1 =   2022-12-03T02:30:51.091   2216500928.2
RECEIVE_FREQ_1 =   2022-12-03T02:31:01.114   2216500926.6
RECEIVE_FREQ_1 =   2022-12-03T02:31:11.050   2216500925.7
RECEIVE_FREQ_1 =   2022-12-03T02:31:21.072   2216500923.9
RECEIVE_FREQ_1 =   2022-12-03T02:31:31.094   2216500922.2
RECEIVE_FREQ_1 =   2022-12-03T02:31:41.117   2216500920.9
RECEIVE_FREQ_1 =   2022-12-03T02:31:51.053   2216500919.1
RECEIVE_FREQ_1 =   2022-12-03T02:32:01.075   2216500917.4
RECEIVE_FREQ_1 =   2022-12-03T02:32:11.098   2216500915.9
RECEIVE_FREQ_1 =   2022-12-03T02:32:21.120   2216500914.5
RECEIVE_FREQ_1 =   2022-12-03T02:32:31.056   2216500913.2
RECEIVE_FREQ_1 =   2022-12-03T02:32:41.078   2216500911.7
RECEIVE_FREQ_1 =   2022-12-03T02:32:51.101   2216500910.1
RECEIVE_FREQ_1 =   2022-12-03T02:33:01.123   2216500908.4
RECEIVE_FREQ_1 =   2022-12-03T02:33:11.059   2216500907.2
RECEIVE_FREQ_1 =   2022-12-03T02:33:21.082   2216500905.8
RECEIVE_FREQ_1 =   2022-12-03T02:33:31.104   2216500903.8
RECEIVE_FREQ_1 =   2022-12-03T02:33:41.126   2216500903.0
RECEIVE_FREQ_1 =   2022-12-03T02:33:51.062   2216500901.4
RECEIVE_FREQ_1 =   2022-12-03T02:34:01.085   2216500899.8
RECEIVE_FREQ_1 =   2022-12-03T02:34:11.107   2216500898.4
RECEIVE_FREQ_1 =   2022-12-03T02:34:21.043   2216500896.7
RECEIVE_FREQ_1 =   2022-12-03T02:34:31.066   2216500895.3
RECEIVE_FREQ_1 =   2022-12-03T02:34:41.088   2216500893.9
RECEIVE_FREQ_1 =   2022-12-03T02:34:51.110   2216500892.2
RECEIVE_FREQ_1 =   2022-12-03T02:35:01.046   2216500890.7
RECEIVE_FREQ_1 =   2022-12-03T02:35:11.069   2216500888.9
RECEIVE_FREQ_1 =   2022-12-03T02:35:21.091   2216500887.4
RECEIVE_FREQ_1 =   2022-12-03T02:35:31.114   2216500885.9
RECEIVE_FREQ_1 =   2022-12-03T02:35:41.050   2216500884.5
RECEIVE_FREQ_1 =   2022-12-03T02:35:51.072   2216500883.0
RECEIVE_FREQ_1 =   2022-12-03T02:36:01.094   2216500881.4
RECEIVE_FREQ_1 =   2022-12-03T02:36:11.030   2216500879.8
RECEIVE_FREQ_1 =   2022-12-03T02:36:21.053   2216500878.4
RECEIVE_FREQ_1 =   2022-12-03T02:36:31.075   2216500876.7
RECEIVE_FREQ_1 =   2022-12-03T02:36:41.098   2216500875.5
RECEIVE_FREQ_1 =   2022-12-03T02:36:51.120   2216500873.9
RECEIVE_FREQ_1 =   2022-12-03T02:37:01.056   2216500872.2
RECEIVE_FREQ_1 =   2022-12-03T02:37:11.078   2216500870.7
RECEIVE_FREQ_1 =   2022-12-03T02:37:21.101   2216500869.2
RECEIVE_FREQ_1 =   2022-12-03T02:37:31.037   2216500868.0
RECEIVE_FREQ_1 =   2022-12-03T02:37:41.059   2216500866.2
RECEIVE_FREQ_1 =   2022-12-03T02:37:51.082   2216500864.6
RECEIVE_FREQ_1 =   2022-12-03T02:38:01.104   2216500862.6
RECEIVE_FREQ_1 =   2022-12-03T02:38:11.126   2216500862.0
RECEIVE_FREQ_1 =   2022-12-03T02:38:21.062   2216500860.3
RECEIVE_FREQ_1 =   2022-12-03T02:38:31.085   2216500858.5
RECEIVE_FREQ_1 =   2022-12-03T02:38:41.107   2216500857.1
RECEIVE_FREQ_1 =   2022-12-03T02:38:51.130   2216500855.3
RECEIVE_FREQ_1 =   2022-12-03T02:39:01.066   2216500853.9
RECEIVE_FREQ_1 =   2022-12-03T02:39:11.088   2216500852.1
RECEIVE_FREQ_1 =   2022-12-03T02:39:21.110   2216500850.9
RECEIVE_FREQ_1 =   2022-12-03T02:39:31.133   2216500849.5
RECEIVE_FREQ_1 =   2022-12-03T02:39:41.155   2216500847.8
RECEIVE_FREQ_1 =   2022-12-03T02:39:51.091   2216500846.6
RECEIVE_FREQ_1 =   2022-12-03T02:40:01.114   2216500845.0
RECEIVE_FREQ_1 =   2022-12-03T02:40:11.050   2216500843.2
RECEIVE_FREQ_1 =   2022-12-03T02:40:21.072   2216500841.8
RECEIVE_FREQ_1 =   2022-12-03T02:40:31.094   2216500840.2
RECEIVE_FREQ_1 =   2022-12-03T02:40:41.117   2216500839.0
RECEIVE_FREQ_1 =   2022-12-03T02:40:51.053   2216500837.4
RECEIVE_FREQ_1 =   2022-12-03T02:41:01.075   2216500835.9
RECEIVE_FREQ_1 =   2022-12-03T02:41:11.098   2216500833.8
RECEIVE_FREQ_1 =   2022-12-03T02:41:21.034   2216500832.5
RECEIVE_FREQ_1 =   2022-12-03T02:41:31.056   2216500831.0
RECEIVE_FREQ_1 =   2022-12-03T02:41:41.078   2216500829.6
RECEIVE_FREQ_1 =   2022-12-03T02:41:51.101   2216500827.7
RECEIVE_FREQ_1 =   2022-12-03T02:42:01.123   2216500826.4
RECEIVE_FREQ_1 =   2022-12-03T02:42:11.059   2216500824.6
RECEIVE_FREQ_1 =   2022-12-03T02:42:21.082   2216500823.3
RECEIVE_FREQ_1 =   2022-12-03T02:42:31.104   2216500821.7
RECEIVE_FREQ_1 =   2022-12-03T02:42:41.126   2216500820.0
RECEIVE_FREQ_1 =   2022-12-03T02:42:51.062   2216500818.7
RECEIVE_FREQ_1 =   2022-12-03T02:43:01.085   2216500817.2
RECEIVE_FREQ_1 =   2022-12-03T02:43:11.107   2216500816.0
RECEIVE_FREQ_1 =   2022-12-03T02:43:21.043   2216500813.9
RECEIVE_FREQ_1 =   2022-12-03T02:43:31.066   2216500812.6
RECEIVE_FREQ_1 =   2022-12-03T02:43:41.088   2216500810.7
RECEIVE_FREQ_1 =   2022-12-03T02:43:51.110   2216500809.5
RECEIVE_FREQ_1 =   2022-12-03T02:44:01.046   2216500808.2
RECEIVE_FREQ_1 =   2022-12-03T02:44:11.069   2216500806.2
RECEIVE_FREQ_1 =   2022-12-03T02:44:21.091   2216500805.0
RECEIVE_FREQ_1 =   2022-12-03T02:44:31.114   2216500803.4
RECEIVE_FREQ_1 =   2022-12-03T02:44:41.050   2216500801.4
RECEIVE_FREQ_1 =   2022-12-03T02:44:51.072   2216500800.2
RECEIVE_FREQ_1 =   2022-12-03T02:45:01.094   2216500798.3
RECEIVE_FREQ_1 =   2022-12-03T02:45:11.117   2216500797.0
RECEIVE_FREQ_1 =   2022-12-03T02:45:21.053   2216500795.5
RECEIVE_FREQ_1 =   2022-12-03T02:45:31.075   2216500793.7
RECEIVE_FREQ_1 =   2022-12-03T02:45:41.098   2216500792.2
RECEIVE_FREQ_1 =   2022-12-03T02:45:51.120   2216500790.7
RECEIVE_FREQ_1 =   2022-12-03T02:46:01.056   2216500789.4
RECEIVE_FREQ_1 =   2022-12-03T02:46:11.078   2216500787.8
RECEIVE_FREQ_1 =   2022-12-03T02:46:21.101   2216500786.5
RECEIVE_FREQ_1 =   2022-12-03T02:46:31.037   2216500784.7
RECEIVE_FREQ_1 =   2022-12-03T02:46:41.059   2216500783.0
RECEIVE_FREQ_1 =   2022-12-03T02:46:51.082   2216500781.4
RECEIVE_FREQ_1 =   2022-12-03T02:47:01.104   2216500780.1
RECEIVE_FREQ_1 =   2022-12-03T02:47:11.040   2216500778.4
RECEIVE_FREQ_1 =   2022-12-03T02:47:21.062   2216500777.0
RECEIVE_FREQ_1 =   2022-12-03T02:47:31.085   2216500775.5
RECEIVE_FREQ_1 =   2022-12-03T02:47:41.107   2216500773.9
RECEIVE_FREQ_1 =   2022-12-03T02:47:51.130   2216500772.0
RECEIVE_FREQ_1 =   2022-12-03T02:48:01.066   2216500770.6
RECEIVE_FREQ_1 =   2022-12-03T02:48:11.088   2216500769.5
RECEIVE_FREQ_1 =   2022-12-03T02:48:21.110   2216500767.7
RECEIVE_FREQ_1 =   2022-12-03T02:48:31.046   2216500766.0
RECEIVE_FREQ_1 =   2022-12-03T02:48:41.069   2216500764.4
RECEIVE_FREQ_1 =   2022-12-03T02:48:51.091   2216500762.9
RECEIVE_FREQ_1 =   2022-12-03T02:49:01.114   2216500761.4
RECEIVE_FREQ_1 =   2022-12-03T02:49:11.136   2216500760.0
RECEIVE_FREQ_1 =   2022-12-03T02:49:21.072   2216500758.5
RECEIVE_FREQ_1 =   2022-12-03T02:49:31.094   2216500756.8
RECEIVE_FREQ_1 =   2022-12-03T02:49:41.117   2216500754.8
RECEIVE_FREQ_1 =   2022-12-03T02:49:51.053   2216500753.4
RECEIVE_FREQ_1 =   2022-12-03T02:50:01.075   2216500751.9
RECEIVE_FREQ_1 =   2022-12-03T02:50:11.098   2216500750.6
RECEIVE_FREQ_1 =   2022-12-03T02:50:21.120   2216500749.3
RECEIVE_FREQ_1 =   2022-12-03T02:50:31.056   2216500747.4
RECEIVE_FREQ_1 =   2022-12-03T02:50:41.078   2216500745.8
RECEIVE_FREQ_1 =   2022-12-03T02:50:51.101   2216500744.4
RECEIVE_FREQ_1 =   2022-12-03T02:51:01.123   2216500742.7
RECEIVE_FREQ_1 =   2022-12-03T02:51:11.059   2216500740.9
RECEIVE_FREQ_1 =   2022-12-03T02:51:21.082   2216500739.6
RECEIVE_FREQ_1 =   2022-12-03T02:51:31.104   2216500738.0
RECEIVE_FREQ_1 =   2022-12-03T02:51:41.126   2216500736.1
RECEIVE_FREQ_1 =   2022-12-03T02:51:51.062   2216500734.5
RECEIVE_FREQ_1 =   2022-12-03T02:52:01.085   2216500733.2
RECEIVE_FREQ_1 =   2022-12-03T02:52:11.107   2216500731.9
RECEIVE_FREQ_1 =   2022-12-03T02:52:21.130   2216500730.2
RECEIVE_FREQ_1 =   2022-12-03T02:52:31.066   2216500729.1
RECEIVE_FREQ_1 =   2022-12-03T02:52:41.088   2216500726.8
RECEIVE_FREQ_1 =   2022-12-03T02:52:51.110   2216500725.6
RECEIVE_FREQ_1 =   2022-12-03T02:53:01.046   2216500723.9
RECEIVE_FREQ_1 =   2022-12-03T02:53:11.069   2216500722.8
RECEIVE_FREQ_1 =   2022-12-03T02:53:21.091   2216500720.6
RECEIVE_FREQ_1 =   2022-12-03T02:53:31.114   2216500719.2
RECEIVE_FREQ_1 =   2022-12-03T02:53:41.050   2216500718.2
RECEIVE_FREQ_1 =   2022-12-03T02:53:51.072   2216500716.4
RECEIVE_FREQ_1 =   2022-12-03T02:54:01.094   2216500714.8
RECEIVE_FREQ_1 =   2022-12-03T02:54:11.117   2216500713.0
RECEIVE_FREQ_1 =   2022-12-03T02:54:21.053   2216500711.1
RECEIVE_FREQ_1 =   2022-12-03T02:54:31.075   2216500709.8
RECEIVE_FREQ_1 =   2022-12-03T02:54:41.098   2216500708.1
RECEIVE_FREQ_1 =   2022-12-03T02:54:51.120   2216500707.0
RECEIVE_FREQ_1 =   2022-12-03T02:55:01.056   2216500705.5
RECEIVE_FREQ_1 =   2022-12-03T02:55:11.078   2216500703.9
RECEIVE_FREQ_1 =   2022-12-03T02:55:21.101   2216500702.1
RECEIVE_FREQ_1 =   2022-12-03T02:55:31.123   2216500700.5
RECEIVE_FREQ_1 =   2022-12-03T02:55:41.059   2216500698.9
RECEIVE_FREQ_1 =   2022-12-03T02:55:51.082   2216500697.3
RECEIVE_FREQ_1 =   2022-12-03T02:56:01.104   2216500695.8
RECEIVE_FREQ_1 =   2022-12-03T02:56:11.040   2216500694.3
RECEIVE_FREQ_1 =   2022-12-03T02:56:21.062   2216500693.0
RECEIVE_FREQ_1 =   2022-12-03T02:56:31.085   2216500691.1
RECEIVE_FREQ_1 =   2022-12-03T02:56:41.107   2216500689.2
RECEIVE_FREQ_1 =   2022-12-03T02:56:51.043   2216500687.8
RECEIVE_FREQ_1 =   2022-12-03T02:57:01.066   2216500686.7
RECEIVE_FREQ_1 =   2022-12-03T02:57:11.088   2216500685.0
RECEIVE_FREQ_1 =   2022-12-03T02:57:21.110   2216500683.5
RECEIVE_FREQ_1 =   2022-12-03T02:57:31.046   2216500682.0
RECEIVE_FREQ_1 =   2022-12-03T02:57:41.069   2216500680.1
RECEIVE_FREQ_1 =   2022-12-03T02:57:51.091   2216500678.5
RECEIVE_FREQ_1 =   2022-12-03T02:58:01.114   2216500676.7
RECEIVE_FREQ_1 =   2022-12-03T02:58:11.050   2216500675.6
RECEIVE_FREQ_1 =   2022-12-03T02:58:21.072   2216500673.6
RECEIVE_FREQ_1 =   2022-12-03T02:58:31.094   2216500672.5
RECEIVE_FREQ_1 =   2022-12-03T02:58:41.117   2216500670.6
RECEIVE_FREQ_1 =   2022-12-03T02:58:51.053   2216500668.9
RECEIVE_FREQ_1 =   2022-12-03T02:59:01.075   2216500667.9
RECEIVE_FREQ_1 =   2022-12-03T02:59:11.098   2216500665.8
RECEIVE_FREQ_1 =   2022-12-03T02:59:21.120   2216500664.3
RECEIVE_FREQ_1 =   2022-12-03T02:59:31.056   2216500662.5
RECEIVE_FREQ_1 =   2022-12-03T02:59:41.078   2216500661.4
RECEIVE_FREQ_1 =   2022-12-03T02:59:51.101   2216500659.7
RECEIVE_FREQ_1 =   2022-12-03T03:00:01.037   2216500658.1
