data/tdm/2022-11-24Z_2022-156A.tdm

CCSDS_TDM_VERS = 2.0
COMMENT TDM ARTEMIS 1 Doppler data by Scott Tilley for 2022-11-24 UTC
COMMENT Signal not demodulated, to low of SNR, centre carrier integrated in 10s by 0.1Hz bin and extracted for peak value.
CREATION_DATE = 2022-11-24Z
ORIGINATOR = SCOTT TILLEY

META_START
COMMENT 
COMMENT 
SYSTEM TIME = UTC
PARTICIPANT_1 = COSPAR 8049
PARTICIPANT_2 = 2022-156A
MODE = SEQUENTIAL
PATH = 2,1
INTEGRATION_INTERVAL = 10
INTEGRATION_REF = MIDDLE
FREQ_OFFSET = 0
TRANSMIT_DELAY_1 = 0
RECEIVE_DELAY_1 = 0
DATA_QUALITY = RAW
META_STOP

DATA_START
RECEIVE_FREQ_1 =   2022-11-24T19:03:04.406   2216498741.3
RECEIVE_FREQ_1 =   2022-11-24T19:03:14.861   2216498740.6
RECEIVE_FREQ_1 =   2022-11-24T19:03:25.402   2216498739.5
RECEIVE_FREQ_1 =   2022-11-24T19:03:35.856   2216498738.7
RECEIVE_FREQ_1 =   2022-11-24T19:03:56.851   2216498736.8
RECEIVE_FREQ_1 =   2022-11-24T19:04:07.392   2216498735.6
RECEIVE_FREQ_1 =   2022-11-24T19:04:28.387   2216498733.4
RECEIVE_FREQ_1 =   2022-11-24T19:04:38.842   2216498732.6
RECEIVE_FREQ_1 =   2022-11-24T19:04:59.837   2216498730.5
RECEIVE_FREQ_1 =   2022-11-24T19:05:20.832   2216498728.5
RECEIVE_FREQ_1 =   2022-11-24T19:05:31.373   2216498727.5
RECEIVE_FREQ_1 =   2022-11-24T19:05:41.914   2216498726.4
RECEIVE_FREQ_1 =   2022-11-24T19:05:52.368   2216498725.3
RECEIVE_FREQ_1 =   2022-11-24T19:06:44.899   2216498720.1
RECEIVE_FREQ_1 =   2022-11-24T19:06:55.440   2216498719.2
RECEIVE_FREQ_1 =   2022-11-24T19:07:05.894   2216498718.0
RECEIVE_FREQ_1 =   2022-11-24T19:07:16.435   2216498717.3
RECEIVE_FREQ_1 =   2022-11-24T19:07:26.976   2216498716.2
RECEIVE_FREQ_1 =   2022-11-24T19:07:37.430   2216498715.0
RECEIVE_FREQ_1 =   2022-11-24T19:07:47.971   2216498713.9
RECEIVE_FREQ_1 =   2022-11-24T19:07:58.512   2216498712.9
RECEIVE_FREQ_1 =   2022-11-24T19:08:19.507   2216498711.1
RECEIVE_FREQ_1 =   2022-11-24T19:08:30.048   2216498710.0
RECEIVE_FREQ_1 =   2022-11-24T19:08:40.502   2216498709.0
RECEIVE_FREQ_1 =   2022-11-24T19:08:51.043   2216498707.9
RECEIVE_FREQ_1 =   2022-11-24T19:09:01.584   2216498706.7
RECEIVE_FREQ_1 =   2022-11-24T19:09:12.038   2216498705.5
RECEIVE_FREQ_1 =   2022-11-24T19:09:22.579   2216498704.4
RECEIVE_FREQ_1 =   2022-11-24T19:09:33.120   2216498703.7
RECEIVE_FREQ_1 =   2022-11-24T19:09:43.661   2216498702.6
RECEIVE_FREQ_1 =   2022-11-24T19:09:54.115   2216498701.6
RECEIVE_FREQ_1 =   2022-11-24T19:10:04.656   2216498700.4
RECEIVE_FREQ_1 =   2022-11-24T19:10:15.110   2216498699.5
RECEIVE_FREQ_1 =   2022-11-24T19:10:25.651   2216498698.3
RECEIVE_FREQ_1 =   2022-11-24T19:10:36.106   2216498697.2
RECEIVE_FREQ_1 =   2022-11-24T19:10:46.646   2216498695.8
RECEIVE_FREQ_1 =   2022-11-24T19:10:57.187   2216498695.0
RECEIVE_FREQ_1 =   2022-11-24T19:11:07.728   2216498694.0
RECEIVE_FREQ_1 =   2022-11-24T19:11:18.269   2216498692.8
RECEIVE_FREQ_1 =   2022-11-24T19:11:28.723   2216498691.8
RECEIVE_FREQ_1 =   2022-11-24T19:11:39.264   2216498690.8
RECEIVE_FREQ_1 =   2022-11-24T19:11:49.805   2216498689.6
RECEIVE_FREQ_1 =   2022-11-24T19:12:00.259   2216498688.2
RECEIVE_FREQ_1 =   2022-11-24T19:12:10.800   2216498687.6
RECEIVE_FREQ_1 =   2022-11-24T19:12:21.341   2216498686.9
RECEIVE_FREQ_1 =   2022-11-24T19:12:31.795   2216498685.4
RECEIVE_FREQ_1 =   2022-11-24T19:12:42.422   2216498684.4
RECEIVE_FREQ_1 =   2022-11-24T19:12:52.963   2216498682.9
RECEIVE_FREQ_1 =   2022-11-24T19:13:03.504   2216498682.0
RECEIVE_FREQ_1 =   2022-11-24T19:13:14.045   2216498681.0
RECEIVE_FREQ_1 =   2022-11-24T19:13:24.586   2216498679.9
RECEIVE_FREQ_1 =   2022-11-24T19:13:35.040   2216498679.2
RECEIVE_FREQ_1 =   2022-11-24T19:13:45.581   2216498677.8
RECEIVE_FREQ_1 =   2022-11-24T19:13:56.122   2216498676.8
RECEIVE_FREQ_1 =   2022-11-24T19:14:06.662   2216498675.6
RECEIVE_FREQ_1 =   2022-11-24T19:14:17.203   2216498674.4
RECEIVE_FREQ_1 =   2022-11-24T19:14:27.658   2216498673.2
RECEIVE_FREQ_1 =   2022-11-24T19:14:38.198   2216498672.5
RECEIVE_FREQ_1 =   2022-11-24T19:14:48.739   2216498671.2
RECEIVE_FREQ_1 =   2022-11-24T19:14:59.194   2216498670.2
RECEIVE_FREQ_1 =   2022-11-24T19:15:09.734   2216498669.2
RECEIVE_FREQ_1 =   2022-11-24T19:15:20.189   2216498667.7
RECEIVE_FREQ_1 =   2022-11-24T19:15:30.730   2216498666.8
RECEIVE_FREQ_1 =   2022-11-24T19:15:41.270   2216498665.8
RECEIVE_FREQ_1 =   2022-11-24T19:15:51.811   2216498664.4
RECEIVE_FREQ_1 =   2022-11-24T19:16:02.352   2216498663.7
RECEIVE_FREQ_1 =   2022-11-24T19:16:12.806   2216498662.2
RECEIVE_FREQ_1 =   2022-11-24T19:16:23.347   2216498661.5
RECEIVE_FREQ_1 =   2022-11-24T19:16:33.888   2216498660.3
RECEIVE_FREQ_1 =   2022-11-24T19:16:44.429   2216498659.2
RECEIVE_FREQ_1 =   2022-11-24T19:16:54.883   2216498658.1
RECEIVE_FREQ_1 =   2022-11-24T19:17:05.424   2216498656.9
RECEIVE_FREQ_1 =   2022-11-24T19:17:15.965   2216498655.8
RECEIVE_FREQ_1 =   2022-11-24T19:17:26.506   2216498654.7
RECEIVE_FREQ_1 =   2022-11-24T19:17:36.960   2216498653.5
RECEIVE_FREQ_1 =   2022-11-24T19:17:47.501   2216498652.6
RECEIVE_FREQ_1 =   2022-11-24T19:17:58.042   2216498651.3
RECEIVE_FREQ_1 =   2022-11-24T19:18:08.496   2216498650.1
RECEIVE_FREQ_1 =   2022-11-24T19:18:19.037   2216498649.1
RECEIVE_FREQ_1 =   2022-11-24T19:18:29.491   2216498647.8
RECEIVE_FREQ_1 =   2022-11-24T19:18:40.032   2216498646.6
RECEIVE_FREQ_1 =   2022-11-24T19:18:50.486   2216498645.9
RECEIVE_FREQ_1 =   2022-11-24T19:19:01.027   2216498644.3
RECEIVE_FREQ_1 =   2022-11-24T19:19:11.482   2216498643.3
RECEIVE_FREQ_1 =   2022-11-24T19:19:22.022   2216498642.2
RECEIVE_FREQ_1 =   2022-11-24T19:19:32.477   2216498641.2
RECEIVE_FREQ_1 =   2022-11-24T19:19:43.018   2216498640.1
RECEIVE_FREQ_1 =   2022-11-24T19:19:53.472   2216498638.9
RECEIVE_FREQ_1 =   2022-11-24T19:20:04.013   2216498638.0
RECEIVE_FREQ_1 =   2022-11-24T19:20:14.467   2216498636.7
RECEIVE_FREQ_1 =   2022-11-24T19:20:25.008   2216498635.4
RECEIVE_FREQ_1 =   2022-11-24T19:20:35.549   2216498634.3
RECEIVE_FREQ_1 =   2022-11-24T19:20:46.003   2216498633.3
RECEIVE_FREQ_1 =   2022-11-24T19:20:56.544   2216498632.2
RECEIVE_FREQ_1 =   2022-11-24T19:21:06.998   2216498630.8
RECEIVE_FREQ_1 =   2022-11-24T19:21:17.539   2216498629.6
RECEIVE_FREQ_1 =   2022-11-24T19:21:28.080   2216498628.6
RECEIVE_FREQ_1 =   2022-11-24T19:21:38.621   2216498627.6
RECEIVE_FREQ_1 =   2022-11-24T19:21:49.162   2216498626.4
RECEIVE_FREQ_1 =   2022-11-24T19:21:59.702   2216498625.0
RECEIVE_FREQ_1 =   2022-11-24T19:22:10.157   2216498623.9
RECEIVE_FREQ_1 =   2022-11-24T19:22:20.698   2216498622.8
RECEIVE_FREQ_1 =   2022-11-24T19:22:31.238   2216498621.7
RECEIVE_FREQ_1 =   2022-11-24T19:22:41.693   2216498620.4
RECEIVE_FREQ_1 =   2022-11-24T19:22:52.234   2216498619.4
RECEIVE_FREQ_1 =   2022-11-24T19:23:02.774   2216498618.2
RECEIVE_FREQ_1 =   2022-11-24T19:23:13.229   2216498617.2
RECEIVE_FREQ_1 =   2022-11-24T19:23:23.770   2216498615.6
RECEIVE_FREQ_1 =   2022-11-24T19:23:34.310   2216498614.6
RECEIVE_FREQ_1 =   2022-11-24T19:23:44.765   2216498613.5
RECEIVE_FREQ_1 =   2022-11-24T19:23:55.306   2216498612.5
RECEIVE_FREQ_1 =   2022-11-24T19:24:05.760   2216498611.2
RECEIVE_FREQ_1 =   2022-11-24T19:24:16.301   2216498610.0
RECEIVE_FREQ_1 =   2022-11-24T19:24:26.842   2216498609.0
RECEIVE_FREQ_1 =   2022-11-24T19:24:37.382   2216498607.5
RECEIVE_FREQ_1 =   2022-11-24T19:24:47.923   2216498606.6
RECEIVE_FREQ_1 =   2022-11-24T19:24:58.378   2216498605.4
RECEIVE_FREQ_1 =   2022-11-24T19:25:08.918   2216498604.0
RECEIVE_FREQ_1 =   2022-11-24T19:25:19.459   2216498603.0
RECEIVE_FREQ_1 =   2022-11-24T19:25:29.914   2216498602.2
RECEIVE_FREQ_1 =   2022-11-24T19:25:40.454   2216498600.7
RECEIVE_FREQ_1 =   2022-11-24T19:25:50.909   2216498599.8
RECEIVE_FREQ_1 =   2022-11-24T19:26:01.450   2216498598.6
RECEIVE_FREQ_1 =   2022-11-24T19:26:11.990   2216498597.3
RECEIVE_FREQ_1 =   2022-11-24T19:26:22.445   2216498596.2
RECEIVE_FREQ_1 =   2022-11-24T19:26:32.986   2216498594.8
RECEIVE_FREQ_1 =   2022-11-24T19:26:43.526   2216498593.8
RECEIVE_FREQ_1 =   2022-11-24T19:26:53.981   2216498592.5
RECEIVE_FREQ_1 =   2022-11-24T19:27:04.522   2216498591.5
RECEIVE_FREQ_1 =   2022-11-24T19:27:15.062   2216498590.1
RECEIVE_FREQ_1 =   2022-11-24T19:27:25.517   2216498588.8
RECEIVE_FREQ_1 =   2022-11-24T19:27:36.058   2216498587.8
RECEIVE_FREQ_1 =   2022-11-24T19:27:46.598   2216498586.6
RECEIVE_FREQ_1 =   2022-11-24T19:27:57.139   2216498585.1
RECEIVE_FREQ_1 =   2022-11-24T19:28:07.594   2216498584.3
RECEIVE_FREQ_1 =   2022-11-24T19:28:18.134   2216498583.1
RECEIVE_FREQ_1 =   2022-11-24T19:28:28.589   2216498581.7
RECEIVE_FREQ_1 =   2022-11-24T19:28:39.130   2216498580.6
RECEIVE_FREQ_1 =   2022-11-24T19:28:49.670   2216498579.3
RECEIVE_FREQ_1 =   2022-11-24T19:29:00.125   2216498578.0
RECEIVE_FREQ_1 =   2022-11-24T19:29:10.579   2216498576.7
RECEIVE_FREQ_1 =   2022-11-24T19:29:21.120   2216498575.9
RECEIVE_FREQ_1 =   2022-11-24T19:29:31.661   2216498574.4
RECEIVE_FREQ_1 =   2022-11-24T19:29:42.115   2216498573.5
RECEIVE_FREQ_1 =   2022-11-24T19:29:52.656   2216498572.1
RECEIVE_FREQ_1 =   2022-11-24T19:30:03.110   2216498570.8
RECEIVE_FREQ_1 =   2022-11-24T19:30:13.651   2216498569.9
RECEIVE_FREQ_1 =   2022-11-24T19:30:24.106   2216498568.5
RECEIVE_FREQ_1 =   2022-11-24T19:30:34.646   2216498567.4
RECEIVE_FREQ_1 =   2022-11-24T19:30:45.101   2216498566.4
RECEIVE_FREQ_1 =   2022-11-24T19:30:55.642   2216498565.1
RECEIVE_FREQ_1 =   2022-11-24T19:31:06.182   2216498564.1
RECEIVE_FREQ_1 =   2022-11-24T19:31:16.723   2216498562.8
RECEIVE_FREQ_1 =   2022-11-24T19:31:27.178   2216498561.8
RECEIVE_FREQ_1 =   2022-11-24T19:31:37.718   2216498560.9
RECEIVE_FREQ_1 =   2022-11-24T19:31:48.259   2216498559.9
RECEIVE_FREQ_1 =   2022-11-24T19:31:58.800   2216498558.5
RECEIVE_FREQ_1 =   2022-11-24T19:32:09.254   2216498557.1
RECEIVE_FREQ_1 =   2022-11-24T19:32:19.795   2216498556.3
RECEIVE_FREQ_1 =   2022-11-24T19:32:30.250   2216498555.0
RECEIVE_FREQ_1 =   2022-11-24T19:32:40.790   2216498553.9
RECEIVE_FREQ_1 =   2022-11-24T19:32:51.245   2216498552.7
RECEIVE_FREQ_1 =   2022-11-24T19:33:01.786   2216498551.6
RECEIVE_FREQ_1 =   2022-11-24T19:33:12.326   2216498550.5
RECEIVE_FREQ_1 =   2022-11-24T19:33:22.867   2216498549.7
RECEIVE_FREQ_1 =   2022-11-24T19:33:33.322   2216498548.2
RECEIVE_FREQ_1 =   2022-11-24T19:33:43.949   2216498547.3
RECEIVE_FREQ_1 =   2022-11-24T19:33:54.403   2216498546.1
RECEIVE_FREQ_1 =   2022-11-24T19:34:04.944   2216498545.0
RECEIVE_FREQ_1 =   2022-11-24T19:34:15.485   2216498543.8
RECEIVE_FREQ_1 =   2022-11-24T19:34:26.026   2216498542.6
RECEIVE_FREQ_1 =   2022-11-24T19:34:36.480   2216498541.5
RECEIVE_FREQ_1 =   2022-11-24T19:34:47.021   2216498540.5
RECEIVE_FREQ_1 =   2022-11-24T19:34:57.475   2216498539.0
RECEIVE_FREQ_1 =   2022-11-24T19:35:08.016   2216498538.4
RECEIVE_FREQ_1 =   2022-11-24T19:35:18.557   2216498537.0
RECEIVE_FREQ_1 =   2022-11-24T19:35:29.011   2216498535.7
RECEIVE_FREQ_1 =   2022-11-24T19:35:39.552   2216498534.8
RECEIVE_FREQ_1 =   2022-11-24T19:35:50.006   2216498533.7
RECEIVE_FREQ_1 =   2022-11-24T19:36:00.547   2216498532.3
RECEIVE_FREQ_1 =   2022-11-24T19:36:11.002   2216498531.2
RECEIVE_FREQ_1 =   2022-11-24T19:36:21.542   2216498530.3
RECEIVE_FREQ_1 =   2022-11-24T19:36:32.083   2216498529.1
RECEIVE_FREQ_1 =   2022-11-24T19:36:42.538   2216498527.8
RECEIVE_FREQ_1 =   2022-11-24T19:36:53.078   2216498526.7
RECEIVE_FREQ_1 =   2022-11-24T19:37:03.619   2216498525.4
RECEIVE_FREQ_1 =   2022-11-24T19:37:14.160   2216498524.6
RECEIVE_FREQ_1 =   2022-11-24T19:37:24.701   2216498523.1
RECEIVE_FREQ_1 =   2022-11-24T19:37:35.155   2216498522.0
RECEIVE_FREQ_1 =   2022-11-24T19:37:45.696   2216498520.6
RECEIVE_FREQ_1 =   2022-11-24T19:37:56.237   2216498519.9
RECEIVE_FREQ_1 =   2022-11-24T19:38:06.778   2216498518.7
RECEIVE_FREQ_1 =   2022-11-24T19:38:17.318   2216498517.4
RECEIVE_FREQ_1 =   2022-11-24T19:38:27.859   2216498516.3
RECEIVE_FREQ_1 =   2022-11-24T19:38:38.400   2216498515.0
RECEIVE_FREQ_1 =   2022-11-24T19:38:48.941   2216498513.7
RECEIVE_FREQ_1 =   2022-11-24T19:38:59.395   2216498512.7
RECEIVE_FREQ_1 =   2022-11-24T19:39:09.936   2216498511.4
RECEIVE_FREQ_1 =   2022-11-24T19:39:20.390   2216498510.4
RECEIVE_FREQ_1 =   2022-11-24T19:39:30.931   2216498508.8
RECEIVE_FREQ_1 =   2022-11-24T19:39:41.472   2216498508.1
RECEIVE_FREQ_1 =   2022-11-24T19:39:51.926   2216498506.6
RECEIVE_FREQ_1 =   2022-11-24T19:40:02.467   2216498505.5
RECEIVE_FREQ_1 =   2022-11-24T19:40:12.922   2216498504.6
RECEIVE_FREQ_1 =   2022-11-24T19:40:23.462   2216498503.2
RECEIVE_FREQ_1 =   2022-11-24T19:40:34.003   2216498502.0
RECEIVE_FREQ_1 =   2022-11-24T19:40:44.458   2216498500.9
RECEIVE_FREQ_1 =   2022-11-24T19:40:54.998   2216498499.7
RECEIVE_FREQ_1 =   2022-11-24T19:41:05.539   2216498498.8
RECEIVE_FREQ_1 =   2022-11-24T19:41:16.080   2216498497.2
RECEIVE_FREQ_1 =   2022-11-24T19:41:26.621   2216498496.4
RECEIVE_FREQ_1 =   2022-11-24T19:41:37.162   2216498495.0
RECEIVE_FREQ_1 =   2022-11-24T19:41:47.616   2216498494.0
RECEIVE_FREQ_1 =   2022-11-24T19:41:58.157   2216498492.5
RECEIVE_FREQ_1 =   2022-11-24T19:42:08.698   2216498491.5
RECEIVE_FREQ_1 =   2022-11-24T19:42:19.152   2216498490.4
RECEIVE_FREQ_1 =   2022-11-24T19:42:29.693   2216498489.1
RECEIVE_FREQ_1 =   2022-11-24T19:42:40.234   2216498488.3
RECEIVE_FREQ_1 =   2022-11-24T19:42:50.688   2216498486.8
RECEIVE_FREQ_1 =   2022-11-24T19:43:01.229   2216498485.6
RECEIVE_FREQ_1 =   2022-11-24T19:43:11.770   2216498484.6
RECEIVE_FREQ_1 =   2022-11-24T19:43:22.310   2216498483.1
RECEIVE_FREQ_1 =   2022-11-24T19:43:32.851   2216498481.9
RECEIVE_FREQ_1 =   2022-11-24T19:43:43.392   2216498481.0
RECEIVE_FREQ_1 =   2022-11-24T19:43:53.933   2216498479.8
RECEIVE_FREQ_1 =   2022-11-24T19:44:04.474   2216498478.7
RECEIVE_FREQ_1 =   2022-11-24T19:44:14.928   2216498477.3
RECEIVE_FREQ_1 =   2022-11-24T19:44:25.469   2216498476.1
RECEIVE_FREQ_1 =   2022-11-24T19:44:35.923   2216498474.7
RECEIVE_FREQ_1 =   2022-11-24T19:44:46.464   2216498473.7
RECEIVE_FREQ_1 =   2022-11-24T19:44:57.005   2216498472.3
RECEIVE_FREQ_1 =   2022-11-24T19:45:07.459   2216498471.4
RECEIVE_FREQ_1 =   2022-11-24T19:45:18.000   2216498470.0
RECEIVE_FREQ_1 =   2022-11-24T19:45:28.454   2216498468.8
RECEIVE_FREQ_1 =   2022-11-24T19:45:38.995   2216498467.6
RECEIVE_FREQ_1 =   2022-11-24T19:45:49.450   2216498466.1
RECEIVE_FREQ_1 =   2022-11-24T19:45:59.990   2216498464.9
RECEIVE_FREQ_1 =   2022-11-24T19:46:10.445   2216498464.0
RECEIVE_FREQ_1 =   2022-11-24T19:46:20.986   2216498462.8
RECEIVE_FREQ_1 =   2022-11-24T19:46:31.440   2216498461.5
RECEIVE_FREQ_1 =   2022-11-24T19:46:41.981   2216498460.4
RECEIVE_FREQ_1 =   2022-11-24T19:46:52.522   2216498459.1
RECEIVE_FREQ_1 =   2022-11-24T19:47:02.976   2216498457.8
RECEIVE_FREQ_1 =   2022-11-24T19:47:13.517   2216498456.5
RECEIVE_FREQ_1 =   2022-11-24T19:47:24.058   2216498455.7
RECEIVE_FREQ_1 =   2022-11-24T19:47:34.512   2216498454.1
RECEIVE_FREQ_1 =   2022-11-24T19:47:45.053   2216498453.2
RECEIVE_FREQ_1 =   2022-11-24T19:47:55.594   2216498451.5
RECEIVE_FREQ_1 =   2022-11-24T19:48:06.134   2216498450.3
RECEIVE_FREQ_1 =   2022-11-24T19:48:16.589   2216498449.5
RECEIVE_FREQ_1 =   2022-11-24T19:48:27.130   2216498447.9
RECEIVE_FREQ_1 =   2022-11-24T19:48:37.670   2216498446.7
RECEIVE_FREQ_1 =   2022-11-24T19:48:48.211   2216498445.6
RECEIVE_FREQ_1 =   2022-11-24T19:48:58.666   2216498444.5
RECEIVE_FREQ_1 =   2022-11-24T19:49:09.206   2216498443.2
RECEIVE_FREQ_1 =   2022-11-24T19:49:19.747   2216498442.0
RECEIVE_FREQ_1 =   2022-11-24T19:49:30.202   2216498440.8
RECEIVE_FREQ_1 =   2022-11-24T19:49:40.742   2216498439.3
RECEIVE_FREQ_1 =   2022-11-24T19:49:51.283   2216498438.1
RECEIVE_FREQ_1 =   2022-11-24T19:50:01.738   2216498436.8
RECEIVE_FREQ_1 =   2022-11-24T19:50:12.278   2216498435.6
RECEIVE_FREQ_1 =   2022-11-24T19:50:22.819   2216498434.5
RECEIVE_FREQ_1 =   2022-11-24T19:50:33.360   2216498433.5
RECEIVE_FREQ_1 =   2022-11-24T19:50:43.814   2216498432.1
RECEIVE_FREQ_1 =   2022-11-24T19:50:54.355   2216498430.9
RECEIVE_FREQ_1 =   2022-11-24T19:51:04.896   2216498429.5
RECEIVE_FREQ_1 =   2022-11-24T19:51:15.437   2216498428.7
RECEIVE_FREQ_1 =   2022-11-24T19:51:25.978   2216498427.1
RECEIVE_FREQ_1 =   2022-11-24T19:51:36.432   2216498425.6
RECEIVE_FREQ_1 =   2022-11-24T19:51:46.973   2216498424.6
RECEIVE_FREQ_1 =   2022-11-24T19:51:57.514   2216498423.4
RECEIVE_FREQ_1 =   2022-11-24T19:52:07.968   2216498422.0
RECEIVE_FREQ_1 =   2022-11-24T19:52:18.509   2216498420.8
RECEIVE_FREQ_1 =   2022-11-24T19:52:28.963   2216498419.4
RECEIVE_FREQ_1 =   2022-11-24T19:52:39.418   2216498418.5
RECEIVE_FREQ_1 =   2022-11-24T19:52:49.958   2216498417.1
RECEIVE_FREQ_1 =   2022-11-24T19:53:00.499   2216498416.0
RECEIVE_FREQ_1 =   2022-11-24T19:53:11.040   2216498414.6
RECEIVE_FREQ_1 =   2022-11-24T19:53:21.494   2216498413.5
RECEIVE_FREQ_1 =   2022-11-24T19:53:32.035   2216498412.0
RECEIVE_FREQ_1 =   2022-11-24T19:53:42.576   2216498410.4
RECEIVE_FREQ_1 =   2022-11-24T19:53:53.030   2216498409.6
RECEIVE_FREQ_1 =   2022-11-24T19:54:03.571   2216498408.5
RECEIVE_FREQ_1 =   2022-11-24T19:54:14.026   2216498407.1
RECEIVE_FREQ_1 =   2022-11-24T19:54:24.566   2216498405.9
RECEIVE_FREQ_1 =   2022-11-24T19:54:35.107   2216498404.7
RECEIVE_FREQ_1 =   2022-11-24T19:54:45.562   2216498402.9
RECEIVE_FREQ_1 =   2022-11-24T19:54:56.102   2216498402.1
RECEIVE_FREQ_1 =   2022-11-24T19:55:06.643   2216498400.5
RECEIVE_FREQ_1 =   2022-11-24T19:55:17.098   2216498399.5
RECEIVE_FREQ_1 =   2022-11-24T19:55:27.638   2216498398.3
RECEIVE_FREQ_1 =   2022-11-24T19:55:38.179   2216498396.9
RECEIVE_FREQ_1 =   2022-11-24T19:55:48.634   2216498395.7
RECEIVE_FREQ_1 =   2022-11-24T19:55:59.174   2216498394.3
RECEIVE_FREQ_1 =   2022-11-24T19:56:09.629   2216498393.1
RECEIVE_FREQ_1 =   2022-11-24T19:56:20.170   2216498391.6
RECEIVE_FREQ_1 =   2022-11-24T19:56:30.710   2216498390.5
RECEIVE_FREQ_1 =   2022-11-24T19:56:41.165   2216498389.2
RECEIVE_FREQ_1 =   2022-11-24T19:56:51.706   2216498387.8
RECEIVE_FREQ_1 =   2022-11-24T19:57:02.246   2216498386.8
RECEIVE_FREQ_1 =   2022-11-24T19:57:12.787   2216498385.7
RECEIVE_FREQ_1 =   2022-11-24T19:57:23.242   2216498384.2
RECEIVE_FREQ_1 =   2022-11-24T19:57:33.782   2216498382.9
RECEIVE_FREQ_1 =   2022-11-24T19:57:44.323   2216498381.6
RECEIVE_FREQ_1 =   2022-11-24T19:57:54.778   2216498380.5
RECEIVE_FREQ_1 =   2022-11-24T19:58:05.318   2216498379.2
RECEIVE_FREQ_1 =   2022-11-24T19:58:15.859   2216498377.9
RECEIVE_FREQ_1 =   2022-11-24T19:58:26.400   2216498376.3
RECEIVE_FREQ_1 =   2022-11-24T19:58:36.854   2216498375.4
RECEIVE_FREQ_1 =   2022-11-24T19:58:47.395   2216498374.1
RECEIVE_FREQ_1 =   2022-11-24T19:58:57.936   2216498372.6
RECEIVE_FREQ_1 =   2022-11-24T19:59:08.390   2216498371.2
RECEIVE_FREQ_1 =   2022-11-24T19:59:18.931   2216498370.1
RECEIVE_FREQ_1 =   2022-11-24T19:59:29.386   2216498369.0
RECEIVE_FREQ_1 =   2022-11-24T19:59:39.926   2216498367.4
RECEIVE_FREQ_1 =   2022-11-24T19:59:50.381   2216498366.1
RECEIVE_FREQ_1 =   2022-11-24T20:00:00.835   2216498365.0
RECEIVE_FREQ_1 =   2022-11-24T20:00:11.376   2216498363.4
RECEIVE_FREQ_1 =   2022-11-24T20:00:21.917   2216498362.4
RECEIVE_FREQ_1 =   2022-11-24T20:00:32.458   2216498361.1
RECEIVE_FREQ_1 =   2022-11-24T20:00:42.912   2216498359.7
RECEIVE_FREQ_1 =   2022-11-24T20:00:53.453   2216498358.4
RECEIVE_FREQ_1 =   2022-11-24T20:01:03.994   2216498357.0
RECEIVE_FREQ_1 =   2022-11-24T20:01:14.534   2216498356.0
RECEIVE_FREQ_1 =   2022-11-24T20:01:25.075   2216498354.7
RECEIVE_FREQ_1 =   2022-11-24T20:01:35.616   2216498353.4
RECEIVE_FREQ_1 =   2022-11-24T20:01:46.070   2216498352.2
RECEIVE_FREQ_1 =   2022-11-24T20:01:56.611   2216498350.9
RECEIVE_FREQ_1 =   2022-11-24T20:02:07.066   2216498349.9
RECEIVE_FREQ_1 =   2022-11-24T20:02:17.606   2216498348.4
RECEIVE_FREQ_1 =   2022-11-24T20:02:28.061   2216498347.2
RECEIVE_FREQ_1 =   2022-11-24T20:02:38.602   2216498346.2
RECEIVE_FREQ_1 =   2022-11-24T20:02:49.056   2216498344.7
RECEIVE_FREQ_1 =   2022-11-24T20:02:59.597   2216498343.7
RECEIVE_FREQ_1 =   2022-11-24T20:03:10.051   2216498342.6
RECEIVE_FREQ_1 =   2022-11-24T20:03:20.592   2216498341.2
RECEIVE_FREQ_1 =   2022-11-24T20:03:31.046   2216498340.2
RECEIVE_FREQ_1 =   2022-11-24T20:03:41.587   2216498338.7
RECEIVE_FREQ_1 =   2022-11-24T20:03:52.128   2216498337.8
RECEIVE_FREQ_1 =   2022-11-24T20:04:02.582   2216498336.2
RECEIVE_FREQ_1 =   2022-11-24T20:04:13.123   2216498335.1
RECEIVE_FREQ_1 =   2022-11-24T20:04:23.664   2216498334.0
RECEIVE_FREQ_1 =   2022-11-24T20:04:34.118   2216498332.8
RECEIVE_FREQ_1 =   2022-11-24T20:04:44.659   2216498331.3
RECEIVE_FREQ_1 =   2022-11-24T20:04:55.114   2216498330.3
RECEIVE_FREQ_1 =   2022-11-24T20:05:05.654   2216498328.9
RECEIVE_FREQ_1 =   2022-11-24T20:05:16.195   2216498327.7
RECEIVE_FREQ_1 =   2022-11-24T20:05:26.736   2216498326.4
RECEIVE_FREQ_1 =   2022-11-24T20:05:37.277   2216498325.1
RECEIVE_FREQ_1 =   2022-11-24T20:05:47.818   2216498324.1
RECEIVE_FREQ_1 =   2022-11-24T20:05:58.358   2216498322.7
RECEIVE_FREQ_1 =   2022-11-24T20:06:08.813   2216498321.7
RECEIVE_FREQ_1 =   2022-11-24T20:06:19.354   2216498320.3
RECEIVE_FREQ_1 =   2022-11-24T20:06:29.808   2216498319.2
RECEIVE_FREQ_1 =   2022-11-24T20:06:40.349   2216498317.4
RECEIVE_FREQ_1 =   2022-11-24T20:06:50.803   2216498316.7
RECEIVE_FREQ_1 =   2022-11-24T20:07:01.344   2216498315.3
RECEIVE_FREQ_1 =   2022-11-24T20:07:11.885   2216498314.0
RECEIVE_FREQ_1 =   2022-11-24T20:07:22.426   2216498312.9
RECEIVE_FREQ_1 =   2022-11-24T20:07:32.966   2216498311.4
RECEIVE_FREQ_1 =   2022-11-24T20:07:43.421   2216498310.2
RECEIVE_FREQ_1 =   2022-11-24T20:07:53.962   2216498309.3
RECEIVE_FREQ_1 =   2022-11-24T20:08:04.416   2216498307.9
RECEIVE_FREQ_1 =   2022-11-24T20:08:14.957   2216498306.6
RECEIVE_FREQ_1 =   2022-11-24T20:08:25.411   2216498305.6
RECEIVE_FREQ_1 =   2022-11-24T20:08:35.952   2216498304.0
RECEIVE_FREQ_1 =   2022-11-24T20:08:46.493   2216498302.8
RECEIVE_FREQ_1 =   2022-11-24T20:08:56.947   2216498301.6
RECEIVE_FREQ_1 =   2022-11-24T20:09:07.402   2216498300.3
RECEIVE_FREQ_1 =   2022-11-24T20:09:17.942   2216498299.4
RECEIVE_FREQ_1 =   2022-11-24T20:09:28.397   2216498297.9
RECEIVE_FREQ_1 =   2022-11-24T20:09:38.938   2216498296.7
RECEIVE_FREQ_1 =   2022-11-24T20:10:20.928   2216498291.2
RECEIVE_FREQ_1 =   2022-11-24T20:10:31.469   2216498290.3
RECEIVE_FREQ_1 =   2022-11-24T20:10:42.010   2216498289.0
RECEIVE_FREQ_1 =   2022-11-24T20:10:52.464   2216498287.7
RECEIVE_FREQ_1 =   2022-11-24T20:11:03.005   2216498286.6
RECEIVE_FREQ_1 =   2022-11-24T20:11:13.546   2216498285.6
RECEIVE_FREQ_1 =   2022-11-24T20:11:24.000   2216498284.0
RECEIVE_FREQ_1 =   2022-11-24T20:11:34.541   2216498282.8
RECEIVE_FREQ_1 =   2022-11-24T20:11:44.995   2216498281.4
RECEIVE_FREQ_1 =   2022-11-24T20:11:55.536   2216498280.0
RECEIVE_FREQ_1 =   2022-11-24T20:12:06.077   2216498279.3
RECEIVE_FREQ_1 =   2022-11-24T20:12:16.618   2216498277.6
RECEIVE_FREQ_1 =   2022-11-24T20:12:27.158   2216498276.4
RECEIVE_FREQ_1 =   2022-11-24T20:12:37.613   2216498275.3
RECEIVE_FREQ_1 =   2022-11-24T20:12:48.154   2216498273.6
RECEIVE_FREQ_1 =   2022-11-24T20:12:58.694   2216498272.6
RECEIVE_FREQ_1 =   2022-11-24T20:13:09.149   2216498271.4
RECEIVE_FREQ_1 =   2022-11-24T20:13:19.690   2216498270.2
RECEIVE_FREQ_1 =   2022-11-24T20:13:30.144   2216498268.6
RECEIVE_FREQ_1 =   2022-11-24T20:13:40.685   2216498267.6
RECEIVE_FREQ_1 =   2022-11-24T20:13:51.226   2216498266.1
RECEIVE_FREQ_1 =   2022-11-24T20:14:01.680   2216498264.9
RECEIVE_FREQ_1 =   2022-11-24T20:14:12.221   2216498263.8
RECEIVE_FREQ_1 =   2022-11-24T20:14:22.762   2216498262.6
RECEIVE_FREQ_1 =   2022-11-24T20:14:33.302   2216498261.2
RECEIVE_FREQ_1 =   2022-11-24T20:14:43.843   2216498260.0
RECEIVE_FREQ_1 =   2022-11-24T20:14:54.298   2216498258.7
RECEIVE_FREQ_1 =   2022-11-24T20:15:04.838   2216498257.2
RECEIVE_FREQ_1 =   2022-11-24T20:15:15.379   2216498255.9
RECEIVE_FREQ_1 =   2022-11-24T20:15:25.834   2216498254.5
RECEIVE_FREQ_1 =   2022-11-24T20:15:36.288   2216498253.2
RECEIVE_FREQ_1 =   2022-11-24T20:15:46.829   2216498252.1
RECEIVE_FREQ_1 =   2022-11-24T20:15:57.283   2216498250.9
RECEIVE_FREQ_1 =   2022-11-24T20:16:07.824   2216498249.8
RECEIVE_FREQ_1 =   2022-11-24T20:16:18.365   2216498248.5
RECEIVE_FREQ_1 =   2022-11-24T20:16:28.819   2216498247.1
RECEIVE_FREQ_1 =   2022-11-24T20:16:39.360   2216498245.4
RECEIVE_FREQ_1 =   2022-11-24T20:16:49.814   2216498244.4
RECEIVE_FREQ_1 =   2022-11-24T20:17:00.355   2216498243.1
RECEIVE_FREQ_1 =   2022-11-24T20:17:10.896   2216498241.9
RECEIVE_FREQ_1 =   2022-11-24T20:17:21.350   2216498240.5
RECEIVE_FREQ_1 =   2022-11-24T20:17:31.891   2216498239.4
RECEIVE_FREQ_1 =   2022-11-24T20:17:42.432   2216498237.7
RECEIVE_FREQ_1 =   2022-11-24T20:17:52.973   2216498236.6
RECEIVE_FREQ_1 =   2022-11-24T20:18:03.427   2216498235.4
RECEIVE_FREQ_1 =   2022-11-24T20:18:13.968   2216498234.0
RECEIVE_FREQ_1 =   2022-11-24T20:18:24.422   2216498232.8
RECEIVE_FREQ_1 =   2022-11-24T20:18:34.963   2216498231.3
RECEIVE_FREQ_1 =   2022-11-24T20:18:45.504   2216498230.0
RECEIVE_FREQ_1 =   2022-11-24T20:18:55.958   2216498228.6
RECEIVE_FREQ_1 =   2022-11-24T20:19:06.499   2216498227.5
RECEIVE_FREQ_1 =   2022-11-24T20:19:16.954   2216498226.6
RECEIVE_FREQ_1 =   2022-11-24T20:19:27.494   2216498224.9
RECEIVE_FREQ_1 =   2022-11-24T20:19:38.035   2216498223.8
RECEIVE_FREQ_1 =   2022-11-24T20:19:48.490   2216498222.4
RECEIVE_FREQ_1 =   2022-11-24T20:19:59.030   2216498221.2
RECEIVE_FREQ_1 =   2022-11-24T20:20:09.485   2216498219.8
RECEIVE_FREQ_1 =   2022-11-24T20:20:20.026   2216498218.4
RECEIVE_FREQ_1 =   2022-11-24T20:20:30.480   2216498217.2
RECEIVE_FREQ_1 =   2022-11-24T20:20:41.021   2216498215.9
RECEIVE_FREQ_1 =   2022-11-24T20:20:51.475   2216498214.7
RECEIVE_FREQ_1 =   2022-11-24T20:21:02.016   2216498213.6
RECEIVE_FREQ_1 =   2022-11-24T20:21:12.557   2216498211.7
RECEIVE_FREQ_1 =   2022-11-24T20:21:23.011   2216498210.6
RECEIVE_FREQ_1 =   2022-11-24T20:21:33.552   2216498209.4
RECEIVE_FREQ_1 =   2022-11-24T20:21:44.093   2216498207.8
RECEIVE_FREQ_1 =   2022-11-24T20:21:54.547   2216498206.9
RECEIVE_FREQ_1 =   2022-11-24T20:22:05.088   2216498205.1
RECEIVE_FREQ_1 =   2022-11-24T20:22:15.629   2216498204.2
RECEIVE_FREQ_1 =   2022-11-24T20:22:26.083   2216498202.7
RECEIVE_FREQ_1 =   2022-11-24T20:22:36.624   2216498201.6
RECEIVE_FREQ_1 =   2022-11-24T20:22:47.165   2216498200.3
RECEIVE_FREQ_1 =   2022-11-24T20:22:57.619   2216498199.2
RECEIVE_FREQ_1 =   2022-11-24T20:23:08.074   2216498197.3
RECEIVE_FREQ_1 =   2022-11-24T20:23:18.614   2216498196.2
RECEIVE_FREQ_1 =   2022-11-24T20:23:29.155   2216498194.6
RECEIVE_FREQ_1 =   2022-11-24T20:23:39.696   2216498193.4
RECEIVE_FREQ_1 =   2022-11-24T20:23:50.150   2216498192.0
RECEIVE_FREQ_1 =   2022-11-24T20:24:00.691   2216498190.9
RECEIVE_FREQ_1 =   2022-11-24T20:24:11.232   2216498189.5
RECEIVE_FREQ_1 =   2022-11-24T20:24:21.773   2216498188.4
RECEIVE_FREQ_1 =   2022-11-24T20:24:32.227   2216498186.7
RECEIVE_FREQ_1 =   2022-11-24T20:24:42.768   2216498185.4
RECEIVE_FREQ_1 =   2022-11-24T20:24:53.309   2216498184.1
RECEIVE_FREQ_1 =   2022-11-24T20:25:03.763   2216498183.0
RECEIVE_FREQ_1 =   2022-11-24T20:25:14.304   2216498181.6
RECEIVE_FREQ_1 =   2022-11-24T20:25:24.758   2216498180.4
RECEIVE_FREQ_1 =   2022-11-24T20:25:35.299   2216498178.4
RECEIVE_FREQ_1 =   2022-11-24T20:25:45.840   2216498177.5
RECEIVE_FREQ_1 =   2022-11-24T20:25:56.381   2216498176.2
RECEIVE_FREQ_1 =   2022-11-24T20:26:06.922   2216498174.8
RECEIVE_FREQ_1 =   2022-11-24T20:26:17.462   2216498173.5
RECEIVE_FREQ_1 =   2022-11-24T20:26:27.917   2216498172.0
RECEIVE_FREQ_1 =   2022-11-24T20:26:38.458   2216498171.1
RECEIVE_FREQ_1 =   2022-11-24T20:26:48.998   2216498169.8
RECEIVE_FREQ_1 =   2022-11-24T20:26:59.453   2216498168.2
RECEIVE_FREQ_1 =   2022-11-24T20:27:09.994   2216498167.1
RECEIVE_FREQ_1 =   2022-11-24T20:27:20.534   2216498165.4
RECEIVE_FREQ_1 =   2022-11-24T20:27:31.075   2216498164.2
RECEIVE_FREQ_1 =   2022-11-24T20:27:41.530   2216498162.8
RECEIVE_FREQ_1 =   2022-11-24T20:27:52.070   2216498161.8
RECEIVE_FREQ_1 =   2022-11-24T20:28:02.525   2216498160.4
RECEIVE_FREQ_1 =   2022-11-24T20:28:13.066   2216498158.8
RECEIVE_FREQ_1 =   2022-11-24T20:28:23.606   2216498157.5
RECEIVE_FREQ_1 =   2022-11-24T20:28:34.061   2216498155.8
RECEIVE_FREQ_1 =   2022-11-24T20:28:44.602   2216498154.8
RECEIVE_FREQ_1 =   2022-11-24T20:28:55.056   2216498153.7
RECEIVE_FREQ_1 =   2022-11-24T20:29:05.597   2216498152.0
RECEIVE_FREQ_1 =   2022-11-24T20:29:16.138   2216498150.6
RECEIVE_FREQ_1 =   2022-11-24T20:29:26.592   2216498149.4
RECEIVE_FREQ_1 =   2022-11-24T20:29:37.046   2216498148.2
RECEIVE_FREQ_1 =   2022-11-24T20:29:47.587   2216498146.6
RECEIVE_FREQ_1 =   2022-11-24T20:29:58.042   2216498145.3
RECEIVE_FREQ_1 =   2022-11-24T20:30:08.582   2216498143.8
RECEIVE_FREQ_1 =   2022-11-24T20:30:19.123   2216498142.7
RECEIVE_FREQ_1 =   2022-11-24T20:30:29.578   2216498141.4
RECEIVE_FREQ_1 =   2022-11-24T20:30:40.118   2216498140.0
RECEIVE_FREQ_1 =   2022-11-24T20:30:50.659   2216498138.6
RECEIVE_FREQ_1 =   2022-11-24T20:31:01.114   2216498137.5
RECEIVE_FREQ_1 =   2022-11-24T20:31:11.654   2216498136.1
RECEIVE_FREQ_1 =   2022-11-24T20:31:22.109   2216498134.7
RECEIVE_FREQ_1 =   2022-11-24T20:31:32.650   2216498133.3
RECEIVE_FREQ_1 =   2022-11-24T20:31:43.104   2216498132.1
RECEIVE_FREQ_1 =   2022-11-24T20:31:53.645   2216498130.4
RECEIVE_FREQ_1 =   2022-11-24T20:32:04.186   2216498129.2
RECEIVE_FREQ_1 =   2022-11-24T20:32:14.640   2216498127.8
RECEIVE_FREQ_1 =   2022-11-24T20:32:25.094   2216498126.7
RECEIVE_FREQ_1 =   2022-11-24T20:32:35.635   2216498125.0
RECEIVE_FREQ_1 =   2022-11-24T20:32:46.176   2216498124.3
RECEIVE_FREQ_1 =   2022-11-24T20:32:56.717   2216498122.3
RECEIVE_FREQ_1 =   2022-11-24T20:33:07.171   2216498121.3
RECEIVE_FREQ_1 =   2022-11-24T20:33:17.712   2216498119.9
RECEIVE_FREQ_1 =   2022-11-24T20:33:38.707   2216498117.1
RECEIVE_FREQ_1 =   2022-11-24T20:33:49.248   2216498115.4
RECEIVE_FREQ_1 =   2022-11-24T20:33:59.789   2216498114.0
RECEIVE_FREQ_1 =   2022-11-24T20:34:10.243   2216498113.0
RECEIVE_FREQ_1 =   2022-11-24T20:34:20.784   2216498111.5
RECEIVE_FREQ_1 =   2022-11-24T20:34:31.238   2216498110.3
RECEIVE_FREQ_1 =   2022-11-24T20:34:41.779   2216498109.0
RECEIVE_FREQ_1 =   2022-11-24T20:34:52.320   2216498107.5
RECEIVE_FREQ_1 =   2022-11-24T20:35:02.774   2216498105.8
RECEIVE_FREQ_1 =   2022-11-24T20:35:34.310   2216498102.4
RECEIVE_FREQ_1 =   2022-11-24T20:35:44.851   2216498100.8
RECEIVE_FREQ_1 =   2022-11-24T20:35:55.392   2216498099.0
RECEIVE_FREQ_1 =   2022-11-24T20:36:16.474   2216498096.4
RECEIVE_FREQ_1 =   2022-11-24T20:36:26.928   2216498094.9
RECEIVE_FREQ_1 =   2022-11-24T20:36:37.469   2216498093.7
RECEIVE_FREQ_1 =   2022-11-24T20:36:48.010   2216498092.3
RECEIVE_FREQ_1 =   2022-11-24T20:36:58.464   2216498091.0
RECEIVE_FREQ_1 =   2022-11-24T20:37:09.005   2216498089.9
RECEIVE_FREQ_1 =   2022-11-24T20:37:19.459   2216498088.3
RECEIVE_FREQ_1 =   2022-11-24T20:37:30.000   2216498087.1
RECEIVE_FREQ_1 =   2022-11-24T20:37:40.454   2216498085.4
RECEIVE_FREQ_1 =   2022-11-24T20:37:50.995   2216498084.0
RECEIVE_FREQ_1 =   2022-11-24T20:38:01.536   2216498082.9
RECEIVE_FREQ_1 =   2022-11-24T20:38:12.077   2216498081.3
RECEIVE_FREQ_1 =   2022-11-24T20:38:22.531   2216498080.2
RECEIVE_FREQ_1 =   2022-11-24T20:38:33.072   2216498078.9
RECEIVE_FREQ_1 =   2022-11-24T20:38:43.613   2216498077.5
RECEIVE_FREQ_1 =   2022-11-24T20:38:54.067   2216498076.1
RECEIVE_FREQ_1 =   2022-11-24T20:39:04.608   2216498074.4
RECEIVE_FREQ_1 =   2022-11-24T20:39:15.149   2216498073.5
RECEIVE_FREQ_1 =   2022-11-24T20:39:25.603   2216498072.1
RECEIVE_FREQ_1 =   2022-11-24T20:39:36.144   2216498071.0
RECEIVE_FREQ_1 =   2022-11-24T20:39:46.685   2216498069.6
RECEIVE_FREQ_1 =   2022-11-24T20:39:57.139   2216498068.1
RECEIVE_FREQ_1 =   2022-11-24T20:40:07.680   2216498066.9
RECEIVE_FREQ_1 =   2022-11-24T20:40:18.221   2216498065.5
RECEIVE_FREQ_1 =   2022-11-24T20:40:28.762   2216498064.3
RECEIVE_FREQ_1 =   2022-11-24T20:40:39.302   2216498062.7
RECEIVE_FREQ_1 =   2022-11-24T20:40:49.843   2216498061.6
RECEIVE_FREQ_1 =   2022-11-24T20:41:00.384   2216498060.4
RECEIVE_FREQ_1 =   2022-11-24T20:41:10.838   2216498058.8
RECEIVE_FREQ_1 =   2022-11-24T20:41:21.379   2216498057.7
RECEIVE_FREQ_1 =   2022-11-24T20:41:31.920   2216498056.4
RECEIVE_FREQ_1 =   2022-11-24T20:41:42.374   2216498055.2
RECEIVE_FREQ_1 =   2022-11-24T20:41:52.829   2216498053.7
RECEIVE_FREQ_1 =   2022-11-24T20:42:03.370   2216498052.8
RECEIVE_FREQ_1 =   2022-11-24T20:42:13.824   2216498051.227
RECEIVE_FREQ_1 =   2022-11-24T20:42:24.365   2216498049.927
RECEIVE_FREQ_1 =   2022-11-24T20:42:34.906   2216498048.427
RECEIVE_FREQ_1 =   2022-11-24T20:42:45.446   2216498046.927
RECEIVE_FREQ_1 =   2022-11-24T20:44:09.514   2216498036.127
RECEIVE_FREQ_1 =   2022-11-24T20:44:20.054   2216498035.127
RECEIVE_FREQ_1 =   2022-11-24T20:44:30.595   2216498033.727
RECEIVE_FREQ_1 =   2022-11-24T20:44:51.590   2216498031.327
RECEIVE_FREQ_1 =   2022-11-24T20:45:02.131   2216498029.727
RECEIVE_FREQ_1 =   2022-11-24T20:45:12.586   2216498028.527
RECEIVE_FREQ_1 =   2022-11-24T20:45:23.126   2216498027.127
RECEIVE_FREQ_1 =   2022-11-24T20:45:33.581   2216498025.627
RECEIVE_FREQ_1 =   2022-11-24T20:45:44.122   2216498024.527
RECEIVE_FREQ_1 =   2022-11-24T20:46:15.658   2216498020.227
RECEIVE_FREQ_1 =   2022-11-24T20:47:29.184   2216498011.027
RECEIVE_FREQ_1 =   2022-11-24T20:47:39.638   2216498009.527
RECEIVE_FREQ_1 =   2022-11-24T20:47:50.179   2216498008.527
RECEIVE_FREQ_1 =   2022-11-24T20:48:11.261   2216498005.827
RECEIVE_FREQ_1 =   2022-11-24T20:49:03.792   2216497998.827
RECEIVE_FREQ_1 =   2022-11-24T20:49:35.328   2216497994.827
RECEIVE_FREQ_1 =   2022-11-24T20:49:45.955   2216497993.527
RECEIVE_FREQ_1 =   2022-11-24T20:49:56.496   2216497992.227
RECEIVE_FREQ_1 =   2022-11-24T20:50:06.950   2216497990.927
RECEIVE_FREQ_1 =   2022-11-24T20:50:17.491   2216497989.427
RECEIVE_FREQ_1 =   2022-11-24T20:50:28.032   2216497988.327
RECEIVE_FREQ_1 =   2022-11-24T20:50:38.486   2216497986.427
RECEIVE_FREQ_1 =   2022-11-24T20:50:49.027   2216497985.227
RECEIVE_FREQ_1 =   2022-11-24T20:50:59.568   2216497984.027
RECEIVE_FREQ_1 =   2022-11-24T20:51:10.022   2216497982.727
RECEIVE_FREQ_1 =   2022-11-24T20:51:20.563   2216497981.227
RECEIVE_FREQ_1 =   2022-11-24T20:51:31.104   2216497980.227
RECEIVE_FREQ_1 =   2022-11-24T20:51:41.645   2216497978.427
RECEIVE_FREQ_1 =   2022-11-24T20:51:52.186   2216497977.327
RECEIVE_FREQ_1 =   2022-11-24T20:52:02.640   2216497976.027
RECEIVE_FREQ_1 =   2022-11-24T20:52:13.094   2216497974.427
RECEIVE_FREQ_1 =   2022-11-24T20:52:23.635   2216497973.127
RECEIVE_FREQ_1 =   2022-11-24T20:52:34.090   2216497971.827
RECEIVE_FREQ_1 =   2022-11-24T20:52:44.630   2216497970.127
RECEIVE_FREQ_1 =   2022-11-24T20:52:55.085   2216497969.327
RECEIVE_FREQ_1 =   2022-11-24T20:53:05.712   2216497967.727
RECEIVE_FREQ_1 =   2022-11-24T20:53:16.253   2216497966.327
RECEIVE_FREQ_1 =   2022-11-24T20:53:26.707   2216497965.027
RECEIVE_FREQ_1 =   2022-11-24T20:53:37.248   2216497963.627
RECEIVE_FREQ_1 =   2022-11-24T20:53:47.789   2216497962.127
RECEIVE_FREQ_1 =   2022-11-24T20:53:58.330   2216497960.427
RECEIVE_FREQ_1 =   2022-11-24T20:54:08.870   2216497959.527
RECEIVE_FREQ_1 =   2022-11-24T20:54:19.325   2216497958.227
RECEIVE_FREQ_1 =   2022-11-24T20:54:29.866   2216497956.727
RECEIVE_FREQ_1 =   2022-11-24T20:54:40.320   2216497955.427
RECEIVE_FREQ_1 =   2022-11-24T20:54:50.861   2216497954.127
RECEIVE_FREQ_1 =   2022-11-24T20:55:01.402   2216497952.727
RECEIVE_FREQ_1 =   2022-11-24T20:55:11.942   2216497951.327
RECEIVE_FREQ_1 =   2022-11-24T20:55:22.397   2216497949.727
RECEIVE_FREQ_1 =   2022-11-24T20:55:32.938   2216497948.527
RECEIVE_FREQ_1 =   2022-11-24T20:55:43.392   2216497947.027
RECEIVE_FREQ_1 =   2022-11-24T20:55:53.846   2216497946.027
RECEIVE_FREQ_1 =   2022-11-24T20:56:04.387   2216497944.627
RECEIVE_FREQ_1 =   2022-11-24T20:56:14.842   2216497943.327
RECEIVE_FREQ_1 =   2022-11-24T20:56:25.382   2216497941.727
RECEIVE_FREQ_1 =   2022-11-24T20:56:35.923   2216497940.327
RECEIVE_FREQ_1 =   2022-11-24T20:56:46.378   2216497938.927
RECEIVE_FREQ_1 =   2022-11-24T20:56:56.918   2216497937.627
RECEIVE_FREQ_1 =   2022-11-24T20:57:07.373   2216497935.927
RECEIVE_FREQ_1 =   2022-11-24T20:57:17.914   2216497935.327
RECEIVE_FREQ_1 =   2022-11-24T20:57:28.454   2216497932.927
RECEIVE_FREQ_1 =   2022-11-24T20:57:38.909   2216497932.227
RECEIVE_FREQ_1 =   2022-11-24T20:57:49.450   2216497931.027
RECEIVE_FREQ_1 =   2022-11-24T20:57:59.904   2216497929.927
RECEIVE_FREQ_1 =   2022-11-24T20:58:10.445   2216497927.827
RECEIVE_FREQ_1 =   2022-11-24T20:58:20.899   2216497926.527
RECEIVE_FREQ_1 =   2022-11-24T20:58:31.440   2216497925.427
RECEIVE_FREQ_1 =   2022-11-24T20:58:41.981   2216497923.527
RECEIVE_FREQ_1 =   2022-11-24T20:58:52.435   2216497922.527
RECEIVE_FREQ_1 =   2022-11-24T20:59:02.976   2216497920.927
RECEIVE_FREQ_1 =   2022-11-24T20:59:13.517   2216497919.827
RECEIVE_FREQ_1 =   2022-11-24T20:59:23.971   2216497918.427
RECEIVE_FREQ_1 =   2022-11-24T20:59:34.426   2216497917.127
RECEIVE_FREQ_1 =   2022-11-24T20:59:44.966   2216497915.527
RECEIVE_FREQ_1 =   2022-11-24T20:59:55.421   2216497914.427
RECEIVE_FREQ_1 =   2022-11-24T21:00:05.962   2216497912.927
RECEIVE_FREQ_1 =   2022-11-24T21:00:16.502   2216497911.227
RECEIVE_FREQ_1 =   2022-11-24T21:00:27.043   2216497910.027
RECEIVE_FREQ_1 =   2022-11-24T21:00:37.498   2216497909.027
RECEIVE_FREQ_1 =   2022-11-24T21:00:48.038   2216497907.227
RECEIVE_FREQ_1 =   2022-11-24T21:00:58.493   2216497905.827
RECEIVE_FREQ_1 =   2022-11-24T21:01:09.034   2216497905.027
RECEIVE_FREQ_1 =   2022-11-24T21:01:19.574   2216497903.327
RECEIVE_FREQ_1 =   2022-11-24T21:01:30.029   2216497902.127
RECEIVE_FREQ_1 =   2022-11-24T21:01:40.570   2216497900.327
RECEIVE_FREQ_1 =   2022-11-24T21:01:51.024   2216497899.227
RECEIVE_FREQ_1 =   2022-11-24T21:02:01.565   2216497897.327
RECEIVE_FREQ_1 =   2022-11-24T21:02:12.019   2216497896.327
RECEIVE_FREQ_1 =   2022-11-24T21:02:22.560   2216497894.827
RECEIVE_FREQ_1 =   2022-11-24T21:02:33.014   2216497893.927
RECEIVE_FREQ_1 =   2022-11-24T21:02:43.555   2216497892.427
RECEIVE_FREQ_1 =   2022-11-24T21:02:54.010   2216497890.827
RECEIVE_FREQ_1 =   2022-11-24T21:03:04.550   2216497889.827
RECEIVE_FREQ_1 =   2022-11-24T21:03:15.005   2216497888.027
RECEIVE_FREQ_1 =   2022-11-24T21:03:25.546   2216497886.527
RECEIVE_FREQ_1 =   2022-11-24T21:03:36.086   2216497885.427
RECEIVE_FREQ_1 =   2022-11-24T21:03:46.714   2216497883.727
RECEIVE_FREQ_1 =   2022-11-24T21:03:57.168   2216497882.427
RECEIVE_FREQ_1 =   2022-11-24T21:04:07.709   2216497881.027
RECEIVE_FREQ_1 =   2022-11-24T21:04:18.250   2216497879.827
RECEIVE_FREQ_1 =   2022-11-24T21:04:28.877   2216497878.127
RECEIVE_FREQ_1 =   2022-11-24T21:04:39.418   2216497877.027
RECEIVE_FREQ_1 =   2022-11-24T21:04:50.045   2216497875.327
RECEIVE_FREQ_1 =   2022-11-24T21:05:00.586   2216497874.227
RECEIVE_FREQ_1 =   2022-11-24T21:05:11.040   2216497872.727
RECEIVE_FREQ_1 =   2022-11-24T21:05:21.581   2216497871.427
RECEIVE_FREQ_1 =   2022-11-24T21:05:32.122   2216497869.927
RECEIVE_FREQ_1 =   2022-11-24T21:05:42.662   2216497868.527
RECEIVE_FREQ_1 =   2022-11-24T21:05:53.203   2216497867.327
RECEIVE_FREQ_1 =   2022-11-24T21:06:03.658   2216497866.027
RECEIVE_FREQ_1 =   2022-11-24T21:06:14.198   2216497864.127
RECEIVE_FREQ_1 =   2022-11-24T21:06:24.826   2216497862.927
RECEIVE_FREQ_1 =   2022-11-24T21:06:35.366   2216497861.927
RECEIVE_FREQ_1 =   2022-11-24T21:06:45.907   2216497860.427
RECEIVE_FREQ_1 =   2022-11-24T21:06:56.448   2216497858.827
RECEIVE_FREQ_1 =   2022-11-24T21:07:06.902   2216497857.927
RECEIVE_FREQ_1 =   2022-11-24T21:07:17.443   2216497856.027
RECEIVE_FREQ_1 =   2022-11-24T21:07:27.984   2216497854.527
RECEIVE_FREQ_1 =   2022-11-24T21:07:38.438   2216497853.027
RECEIVE_FREQ_1 =   2022-11-24T21:07:48.979   2216497851.927
RECEIVE_FREQ_1 =   2022-11-24T21:07:59.520   2216497850.427
RECEIVE_FREQ_1 =   2022-11-24T21:08:10.061   2216497848.927
RECEIVE_FREQ_1 =   2022-11-24T21:08:20.602   2216497847.727
RECEIVE_FREQ_1 =   2022-11-24T21:08:41.597   2216497844.927
RECEIVE_FREQ_1 =   2022-11-24T21:08:52.138   2216497843.527
RECEIVE_FREQ_1 =   2022-11-24T21:09:02.678   2216497842.427
RECEIVE_FREQ_1 =   2022-11-24T21:09:13.219   2216497840.727
RECEIVE_FREQ_1 =   2022-11-24T21:09:23.760   2216497839.327
RECEIVE_FREQ_1 =   2022-11-24T21:09:34.301   2216497837.727
RECEIVE_FREQ_1 =   2022-11-24T21:09:44.755   2216497836.327
RECEIVE_FREQ_1 =   2022-11-24T21:09:55.296   2216497835.127
RECEIVE_FREQ_1 =   2022-11-24T21:10:05.837   2216497833.527
RECEIVE_FREQ_1 =   2022-11-24T21:10:16.291   2216497832.227
RECEIVE_FREQ_1 =   2022-11-24T21:10:26.918   2216497830.827
RECEIVE_FREQ_1 =   2022-11-24T21:10:37.632   2216497829.627
RECEIVE_FREQ_1 =   2022-11-24T21:10:48.346   2216497828.027
RECEIVE_FREQ_1 =   2022-11-24T21:10:59.059   2216497826.227
RECEIVE_FREQ_1 =   2022-11-24T21:11:09.686   2216497824.927
RECEIVE_FREQ_1 =   2022-11-24T21:11:20.314   2216497823.627
RECEIVE_FREQ_1 =   2022-11-24T21:11:30.854   2216497822.327
RECEIVE_FREQ_1 =   2022-11-24T21:11:41.309   2216497821.227
RECEIVE_FREQ_1 =   2022-11-24T21:11:51.850   2216497819.527
RECEIVE_FREQ_1 =   2022-11-24T21:12:02.390   2216497818.027
RECEIVE_FREQ_1 =   2022-11-24T21:12:12.931   2216497816.727
RECEIVE_FREQ_1 =   2022-11-24T21:12:23.386   2216497815.227
RECEIVE_FREQ_1 =   2022-11-24T21:12:44.467   2216497812.527
RECEIVE_FREQ_1 =   2022-11-24T21:13:16.003   2216497808.227
RECEIVE_FREQ_1 =   2022-11-24T21:13:37.085   2216497805.527
RECEIVE_FREQ_1 =   2022-11-24T21:13:47.539   2216497804.827
RECEIVE_FREQ_1 =   2022-11-24T21:14:08.534   2216497801.527
RECEIVE_FREQ_1 =   2022-11-24T21:14:19.075   2216497800.127
RECEIVE_FREQ_1 =   2022-11-24T21:14:29.530   2216497798.227
RECEIVE_FREQ_1 =   2022-11-24T21:14:40.070   2216497797.227
RECEIVE_FREQ_1 =   2022-11-24T21:15:01.066   2216497794.327
RECEIVE_FREQ_1 =   2022-11-24T21:15:11.606   2216497792.827
RECEIVE_FREQ_1 =   2022-11-24T21:15:22.061   2216497791.227
RECEIVE_FREQ_1 =   2022-11-24T21:15:32.602   2216497789.627
RECEIVE_FREQ_1 =   2022-11-24T21:15:43.142   2216497788.627
RECEIVE_FREQ_1 =   2022-11-24T21:15:53.683   2216497787.527
RECEIVE_FREQ_1 =   2022-11-24T21:16:04.224   2216497785.827
RECEIVE_FREQ_1 =   2022-11-24T21:16:14.765   2216497784.427
RECEIVE_FREQ_1 =   2022-11-24T21:16:25.306   2216497782.627
RECEIVE_FREQ_1 =   2022-11-24T21:16:35.846   2216497781.327
RECEIVE_FREQ_1 =   2022-11-24T21:17:07.382   2216497776.827
RECEIVE_FREQ_1 =   2022-11-24T21:17:59.914   2216497770.627
RECEIVE_FREQ_1 =   2022-11-24T21:18:10.454   2216497769.127
RECEIVE_FREQ_1 =   2022-11-24T21:18:31.450   2216497766.227
RECEIVE_FREQ_1 =   2022-11-24T21:18:41.990   2216497764.327
RECEIVE_FREQ_1 =   2022-11-24T21:18:52.445   2216497763.127
RECEIVE_FREQ_1 =   2022-11-24T21:19:02.986   2216497761.827
RECEIVE_FREQ_1 =   2022-11-24T21:19:13.440   2216497760.227
RECEIVE_FREQ_1 =   2022-11-24T21:19:23.981   2216497758.827
RECEIVE_FREQ_1 =   2022-11-24T21:19:34.435   2216497757.427
RECEIVE_FREQ_1 =   2022-11-24T21:19:44.976   2216497756.027
RECEIVE_FREQ_1 =   2022-11-24T21:19:55.430   2216497754.627
RECEIVE_FREQ_1 =   2022-11-24T21:20:16.512   2216497751.927
RECEIVE_FREQ_1 =   2022-11-24T21:20:37.507   2216497749.227
RECEIVE_FREQ_1 =   2022-11-24T21:22:43.565   2216497732.127
RECEIVE_FREQ_1 =   2022-11-24T21:23:04.646   2216497729.327
RECEIVE_FREQ_1 =   2022-11-24T21:23:15.187   2216497727.927
RECEIVE_FREQ_1 =   2022-11-24T21:23:25.728   2216497726.427
RECEIVE_FREQ_1 =   2022-11-24T21:24:07.805   2216497721.127
RECEIVE_FREQ_1 =   2022-11-24T21:24:28.800   2216497718.127
RECEIVE_FREQ_1 =   2022-11-24T21:24:39.254   2216497716.627
RECEIVE_FREQ_1 =   2022-11-24T21:24:49.795   2216497715.227
RECEIVE_FREQ_1 =   2022-11-24T21:25:10.790   2216497712.627
RECEIVE_FREQ_1 =   2022-11-24T21:25:31.872   2216497709.527
RECEIVE_FREQ_1 =   2022-11-24T21:25:42.326   2216497707.727
RECEIVE_FREQ_1 =   2022-11-24T21:25:52.867   2216497706.627
RECEIVE_FREQ_1 =   2022-11-24T21:26:35.030   2216497700.927
RECEIVE_FREQ_1 =   2022-11-24T21:26:45.571   2216497699.327
RECEIVE_FREQ_1 =   2022-11-24T21:26:56.026   2216497697.827
RECEIVE_FREQ_1 =   2022-11-24T21:27:06.566   2216497696.627
RECEIVE_FREQ_1 =   2022-11-24T21:27:17.021   2216497695.427
RECEIVE_FREQ_1 =   2022-11-24T21:27:27.562   2216497693.927
RECEIVE_FREQ_1 =   2022-11-24T21:27:38.102   2216497692.427
RECEIVE_FREQ_1 =   2022-11-24T21:27:59.098   2216497689.527
RECEIVE_FREQ_1 =   2022-11-24T21:28:30.720   2216497685.627
RECEIVE_FREQ_1 =   2022-11-24T21:28:51.715   2216497682.427
RECEIVE_FREQ_1 =   2022-11-24T21:29:02.256   2216497681.327
RECEIVE_FREQ_1 =   2022-11-24T21:29:33.792   2216497677.027
RECEIVE_FREQ_1 =   2022-11-24T21:32:01.277   2216497657.027
RECEIVE_FREQ_1 =   2022-11-24T21:32:22.358   2216497653.927
RECEIVE_FREQ_1 =   2022-11-24T21:32:32.986   2216497652.727
RECEIVE_FREQ_1 =   2022-11-24T21:32:43.440   2216497651.127
RECEIVE_FREQ_1 =   2022-11-24T21:32:53.981   2216497649.327
RECEIVE_FREQ_1 =   2022-11-24T21:33:04.435   2216497648.727
RECEIVE_FREQ_1 =   2022-11-24T21:33:25.430   2216497645.827
RECEIVE_FREQ_1 =   2022-11-24T21:33:46.512   2216497642.727
RECEIVE_FREQ_1 =   2022-11-24T21:33:56.966   2216497641.427
RECEIVE_FREQ_1 =   2022-11-24T21:34:17.962   2216497638.527
RECEIVE_FREQ_1 =   2022-11-24T21:34:28.416   2216497637.127
RECEIVE_FREQ_1 =   2022-11-24T21:34:38.957   2216497635.827
RECEIVE_FREQ_1 =   2022-11-24T21:34:59.866   2216497632.827
RECEIVE_FREQ_1 =   2022-11-24T21:35:10.406   2216497631.627
RECEIVE_FREQ_1 =   2022-11-24T21:35:20.947   2216497630.127
RECEIVE_FREQ_1 =   2022-11-24T21:35:31.402   2216497628.927
RECEIVE_FREQ_1 =   2022-11-24T21:35:41.942   2216497627.427
RECEIVE_FREQ_1 =   2022-11-24T21:35:52.483   2216497626.127
RECEIVE_FREQ_1 =   2022-11-24T21:36:02.938   2216497624.727
RECEIVE_FREQ_1 =   2022-11-24T21:36:13.478   2216497623.327
RECEIVE_FREQ_1 =   2022-11-24T21:36:24.019   2216497621.927
RECEIVE_FREQ_1 =   2022-11-24T21:36:34.474   2216497620.427
RECEIVE_FREQ_1 =   2022-11-24T21:36:45.101   2216497619.427
RECEIVE_FREQ_1 =   2022-11-24T21:36:55.555   2216497617.827
RECEIVE_FREQ_1 =   2022-11-24T21:37:06.096   2216497616.227
RECEIVE_FREQ_1 =   2022-11-24T21:37:16.637   2216497614.527
RECEIVE_FREQ_1 =   2022-11-24T21:37:27.178   2216497613.427
RECEIVE_FREQ_1 =   2022-11-24T21:37:37.718   2216497612.027
RECEIVE_FREQ_1 =   2022-11-24T21:37:48.173   2216497610.427
RECEIVE_FREQ_1 =   2022-11-24T21:37:58.714   2216497609.227
RECEIVE_FREQ_1 =   2022-11-24T21:38:09.254   2216497607.927
RECEIVE_FREQ_1 =   2022-11-24T21:38:30.250   2216497605.027
RECEIVE_FREQ_1 =   2022-11-24T21:38:40.704   2216497603.427
RECEIVE_FREQ_1 =   2022-11-24T21:38:51.158   2216497602.027
RECEIVE_FREQ_1 =   2022-11-24T21:39:01.699   2216497600.727
RECEIVE_FREQ_1 =   2022-11-24T21:39:12.240   2216497599.727
RECEIVE_FREQ_1 =   2022-11-24T21:39:22.781   2216497597.927
RECEIVE_FREQ_1 =   2022-11-24T21:39:33.235   2216497596.727
RECEIVE_FREQ_1 =   2022-11-24T21:39:43.776   2216497595.527
RECEIVE_FREQ_1 =   2022-11-24T21:39:54.230   2216497594.127
RECEIVE_FREQ_1 =   2022-11-24T21:40:04.771   2216497592.327
RECEIVE_FREQ_1 =   2022-11-24T21:40:15.312   2216497591.227
RECEIVE_FREQ_1 =   2022-11-24T21:40:25.766   2216497589.527
RECEIVE_FREQ_1 =   2022-11-24T21:40:36.307   2216497588.327
RECEIVE_FREQ_1 =   2022-11-24T21:40:46.762   2216497586.627
RECEIVE_FREQ_1 =   2022-11-24T21:40:57.302   2216497585.627
RECEIVE_FREQ_1 =   2022-11-24T21:41:18.298   2216497582.827
RECEIVE_FREQ_1 =   2022-11-24T21:41:28.838   2216497581.327
RECEIVE_FREQ_1 =   2022-11-24T21:41:49.920   2216497578.527
RECEIVE_FREQ_1 =   2022-11-24T21:42:00.374   2216497576.927
RECEIVE_FREQ_1 =   2022-11-24T21:42:10.915   2216497575.527
RECEIVE_FREQ_1 =   2022-11-24T21:42:31.910   2216497572.827
RECEIVE_FREQ_1 =   2022-11-24T21:42:42.451   2216497571.327
RECEIVE_FREQ_1 =   2022-11-24T21:42:52.906   2216497570.327
RECEIVE_FREQ_1 =   2022-11-24T21:43:03.446   2216497568.627
RECEIVE_FREQ_1 =   2022-11-24T21:43:24.442   2216497565.527
RECEIVE_FREQ_1 =   2022-11-24T21:43:34.982   2216497564.327
RECEIVE_FREQ_1 =   2022-11-24T21:43:45.437   2216497563.027
RECEIVE_FREQ_1 =   2022-11-24T21:43:55.978   2216497561.827
RECEIVE_FREQ_1 =   2022-11-24T21:44:06.432   2216497560.127
RECEIVE_FREQ_1 =   2022-11-24T21:44:16.973   2216497559.027
RECEIVE_FREQ_1 =   2022-11-24T21:44:27.427   2216497557.527
RECEIVE_FREQ_1 =   2022-11-24T21:44:37.968   2216497556.127
RECEIVE_FREQ_1 =   2022-11-24T21:44:48.422   2216497554.527
RECEIVE_FREQ_1 =   2022-11-24T21:44:58.963   2216497553.327
RECEIVE_FREQ_1 =   2022-11-24T21:45:09.418   2216497551.927
RECEIVE_FREQ_1 =   2022-11-24T21:45:19.958   2216497550.427
RECEIVE_FREQ_1 =   2022-11-24T21:45:30.413   2216497549.127
RECEIVE_FREQ_1 =   2022-11-24T21:45:40.867   2216497547.727
RECEIVE_FREQ_1 =   2022-11-24T21:45:51.408   2216497546.627
RECEIVE_FREQ_1 =   2022-11-24T21:46:01.862   2216497544.827
RECEIVE_FREQ_1 =   2022-11-24T21:46:12.403   2216497543.327
RECEIVE_FREQ_1 =   2022-11-24T21:46:22.858   2216497542.027
RECEIVE_FREQ_1 =   2022-11-24T21:46:33.398   2216497540.927
RECEIVE_FREQ_1 =   2022-11-24T21:46:43.853   2216497539.227
RECEIVE_FREQ_1 =   2022-11-24T21:46:54.307   2216497537.827
RECEIVE_FREQ_1 =   2022-11-24T21:47:04.848   2216497536.727
RECEIVE_FREQ_1 =   2022-11-24T21:47:15.302   2216497535.327
RECEIVE_FREQ_1 =   2022-11-24T21:47:25.843   2216497533.827
RECEIVE_FREQ_1 =   2022-11-24T21:47:36.298   2216497532.527
RECEIVE_FREQ_1 =   2022-11-24T21:47:46.838   2216497531.027
RECEIVE_FREQ_1 =   2022-11-24T21:47:57.293   2216497529.827
RECEIVE_FREQ_1 =   2022-11-24T21:48:07.747   2216497528.027
RECEIVE_FREQ_1 =   2022-11-24T21:48:18.288   2216497526.827
RECEIVE_FREQ_1 =   2022-11-24T21:48:28.742   2216497525.527
RECEIVE_FREQ_1 =   2022-11-24T21:48:39.283   2216497523.927
RECEIVE_FREQ_1 =   2022-11-24T21:48:49.738   2216497522.627
RECEIVE_FREQ_1 =   2022-11-24T21:49:00.192   2216497521.127
RECEIVE_FREQ_1 =   2022-11-24T21:49:10.733   2216497519.627
RECEIVE_FREQ_1 =   2022-11-24T21:49:21.274   2216497518.627
RECEIVE_FREQ_1 =   2022-11-24T21:49:31.728   2216497517.227
RECEIVE_FREQ_1 =   2022-11-24T21:49:42.269   2216497516.127
RECEIVE_FREQ_1 =   2022-11-24T21:49:52.723   2216497514.127
RECEIVE_FREQ_1 =   2022-11-24T21:50:03.264   2216497513.027
RECEIVE_FREQ_1 =   2022-11-24T21:50:13.718   2216497511.027
RECEIVE_FREQ_1 =   2022-11-24T21:50:24.173   2216497510.227
RECEIVE_FREQ_1 =   2022-11-24T21:50:34.714   2216497508.527
RECEIVE_FREQ_1 =   2022-11-24T21:50:45.254   2216497507.127
RECEIVE_FREQ_1 =   2022-11-24T21:50:55.709   2216497506.127
RECEIVE_FREQ_1 =   2022-11-24T21:51:06.250   2216497504.827
RECEIVE_FREQ_1 =   2022-11-24T21:51:16.790   2216497503.227
RECEIVE_FREQ_1 =   2022-11-24T21:51:27.245   2216497501.527
RECEIVE_FREQ_1 =   2022-11-24T21:51:37.786   2216497500.127
RECEIVE_FREQ_1 =   2022-11-24T21:51:48.240   2216497498.827
RECEIVE_FREQ_1 =   2022-11-24T21:51:58.781   2216497497.027
RECEIVE_FREQ_1 =   2022-11-24T21:52:09.322   2216497495.927
RECEIVE_FREQ_1 =   2022-11-24T21:52:19.776   2216497494.227
RECEIVE_FREQ_1 =   2022-11-24T21:52:40.858   2216497487.927
RECEIVE_FREQ_1 =   2022-11-24T21:52:51.312   2216497485.727
RECEIVE_FREQ_1 =   2022-11-24T21:53:12.394   2216497482.927
RECEIVE_FREQ_1 =   2022-11-24T21:53:33.562   2216497480.427
RECEIVE_FREQ_1 =   2022-11-24T21:53:44.016   2216497478.227
RECEIVE_FREQ_1 =   2022-11-24T21:53:54.557   2216497477.427
RECEIVE_FREQ_1 =   2022-11-24T21:54:05.011   2216497475.727
RECEIVE_FREQ_1 =   2022-11-24T21:54:15.552   2216497474.827
RECEIVE_FREQ_1 =   2022-11-24T21:54:26.093   2216497473.727
RECEIVE_FREQ_1 =   2022-11-24T21:54:36.547   2216497472.627
RECEIVE_FREQ_1 =   2022-11-24T21:54:47.002   2216497471.227
RECEIVE_FREQ_1 =   2022-11-24T21:54:57.542   2216497470.227
RECEIVE_FREQ_1 =   2022-11-24T21:55:08.083   2216497467.427
RECEIVE_FREQ_1 =   2022-11-24T21:55:18.538   2216497466.427
RECEIVE_FREQ_1 =   2022-11-24T21:55:29.078   2216497465.127
RECEIVE_FREQ_1 =   2022-11-24T21:55:39.533   2216497463.727
RECEIVE_FREQ_1 =   2022-11-24T21:55:50.074   2216497461.627
RECEIVE_FREQ_1 =   2022-11-24T21:56:00.528   2216497460.327
RECEIVE_FREQ_1 =   2022-11-24T21:56:11.069   2216497458.827
RECEIVE_FREQ_1 =   2022-11-24T21:56:21.523   2216497458.027
RECEIVE_FREQ_1 =   2022-11-24T21:56:32.064   2216497456.127
RECEIVE_FREQ_1 =   2022-11-24T21:56:42.605   2216497454.927
RECEIVE_FREQ_1 =   2022-11-24T21:56:53.059   2216497453.427
RECEIVE_FREQ_1 =   2022-11-24T21:57:03.514   2216497452.427
RECEIVE_FREQ_1 =   2022-11-24T21:57:14.054   2216497450.427
RECEIVE_FREQ_1 =   2022-11-24T21:57:24.509   2216497449.427
RECEIVE_FREQ_1 =   2022-11-24T21:57:35.050   2216497447.627
RECEIVE_FREQ_1 =   2022-11-24T21:57:45.504   2216497446.127
RECEIVE_FREQ_1 =   2022-11-24T21:57:56.045   2216497445.227
RECEIVE_FREQ_1 =   2022-11-24T21:58:06.499   2216497443.427
RECEIVE_FREQ_1 =   2022-11-24T21:58:17.040   2216497442.127
RECEIVE_FREQ_1 =   2022-11-24T21:58:27.581   2216497440.627
RECEIVE_FREQ_1 =   2022-11-24T21:58:38.122   2216497439.227
RECEIVE_FREQ_1 =   2022-11-24T21:58:48.576   2216497437.827
RECEIVE_FREQ_1 =   2022-11-24T21:58:59.117   2216497436.427
RECEIVE_FREQ_1 =   2022-11-24T21:59:09.658   2216497434.827
RECEIVE_FREQ_1 =   2022-11-24T21:59:20.112   2216497433.827
RECEIVE_FREQ_1 =   2022-11-24T21:59:30.566   2216497432.227
RECEIVE_FREQ_1 =   2022-11-24T21:59:41.107   2216497430.827
RECEIVE_FREQ_1 =   2022-11-24T21:59:51.562   2216497429.727
RECEIVE_FREQ_1 =   2022-11-24T22:00:02.016   2216497427.827
RECEIVE_FREQ_1 =   2022-11-24T22:00:12.557   2216497426.327
RECEIVE_FREQ_1 =   2022-11-24T22:00:23.011   2216497424.927
RECEIVE_FREQ_1 =   2022-11-24T22:00:33.466   2216497423.827
RECEIVE_FREQ_1 =   2022-11-24T22:00:44.006   2216497422.627
RECEIVE_FREQ_1 =   2022-11-24T22:00:54.461   2216497421.027
RECEIVE_FREQ_1 =   2022-11-24T22:01:05.002   2216497419.427
RECEIVE_FREQ_1 =   2022-11-24T22:01:15.456   2216497417.827
RECEIVE_FREQ_1 =   2022-11-24T22:01:25.997   2216497416.727
RECEIVE_FREQ_1 =   2022-11-24T22:01:36.538   2216497415.227
RECEIVE_FREQ_1 =   2022-11-24T22:01:46.992   2216497413.727
RECEIVE_FREQ_1 =   2022-11-24T22:01:57.533   2216497412.127
RECEIVE_FREQ_1 =   2022-11-24T22:02:07.987   2216497410.827
RECEIVE_FREQ_1 =   2022-11-24T22:02:18.528   2216497409.027
RECEIVE_FREQ_1 =   2022-11-24T22:02:28.982   2216497408.027
RECEIVE_FREQ_1 =   2022-11-24T22:02:39.523   2216497406.627
RECEIVE_FREQ_1 =   2022-11-24T22:02:49.978   2216497405.027
RECEIVE_FREQ_1 =   2022-11-24T22:03:00.518   2216497403.327
RECEIVE_FREQ_1 =   2022-11-24T22:03:11.059   2216497402.327
RECEIVE_FREQ_1 =   2022-11-24T22:03:21.600   2216497400.727
RECEIVE_FREQ_1 =   2022-11-24T22:03:32.141   2216497399.327
RECEIVE_FREQ_1 =   2022-11-24T22:03:42.595   2216497397.827
RECEIVE_FREQ_1 =   2022-11-24T22:03:53.136   2216497396.627
RECEIVE_FREQ_1 =   2022-11-24T22:04:03.677   2216497395.127
RECEIVE_FREQ_1 =   2022-11-24T22:04:14.218   2216497393.927
RECEIVE_FREQ_1 =   2022-11-24T22:04:24.672   2216497392.127
RECEIVE_FREQ_1 =   2022-11-24T22:04:35.213   2216497391.127
RECEIVE_FREQ_1 =   2022-11-24T22:04:45.754   2216497389.827
RECEIVE_FREQ_1 =   2022-11-24T22:04:56.294   2216497388.127
RECEIVE_FREQ_1 =   2022-11-24T22:05:06.835   2216497387.027
RECEIVE_FREQ_1 =   2022-11-24T22:05:17.376   2216497385.727
RECEIVE_FREQ_1 =   2022-11-24T22:05:27.830   2216497383.927
RECEIVE_FREQ_1 =   2022-11-24T22:05:38.371   2216497382.927
RECEIVE_FREQ_1 =   2022-11-24T22:05:48.826   2216497381.427
RECEIVE_FREQ_1 =   2022-11-24T22:05:59.366   2216497380.127
RECEIVE_FREQ_1 =   2022-11-24T22:06:20.275   2216497377.427
RECEIVE_FREQ_1 =   2022-11-24T22:06:30.730   2216497375.727
RECEIVE_FREQ_1 =   2022-11-24T22:06:41.270   2216497374.827
RECEIVE_FREQ_1 =   2022-11-24T22:06:51.725   2216497373.227
RECEIVE_FREQ_1 =   2022-11-24T22:07:02.179   2216497372.227
RECEIVE_FREQ_1 =   2022-11-24T22:07:12.720   2216497370.727
RECEIVE_FREQ_1 =   2022-11-24T22:07:23.174   2216497369.327
RECEIVE_FREQ_1 =   2022-11-24T22:07:33.715   2216497367.327
RECEIVE_FREQ_1 =   2022-11-24T22:07:44.256   2216497366.627
RECEIVE_FREQ_1 =   2022-11-24T22:07:54.710   2216497365.327
RECEIVE_FREQ_1 =   2022-11-24T22:08:05.251   2216497363.727
RECEIVE_FREQ_1 =   2022-11-24T22:08:15.706   2216497362.327
RECEIVE_FREQ_1 =   2022-11-24T22:08:26.246   2216497361.027
RECEIVE_FREQ_1 =   2022-11-24T22:08:36.701   2216497359.627
RECEIVE_FREQ_1 =   2022-11-24T22:08:47.242   2216497358.127
RECEIVE_FREQ_1 =   2022-11-24T22:08:57.782   2216497357.127
RECEIVE_FREQ_1 =   2022-11-24T22:09:08.237   2216497355.227
RECEIVE_FREQ_1 =   2022-11-24T22:09:18.778   2216497354.027
RECEIVE_FREQ_1 =   2022-11-24T22:09:29.232   2216497352.827
RECEIVE_FREQ_1 =   2022-11-24T22:09:39.773   2216497351.227
RECEIVE_FREQ_1 =   2022-11-24T22:09:50.227   2216497350.027
RECEIVE_FREQ_1 =   2022-11-24T22:10:00.768   2216497348.327
RECEIVE_FREQ_1 =   2022-11-24T22:10:11.222   2216497347.327
RECEIVE_FREQ_1 =   2022-11-24T22:10:21.763   2216497345.927
RECEIVE_FREQ_1 =   2022-11-24T22:10:32.304   2216497344.527
RECEIVE_FREQ_1 =   2022-11-24T22:10:42.758   2216497342.527
RECEIVE_FREQ_1 =   2022-11-24T22:11:03.754   2216497340.227
RECEIVE_FREQ_1 =   2022-11-24T22:11:14.294   2216497338.827
RECEIVE_FREQ_1 =   2022-11-24T22:11:24.749   2216497337.127
RECEIVE_FREQ_1 =   2022-11-24T22:11:45.744   2216497335.027
RECEIVE_FREQ_1 =   2022-11-24T22:11:56.285   2216497333.127
RECEIVE_FREQ_1 =   2022-11-24T22:12:17.280   2216497330.227
RECEIVE_FREQ_1 =   2022-11-24T22:12:27.821   2216497328.927
RECEIVE_FREQ_1 =   2022-11-24T22:12:38.275   2216497327.827
RECEIVE_FREQ_1 =   2022-11-24T22:12:48.816   2216497325.927
RECEIVE_FREQ_1 =   2022-11-24T22:12:59.270   2216497325.027
RECEIVE_FREQ_1 =   2022-11-24T22:13:09.811   2216497323.727
RECEIVE_FREQ_1 =   2022-11-24T22:13:30.806   2216497320.327
RECEIVE_FREQ_1 =   2022-11-24T22:13:51.888   2216497317.527
RECEIVE_FREQ_1 =   2022-11-24T22:14:02.429   2216497316.027
RECEIVE_FREQ_1 =   2022-11-24T22:14:44.419   2216497310.527
RECEIVE_FREQ_1 =   2022-11-24T22:15:05.414   2216497307.527
RECEIVE_FREQ_1 =   2022-11-24T22:15:57.946   2216497300.527
RECEIVE_FREQ_1 =   2022-11-24T22:16:29.482   2216497296.227
RECEIVE_FREQ_1 =   2022-11-24T22:17:21.926   2216497289.127
RECEIVE_FREQ_1 =   2022-11-24T22:17:32.467   2216497287.827
RECEIVE_FREQ_1 =   2022-11-24T22:17:42.922   2216497286.127
RECEIVE_FREQ_1 =   2022-11-24T22:18:03.917   2216497283.227
RECEIVE_FREQ_1 =   2022-11-24T22:18:56.448   2216497276.127
RECEIVE_FREQ_1 =   2022-11-24T22:19:06.902   2216497274.327
RECEIVE_FREQ_1 =   2022-11-24T22:19:17.443   2216497272.527
RECEIVE_FREQ_1 =   2022-11-24T22:21:12.874   2216497256.827
RECEIVE_FREQ_1 =   2022-11-24T22:21:23.414   2216497255.727
RECEIVE_FREQ_1 =   2022-11-24T22:21:54.864   2216497251.227
RECEIVE_FREQ_1 =   2022-11-24T22:22:05.405   2216497249.8
RECEIVE_FREQ_1 =   2022-11-24T22:22:15.859   2216497248.2
RECEIVE_FREQ_1 =   2022-11-24T22:22:26.400   2216497246.6
RECEIVE_FREQ_1 =   2022-11-24T22:22:36.854   2216497245.1
RECEIVE_FREQ_1 =   2022-11-24T22:22:47.309   2216497243.8
RECEIVE_FREQ_1 =   2022-11-24T22:22:57.850   2216497242.2
RECEIVE_FREQ_1 =   2022-11-24T22:23:08.390   2216497240.9
RECEIVE_FREQ_1 =   2022-11-24T22:23:18.845   2216497239.2
RECEIVE_FREQ_1 =   2022-11-24T22:23:29.299   2216497238.0
RECEIVE_FREQ_1 =   2022-11-24T22:23:39.840   2216497236.5
RECEIVE_FREQ_1 =   2022-11-24T22:23:50.381   2216497235.0
RECEIVE_FREQ_1 =   2022-11-24T22:24:00.835   2216497233.7
RECEIVE_FREQ_1 =   2022-11-24T22:24:11.376   2216497232.4
RECEIVE_FREQ_1 =   2022-11-24T22:24:21.917   2216497231.1
RECEIVE_FREQ_1 =   2022-11-24T22:24:32.458   2216497229.8
RECEIVE_FREQ_1 =   2022-11-24T22:24:42.998   2216497228.3
RECEIVE_FREQ_1 =   2022-11-24T22:24:53.453   2216497227.0
RECEIVE_FREQ_1 =   2022-11-24T22:25:03.994   2216497225.7
