data/tdm/2022-12-10Z_2022-156A.tdm

CCSDS_TDM_VERS = 2.0
COMMENT TDM ARTEMIS 1 Doppler data by Scott Tilley for 2022-12-10 UTC
COMMENT Signal not demodulated, to low of SNR, centre carrier integrated in 10s by 0.1Hz bin and extracted for peak value.
CREATION_DATE = 2022-12-10Z
ORIGINATOR = SCOTT TILLEY

META_START
COMMENT 
COMMENT 
SYSTEM TIME = UTC
PARTICIPANT_1 = COSPAR 8049
PARTICIPANT_2 = 2022-156A
MODE = SEQUENTIAL
PATH = 2,1
INTEGRATION_INTERVAL = 10
INTEGRATION_REF = MIDDLE
FREQ_OFFSET = 0
TRANSMIT_DELAY_1 = 0
RECEIVE_DELAY_1 = 0
DATA_QUALITY = RAW
META_STOP

DATA_START
RECEIVE_FREQ_1 =   2022-12-11T02:15:38.189   2216513773.4
RECEIVE_FREQ_1 =   2022-12-11T02:16:48.173   2216513774.6
RECEIVE_FREQ_1 =   2022-12-11T02:17:18.154   2216513775.1
RECEIVE_FREQ_1 =   2022-12-11T02:17:28.176   2216513775.4
RECEIVE_FREQ_1 =   2022-12-11T02:17:38.198   2216513775.5
RECEIVE_FREQ_1 =   2022-12-11T02:17:48.221   2216513775.6
RECEIVE_FREQ_1 =   2022-12-11T02:17:58.157   2216513775.7
RECEIVE_FREQ_1 =   2022-12-11T02:18:48.182   2216513776.7
RECEIVE_FREQ_1 =   2022-12-11T02:19:28.186   2216513777.4
RECEIVE_FREQ_1 =   2022-12-11T02:20:18.211   2216513778.1
RECEIVE_FREQ_1 =   2022-12-11T02:20:28.147   2216513778.3
RECEIVE_FREQ_1 =   2022-12-11T02:21:08.150   2216513778.8
RECEIVE_FREQ_1 =   2022-12-11T02:21:28.195   2216513779.2
RECEIVE_FREQ_1 =   2022-12-11T02:21:38.131   2216513779.2
RECEIVE_FREQ_1 =   2022-12-11T02:21:58.176   2216513779.6
RECEIVE_FREQ_1 =   2022-12-11T02:22:08.112   2216513779.6
RECEIVE_FREQ_1 =   2022-12-11T02:22:18.134   2216513779.7
RECEIVE_FREQ_1 =   2022-12-11T02:22:38.179   2216513779.9
RECEIVE_FREQ_1 =   2022-12-11T02:22:48.202   2216513780.2
RECEIVE_FREQ_1 =   2022-12-11T02:23:08.160   2216513780.4
RECEIVE_FREQ_1 =   2022-12-11T02:23:38.141   2216513780.7
RECEIVE_FREQ_1 =   2022-12-11T02:23:48.163   2216513780.8
RECEIVE_FREQ_1 =   2022-12-11T02:23:58.186   2216513780.9
RECEIVE_FREQ_1 =   2022-12-11T02:24:08.208   2216513781.1
RECEIVE_FREQ_1 =   2022-12-11T02:24:18.144   2216513781.1
RECEIVE_FREQ_1 =   2022-12-11T02:24:28.166   2216513781.2
RECEIVE_FREQ_1 =   2022-12-11T02:24:38.189   2216513781.4
RECEIVE_FREQ_1 =   2022-12-11T02:24:48.125   2216513781.5
RECEIVE_FREQ_1 =   2022-12-11T02:24:58.147   2216513781.6
RECEIVE_FREQ_1 =   2022-12-11T02:25:08.170   2216513781.5
RECEIVE_FREQ_1 =   2022-12-11T02:25:18.192   2216513781.6
RECEIVE_FREQ_1 =   2022-12-11T02:25:28.214   2216513781.9
RECEIVE_FREQ_1 =   2022-12-11T02:25:38.150   2216513782.0
RECEIVE_FREQ_1 =   2022-12-11T02:25:48.173   2216513782.1
RECEIVE_FREQ_1 =   2022-12-11T02:25:58.195   2216513782.3
RECEIVE_FREQ_1 =   2022-12-11T02:26:08.131   2216513782.4
RECEIVE_FREQ_1 =   2022-12-11T02:26:18.154   2216513782.4
RECEIVE_FREQ_1 =   2022-12-11T02:26:28.176   2216513782.2
RECEIVE_FREQ_1 =   2022-12-11T02:26:38.198   2216513782.6
RECEIVE_FREQ_1 =   2022-12-11T02:26:48.221   2216513782.7
RECEIVE_FREQ_1 =   2022-12-11T02:26:58.157   2216513782.7
RECEIVE_FREQ_1 =   2022-12-11T02:27:08.179   2216513782.8
RECEIVE_FREQ_1 =   2022-12-11T02:27:18.202   2216513782.8
RECEIVE_FREQ_1 =   2022-12-11T02:27:28.138   2216513783.1
RECEIVE_FREQ_1 =   2022-12-11T02:27:38.160   2216513783.0
RECEIVE_FREQ_1 =   2022-12-11T02:27:48.182   2216513783.0
RECEIVE_FREQ_1 =   2022-12-11T02:27:58.205   2216513783.2
RECEIVE_FREQ_1 =   2022-12-11T02:28:08.141   2216513783.2
RECEIVE_FREQ_1 =   2022-12-11T02:28:18.163   2216513783.4
RECEIVE_FREQ_1 =   2022-12-11T02:28:28.186   2216513783.4
RECEIVE_FREQ_1 =   2022-12-11T02:28:38.122   2216513783.6
RECEIVE_FREQ_1 =   2022-12-11T02:28:48.144   2216513783.5
RECEIVE_FREQ_1 =   2022-12-11T02:28:58.166   2216513783.8
RECEIVE_FREQ_1 =   2022-12-11T02:29:08.189   2216513783.7
RECEIVE_FREQ_1 =   2022-12-11T02:29:18.125   2216513783.8
RECEIVE_FREQ_1 =   2022-12-11T02:29:28.147   2216513783.8
RECEIVE_FREQ_1 =   2022-12-11T02:29:38.170   2216513783.9
RECEIVE_FREQ_1 =   2022-12-11T02:29:48.192   2216513784.0
RECEIVE_FREQ_1 =   2022-12-11T02:29:58.128   2216513784.0
RECEIVE_FREQ_1 =   2022-12-11T02:30:08.150   2216513784.1
RECEIVE_FREQ_1 =   2022-12-11T02:30:18.173   2216513784.0
RECEIVE_FREQ_1 =   2022-12-11T02:30:28.195   2216513783.9
RECEIVE_FREQ_1 =   2022-12-11T02:30:38.218   2216513784.1
RECEIVE_FREQ_1 =   2022-12-11T02:30:48.154   2216513783.9
RECEIVE_FREQ_1 =   2022-12-11T02:30:58.176   2216513784.0
RECEIVE_FREQ_1 =   2022-12-11T02:31:08.198   2216513784.3
RECEIVE_FREQ_1 =   2022-12-11T02:31:18.221   2216513784.5
RECEIVE_FREQ_1 =   2022-12-11T02:31:28.157   2216513784.6
RECEIVE_FREQ_1 =   2022-12-11T02:31:38.179   2216513784.4
RECEIVE_FREQ_1 =   2022-12-11T02:31:48.202   2216513784.5
RECEIVE_FREQ_1 =   2022-12-11T02:31:58.138   2216513784.3
RECEIVE_FREQ_1 =   2022-12-11T02:32:08.160   2216513784.5
RECEIVE_FREQ_1 =   2022-12-11T02:32:18.182   2216513784.3
RECEIVE_FREQ_1 =   2022-12-11T02:32:28.205   2216513784.5
RECEIVE_FREQ_1 =   2022-12-11T02:32:38.141   2216513784.4
RECEIVE_FREQ_1 =   2022-12-11T02:32:48.163   2216513784.4
RECEIVE_FREQ_1 =   2022-12-11T02:32:58.186   2216513784.6
RECEIVE_FREQ_1 =   2022-12-11T02:33:08.122   2216513784.5
RECEIVE_FREQ_1 =   2022-12-11T02:33:18.144   2216513784.6
RECEIVE_FREQ_1 =   2022-12-11T02:33:28.166   2216513784.3
RECEIVE_FREQ_1 =   2022-12-11T02:33:38.189   2216513784.8
RECEIVE_FREQ_1 =   2022-12-11T02:33:48.125   2216513785.2
RECEIVE_FREQ_1 =   2022-12-11T02:33:58.147   2216513785.0
RECEIVE_FREQ_1 =   2022-12-11T02:34:08.170   2216513785.0
RECEIVE_FREQ_1 =   2022-12-11T02:34:18.192   2216513784.9
RECEIVE_FREQ_1 =   2022-12-11T02:34:28.128   2216513784.9
RECEIVE_FREQ_1 =   2022-12-11T02:34:38.150   2216513785.0
RECEIVE_FREQ_1 =   2022-12-11T02:34:48.173   2216513785.1
RECEIVE_FREQ_1 =   2022-12-11T02:34:58.195   2216513785.2
RECEIVE_FREQ_1 =   2022-12-11T02:35:08.131   2216513785.5
RECEIVE_FREQ_1 =   2022-12-11T02:35:18.154   2216513785.4
RECEIVE_FREQ_1 =   2022-12-11T02:35:28.176   2216513785.6
RECEIVE_FREQ_1 =   2022-12-11T02:35:38.112   2216513785.7
RECEIVE_FREQ_1 =   2022-12-11T02:35:48.134   2216513785.9
RECEIVE_FREQ_1 =   2022-12-11T02:35:58.157   2216513785.8
RECEIVE_FREQ_1 =   2022-12-11T02:36:08.179   2216513786.2
RECEIVE_FREQ_1 =   2022-12-11T02:36:18.202   2216513786.2
RECEIVE_FREQ_1 =   2022-12-11T02:36:28.138   2216513786.2
RECEIVE_FREQ_1 =   2022-12-11T02:36:38.160   2216513786.5
RECEIVE_FREQ_1 =   2022-12-11T02:36:48.182   2216513786.4
RECEIVE_FREQ_1 =   2022-12-11T02:36:58.118   2216513786.6
RECEIVE_FREQ_1 =   2022-12-11T02:37:08.141   2216513786.7
RECEIVE_FREQ_1 =   2022-12-11T02:37:18.163   2216513786.8
RECEIVE_FREQ_1 =   2022-12-11T02:37:28.186   2216513787.0
RECEIVE_FREQ_1 =   2022-12-11T02:37:38.122   2216513787.1
RECEIVE_FREQ_1 =   2022-12-11T02:37:48.144   2216513787.3
RECEIVE_FREQ_1 =   2022-12-11T02:37:58.166   2216513787.3
RECEIVE_FREQ_1 =   2022-12-11T02:38:08.189   2216513787.4
RECEIVE_FREQ_1 =   2022-12-11T02:38:18.211   2216513787.6
RECEIVE_FREQ_1 =   2022-12-11T02:38:28.147   2216513787.6
RECEIVE_FREQ_1 =   2022-12-11T02:38:38.170   2216513787.5
RECEIVE_FREQ_1 =   2022-12-11T02:38:48.192   2216513787.9
RECEIVE_FREQ_1 =   2022-12-11T02:38:58.128   2216513787.9
RECEIVE_FREQ_1 =   2022-12-11T02:39:08.150   2216513787.9
RECEIVE_FREQ_1 =   2022-12-11T02:39:18.173   2216513788.0
RECEIVE_FREQ_1 =   2022-12-11T02:39:28.109   2216513788.3
RECEIVE_FREQ_1 =   2022-12-11T02:39:38.131   2216513788.2
RECEIVE_FREQ_1 =   2022-12-11T02:39:48.154   2216513788.4
RECEIVE_FREQ_1 =   2022-12-11T02:39:58.176   2216513788.5
RECEIVE_FREQ_1 =   2022-12-11T02:40:08.198   2216513788.4
RECEIVE_FREQ_1 =   2022-12-11T02:40:18.134   2216513788.5
RECEIVE_FREQ_1 =   2022-12-11T02:40:28.157   2216513788.7
RECEIVE_FREQ_1 =   2022-12-11T02:40:38.179   2216513788.7
RECEIVE_FREQ_1 =   2022-12-11T02:40:48.115   2216513788.7
RECEIVE_FREQ_1 =   2022-12-11T02:40:58.138   2216513789.2
RECEIVE_FREQ_1 =   2022-12-11T02:41:08.160   2216513789.0
RECEIVE_FREQ_1 =   2022-12-11T02:41:18.182   2216513789.1
RECEIVE_FREQ_1 =   2022-12-11T02:41:28.118   2216513789.2
RECEIVE_FREQ_1 =   2022-12-11T02:41:38.141   2216513789.2
RECEIVE_FREQ_1 =   2022-12-11T02:41:48.163   2216513789.2
RECEIVE_FREQ_1 =   2022-12-11T02:41:58.186   2216513789.4
RECEIVE_FREQ_1 =   2022-12-11T02:42:08.208   2216513789.3
RECEIVE_FREQ_1 =   2022-12-11T02:42:18.144   2216513789.6
RECEIVE_FREQ_1 =   2022-12-11T02:42:28.166   2216513789.5
RECEIVE_FREQ_1 =   2022-12-11T02:42:38.189   2216513789.7
RECEIVE_FREQ_1 =   2022-12-11T02:42:48.211   2216513789.7
RECEIVE_FREQ_1 =   2022-12-11T02:42:58.147   2216513789.7
RECEIVE_FREQ_1 =   2022-12-11T02:43:08.170   2216513789.9
RECEIVE_FREQ_1 =   2022-12-11T02:43:18.192   2216513789.9
RECEIVE_FREQ_1 =   2022-12-11T02:43:28.128   2216513789.7
RECEIVE_FREQ_1 =   2022-12-11T02:43:38.150   2216513790.1
RECEIVE_FREQ_1 =   2022-12-11T02:43:48.173   2216513789.9
RECEIVE_FREQ_1 =   2022-12-11T02:43:58.195   2216513790.0
RECEIVE_FREQ_1 =   2022-12-11T02:44:08.131   2216513790.0
RECEIVE_FREQ_1 =   2022-12-11T02:44:18.154   2216513790.1
RECEIVE_FREQ_1 =   2022-12-11T02:44:28.176   2216513790.1
RECEIVE_FREQ_1 =   2022-12-11T02:44:38.112   2216513790.2
RECEIVE_FREQ_1 =   2022-12-11T02:44:48.134   2216513790.4
RECEIVE_FREQ_1 =   2022-12-11T02:44:58.157   2216513790.3
RECEIVE_FREQ_1 =   2022-12-11T02:45:08.179   2216513790.3
RECEIVE_FREQ_1 =   2022-12-11T02:45:18.115   2216513790.4
RECEIVE_FREQ_1 =   2022-12-11T02:45:28.138   2216513790.5
RECEIVE_FREQ_1 =   2022-12-11T02:45:38.160   2216513790.7
RECEIVE_FREQ_1 =   2022-12-11T02:45:48.182   2216513790.6
RECEIVE_FREQ_1 =   2022-12-11T02:45:58.118   2216513790.5
RECEIVE_FREQ_1 =   2022-12-11T02:46:08.141   2216513790.7
RECEIVE_FREQ_1 =   2022-12-11T02:46:18.163   2216513790.7
RECEIVE_FREQ_1 =   2022-12-11T02:46:28.186   2216513790.7
RECEIVE_FREQ_1 =   2022-12-11T02:46:38.122   2216513790.8
RECEIVE_FREQ_1 =   2022-12-11T02:46:48.144   2216513790.8
RECEIVE_FREQ_1 =   2022-12-11T02:46:58.166   2216513790.7
RECEIVE_FREQ_1 =   2022-12-11T02:47:08.189   2216513790.8
RECEIVE_FREQ_1 =   2022-12-11T02:47:18.125   2216513790.8
RECEIVE_FREQ_1 =   2022-12-11T02:47:28.147   2216513790.9
RECEIVE_FREQ_1 =   2022-12-11T02:47:38.170   2216513790.9
RECEIVE_FREQ_1 =   2022-12-11T02:47:48.192   2216513790.9
RECEIVE_FREQ_1 =   2022-12-11T02:47:58.128   2216513790.9
RECEIVE_FREQ_1 =   2022-12-11T02:48:08.150   2216513790.7
RECEIVE_FREQ_1 =   2022-12-11T02:48:18.173   2216513790.9
RECEIVE_FREQ_1 =   2022-12-11T02:48:28.109   2216513790.9
RECEIVE_FREQ_1 =   2022-12-11T02:48:38.131   2216513791.0
RECEIVE_FREQ_1 =   2022-12-11T02:48:48.154   2216513791.0
RECEIVE_FREQ_1 =   2022-12-11T02:48:58.176   2216513790.8
RECEIVE_FREQ_1 =   2022-12-11T02:49:08.198   2216513791.0
RECEIVE_FREQ_1 =   2022-12-11T02:49:18.221   2216513790.9
RECEIVE_FREQ_1 =   2022-12-11T02:49:28.157   2216513791.0
RECEIVE_FREQ_1 =   2022-12-11T02:49:38.179   2216513791.0
RECEIVE_FREQ_1 =   2022-12-11T02:49:48.202   2216513791.1
RECEIVE_FREQ_1 =   2022-12-11T02:49:58.138   2216513791.1
RECEIVE_FREQ_1 =   2022-12-11T02:50:08.160   2216513791.1
RECEIVE_FREQ_1 =   2022-12-11T02:50:18.182   2216513791.1
RECEIVE_FREQ_1 =   2022-12-11T02:50:28.205   2216513790.9
RECEIVE_FREQ_1 =   2022-12-11T02:50:38.141   2216513791.0
RECEIVE_FREQ_1 =   2022-12-11T02:50:58.186   2216513790.8
RECEIVE_FREQ_1 =   2022-12-11T02:51:08.208   2216513791.1
RECEIVE_FREQ_1 =   2022-12-11T02:51:18.144   2216513791.1
RECEIVE_FREQ_1 =   2022-12-11T02:51:28.166   2216513791.1
RECEIVE_FREQ_1 =   2022-12-11T02:51:38.189   2216513790.9
RECEIVE_FREQ_1 =   2022-12-11T02:51:48.125   2216513791.2
RECEIVE_FREQ_1 =   2022-12-11T02:51:58.147   2216513791.0
RECEIVE_FREQ_1 =   2022-12-11T02:52:08.170   2216513790.9
RECEIVE_FREQ_1 =   2022-12-11T02:52:18.106   2216513790.9
RECEIVE_FREQ_1 =   2022-12-11T02:52:28.128   2216513790.9
RECEIVE_FREQ_1 =   2022-12-11T02:52:38.150   2216513790.9
RECEIVE_FREQ_1 =   2022-12-11T02:52:48.173   2216513790.8
RECEIVE_FREQ_1 =   2022-12-11T02:52:58.195   2216513790.8
RECEIVE_FREQ_1 =   2022-12-11T02:53:08.131   2216513790.8
RECEIVE_FREQ_1 =   2022-12-11T02:53:18.154   2216513790.9
RECEIVE_FREQ_1 =   2022-12-11T02:53:28.176   2216513790.8
RECEIVE_FREQ_1 =   2022-12-11T02:53:38.112   2216513790.8
RECEIVE_FREQ_1 =   2022-12-11T02:53:48.134   2216513790.6
RECEIVE_FREQ_1 =   2022-12-11T02:53:58.157   2216513790.8
RECEIVE_FREQ_1 =   2022-12-11T02:54:08.179   2216513790.7
RECEIVE_FREQ_1 =   2022-12-11T02:54:18.115   2216513790.7
RECEIVE_FREQ_1 =   2022-12-11T02:54:28.138   2216513790.7
RECEIVE_FREQ_1 =   2022-12-11T02:54:38.160   2216513790.5
RECEIVE_FREQ_1 =   2022-12-11T02:54:48.182   2216513790.6
RECEIVE_FREQ_1 =   2022-12-11T02:54:58.118   2216513790.6
RECEIVE_FREQ_1 =   2022-12-11T02:55:08.141   2216513790.5
RECEIVE_FREQ_1 =   2022-12-11T02:55:18.163   2216513790.4
RECEIVE_FREQ_1 =   2022-12-11T02:55:28.186   2216513790.5
RECEIVE_FREQ_1 =   2022-12-11T02:55:38.122   2216513790.5
RECEIVE_FREQ_1 =   2022-12-11T02:55:48.144   2216513790.3
RECEIVE_FREQ_1 =   2022-12-11T02:55:58.166   2216513790.2
RECEIVE_FREQ_1 =   2022-12-11T02:56:08.189   2216513790.1
RECEIVE_FREQ_1 =   2022-12-11T02:56:18.125   2216513790.1
RECEIVE_FREQ_1 =   2022-12-11T02:56:28.147   2216513790.2
RECEIVE_FREQ_1 =   2022-12-11T02:56:38.170   2216513790.0
RECEIVE_FREQ_1 =   2022-12-11T02:56:48.192   2216513790.1
RECEIVE_FREQ_1 =   2022-12-11T02:56:58.128   2216513790.2
RECEIVE_FREQ_1 =   2022-12-11T02:57:08.150   2216513790.0
RECEIVE_FREQ_1 =   2022-12-11T02:57:18.173   2216513789.9
RECEIVE_FREQ_1 =   2022-12-11T02:57:28.195   2216513789.8
RECEIVE_FREQ_1 =   2022-12-11T02:57:38.131   2216513789.8
RECEIVE_FREQ_1 =   2022-12-11T02:57:48.154   2216513789.7
RECEIVE_FREQ_1 =   2022-12-11T02:57:58.176   2216513789.6
RECEIVE_FREQ_1 =   2022-12-11T02:58:08.198   2216513789.7
RECEIVE_FREQ_1 =   2022-12-11T02:58:18.134   2216513789.5
RECEIVE_FREQ_1 =   2022-12-11T02:58:28.157   2216513789.4
RECEIVE_FREQ_1 =   2022-12-11T02:58:38.179   2216513789.4
RECEIVE_FREQ_1 =   2022-12-11T02:58:48.202   2216513789.3
RECEIVE_FREQ_1 =   2022-12-11T02:58:58.138   2216513789.3
RECEIVE_FREQ_1 =   2022-12-11T02:59:08.160   2216513789.2
RECEIVE_FREQ_1 =   2022-12-11T02:59:18.182   2216513789.1
RECEIVE_FREQ_1 =   2022-12-11T02:59:28.205   2216513789.0
RECEIVE_FREQ_1 =   2022-12-11T02:59:38.141   2216513789.0
RECEIVE_FREQ_1 =   2022-12-11T02:59:48.163   2216513788.8
RECEIVE_FREQ_1 =   2022-12-11T02:59:58.186   2216513788.8
RECEIVE_FREQ_1 =   2022-12-11T03:00:08.208   2216513788.6
RECEIVE_FREQ_1 =   2022-12-11T03:00:18.144   2216513788.7
RECEIVE_FREQ_1 =   2022-12-11T03:00:28.166   2216513788.9
RECEIVE_FREQ_1 =   2022-12-11T03:00:38.189   2216513788.8
RECEIVE_FREQ_1 =   2022-12-11T03:00:48.125   2216513789.0
RECEIVE_FREQ_1 =   2022-12-11T03:00:58.147   2216513788.8
RECEIVE_FREQ_1 =   2022-12-11T03:01:08.170   2216513789.3
RECEIVE_FREQ_1 =   2022-12-11T03:01:18.192   2216513788.9
RECEIVE_FREQ_1 =   2022-12-11T03:01:28.128   2216513788.9
RECEIVE_FREQ_1 =   2022-12-11T03:01:38.150   2216513789.0
RECEIVE_FREQ_1 =   2022-12-11T03:01:48.173   2216513789.0
RECEIVE_FREQ_1 =   2022-12-11T03:01:58.195   2216513788.9
RECEIVE_FREQ_1 =   2022-12-11T03:02:08.218   2216513789.0
RECEIVE_FREQ_1 =   2022-12-11T03:02:18.154   2216513789.0
RECEIVE_FREQ_1 =   2022-12-11T03:02:28.176   2216513788.9
RECEIVE_FREQ_1 =   2022-12-11T03:02:38.198   2216513789.1
RECEIVE_FREQ_1 =   2022-12-11T03:02:48.134   2216513789.3
RECEIVE_FREQ_1 =   2022-12-11T03:02:58.157   2216513789.0
RECEIVE_FREQ_1 =   2022-12-11T03:03:08.179   2216513789.0
RECEIVE_FREQ_1 =   2022-12-11T03:03:18.202   2216513789.1
RECEIVE_FREQ_1 =   2022-12-11T03:03:28.138   2216513789.1
RECEIVE_FREQ_1 =   2022-12-11T03:03:38.160   2216513789.2
RECEIVE_FREQ_1 =   2022-12-11T03:03:48.182   2216513789.0
RECEIVE_FREQ_1 =   2022-12-11T03:03:58.205   2216513789.0
RECEIVE_FREQ_1 =   2022-12-11T03:04:08.141   2216513789.1
RECEIVE_FREQ_1 =   2022-12-11T03:04:18.163   2216513789.3
RECEIVE_FREQ_1 =   2022-12-11T03:04:28.186   2216513789.3
RECEIVE_FREQ_1 =   2022-12-11T03:04:38.122   2216513789.1
RECEIVE_FREQ_1 =   2022-12-11T03:04:48.144   2216513789.1
RECEIVE_FREQ_1 =   2022-12-11T03:04:58.166   2216513789.1
RECEIVE_FREQ_1 =   2022-12-11T03:05:08.189   2216513789.0
RECEIVE_FREQ_1 =   2022-12-11T03:05:18.125   2216513789.0
RECEIVE_FREQ_1 =   2022-12-11T03:05:28.147   2216513789.1
RECEIVE_FREQ_1 =   2022-12-11T03:05:38.170   2216513789.1
RECEIVE_FREQ_1 =   2022-12-11T03:05:48.192   2216513789.1
RECEIVE_FREQ_1 =   2022-12-11T03:05:58.128   2216513789.1
RECEIVE_FREQ_1 =   2022-12-11T03:06:08.150   2216513789.2
RECEIVE_FREQ_1 =   2022-12-11T03:06:18.173   2216513788.9
RECEIVE_FREQ_1 =   2022-12-11T03:06:28.109   2216513789.0
RECEIVE_FREQ_1 =   2022-12-11T03:06:38.131   2216513788.9
RECEIVE_FREQ_1 =   2022-12-11T03:06:48.154   2216513789.1
RECEIVE_FREQ_1 =   2022-12-11T03:06:58.176   2216513789.1
RECEIVE_FREQ_1 =   2022-12-11T03:07:08.198   2216513789.0
RECEIVE_FREQ_1 =   2022-12-11T03:07:18.134   2216513788.9
RECEIVE_FREQ_1 =   2022-12-11T03:07:28.157   2216513788.8
RECEIVE_FREQ_1 =   2022-12-11T03:07:38.179   2216513789.1
RECEIVE_FREQ_1 =   2022-12-11T03:07:48.202   2216513788.9
RECEIVE_FREQ_1 =   2022-12-11T03:07:58.138   2216513788.9
RECEIVE_FREQ_1 =   2022-12-11T03:08:08.160   2216513788.9
RECEIVE_FREQ_1 =   2022-12-11T03:08:18.182   2216513788.6
RECEIVE_FREQ_1 =   2022-12-11T03:08:28.118   2216513788.8
RECEIVE_FREQ_1 =   2022-12-11T03:08:38.141   2216513788.7
RECEIVE_FREQ_1 =   2022-12-11T03:08:48.163   2216513788.9
RECEIVE_FREQ_1 =   2022-12-11T03:08:58.186   2216513788.7
RECEIVE_FREQ_1 =   2022-12-11T03:09:08.208   2216513788.6
RECEIVE_FREQ_1 =   2022-12-11T03:09:18.144   2216513788.7
RECEIVE_FREQ_1 =   2022-12-11T03:09:28.166   2216513788.5
RECEIVE_FREQ_1 =   2022-12-11T03:09:38.189   2216513788.7
RECEIVE_FREQ_1 =   2022-12-11T03:09:48.125   2216513788.6
RECEIVE_FREQ_1 =   2022-12-11T03:09:58.147   2216513788.5
RECEIVE_FREQ_1 =   2022-12-11T03:10:08.170   2216513788.2
RECEIVE_FREQ_1 =   2022-12-11T03:10:18.192   2216513788.4
RECEIVE_FREQ_1 =   2022-12-11T03:10:28.128   2216513788.5
RECEIVE_FREQ_1 =   2022-12-11T03:10:38.150   2216513788.2
RECEIVE_FREQ_1 =   2022-12-11T03:11:28.176   2216513788.2
RECEIVE_FREQ_1 =   2022-12-11T03:11:38.198   2216513788.3
RECEIVE_FREQ_1 =   2022-12-11T03:11:58.157   2216513788.2
RECEIVE_FREQ_1 =   2022-12-11T03:12:08.179   2216513787.9
RECEIVE_FREQ_1 =   2022-12-11T03:12:18.115   2216513787.8
RECEIVE_FREQ_1 =   2022-12-11T03:12:38.160   2216513787.5
RECEIVE_FREQ_1 =   2022-12-11T03:12:48.182   2216513787.7
RECEIVE_FREQ_1 =   2022-12-11T03:13:08.141   2216513787.6
RECEIVE_FREQ_1 =   2022-12-11T03:13:18.163   2216513787.5
RECEIVE_FREQ_1 =   2022-12-11T03:13:28.186   2216513787.3
RECEIVE_FREQ_1 =   2022-12-11T03:13:48.144   2216513787.2
RECEIVE_FREQ_1 =   2022-12-11T03:13:58.166   2216513787.3
RECEIVE_FREQ_1 =   2022-12-11T03:14:08.189   2216513787.0
RECEIVE_FREQ_1 =   2022-12-11T03:14:18.125   2216513787.0
RECEIVE_FREQ_1 =   2022-12-11T03:14:28.147   2216513787.0
RECEIVE_FREQ_1 =   2022-12-11T03:14:38.170   2216513786.9
RECEIVE_FREQ_1 =   2022-12-11T03:14:48.192   2216513786.9
RECEIVE_FREQ_1 =   2022-12-11T03:15:08.150   2216513786.4
RECEIVE_FREQ_1 =   2022-12-11T03:15:28.195   2216513786.5
RECEIVE_FREQ_1 =   2022-12-11T03:15:38.218   2216513786.5
RECEIVE_FREQ_1 =   2022-12-11T03:15:58.176   2216513786.2
RECEIVE_FREQ_1 =   2022-12-11T03:16:08.198   2216513786.3
RECEIVE_FREQ_1 =   2022-12-11T03:16:28.157   2216513785.9
RECEIVE_FREQ_1 =   2022-12-11T03:16:48.115   2216513786.1
RECEIVE_FREQ_1 =   2022-12-11T03:17:08.160   2216513785.8
RECEIVE_FREQ_1 =   2022-12-11T03:17:18.182   2216513785.8
RECEIVE_FREQ_1 =   2022-12-11T03:17:38.141   2216513785.5
RECEIVE_FREQ_1 =   2022-12-11T03:17:48.163   2216513785.3
RECEIVE_FREQ_1 =   2022-12-11T03:17:58.186   2216513785.3
RECEIVE_FREQ_1 =   2022-12-11T03:18:08.122   2216513785.2
RECEIVE_FREQ_1 =   2022-12-11T03:18:18.144   2216513785.2
RECEIVE_FREQ_1 =   2022-12-11T03:18:28.166   2216513785.0
RECEIVE_FREQ_1 =   2022-12-11T03:18:38.189   2216513784.9
RECEIVE_FREQ_1 =   2022-12-11T03:18:58.147   2216513784.8
RECEIVE_FREQ_1 =   2022-12-11T03:19:08.170   2216513784.7
RECEIVE_FREQ_1 =   2022-12-11T03:19:18.192   2216513784.4
RECEIVE_FREQ_1 =   2022-12-11T03:19:28.128   2216513784.6
RECEIVE_FREQ_1 =   2022-12-11T03:19:38.150   2216513784.4
RECEIVE_FREQ_1 =   2022-12-11T03:19:48.173   2216513784.2
RECEIVE_FREQ_1 =   2022-12-11T03:19:58.195   2216513784.1
RECEIVE_FREQ_1 =   2022-12-11T03:20:08.131   2216513783.9
RECEIVE_FREQ_1 =   2022-12-11T03:20:18.154   2216513784.0
RECEIVE_FREQ_1 =   2022-12-11T03:20:28.176   2216513783.8
RECEIVE_FREQ_1 =   2022-12-11T03:20:38.198   2216513783.8
RECEIVE_FREQ_1 =   2022-12-11T03:20:48.221   2216513783.6
RECEIVE_FREQ_1 =   2022-12-11T03:20:58.157   2216513783.3
RECEIVE_FREQ_1 =   2022-12-11T03:21:08.179   2216513783.5
RECEIVE_FREQ_1 =   2022-12-11T03:21:18.115   2216513783.2
RECEIVE_FREQ_1 =   2022-12-11T03:21:28.138   2216513783.1
RECEIVE_FREQ_1 =   2022-12-11T03:21:38.160   2216513783.1
RECEIVE_FREQ_1 =   2022-12-11T03:21:48.182   2216513783.0
RECEIVE_FREQ_1 =   2022-12-11T03:21:58.205   2216513782.8
RECEIVE_FREQ_1 =   2022-12-11T03:22:08.141   2216513782.9
RECEIVE_FREQ_1 =   2022-12-11T03:22:18.163   2216513782.6
RECEIVE_FREQ_1 =   2022-12-11T03:22:28.186   2216513782.7
RECEIVE_FREQ_1 =   2022-12-11T03:22:48.144   2216513782.3
RECEIVE_FREQ_1 =   2022-12-11T03:22:58.166   2216513782.1
RECEIVE_FREQ_1 =   2022-12-11T03:23:08.189   2216513781.9
RECEIVE_FREQ_1 =   2022-12-11T03:23:18.125   2216513782.1
RECEIVE_FREQ_1 =   2022-12-11T03:23:28.147   2216513781.7
RECEIVE_FREQ_1 =   2022-12-11T03:23:38.170   2216513781.7
RECEIVE_FREQ_1 =   2022-12-11T03:23:48.192   2216513781.3
RECEIVE_FREQ_1 =   2022-12-11T03:23:58.128   2216513781.4
RECEIVE_FREQ_1 =   2022-12-11T03:24:08.150   2216513781.3
RECEIVE_FREQ_1 =   2022-12-11T03:24:18.173   2216513781.0
RECEIVE_FREQ_1 =   2022-12-11T03:24:28.195   2216513781.0
RECEIVE_FREQ_1 =   2022-12-11T03:24:38.131   2216513780.7
RECEIVE_FREQ_1 =   2022-12-11T03:24:48.154   2216513780.9
RECEIVE_FREQ_1 =   2022-12-11T03:24:58.176   2216513780.6
RECEIVE_FREQ_1 =   2022-12-11T03:25:08.112   2216513780.4
RECEIVE_FREQ_1 =   2022-12-11T03:25:18.134   2216513780.5
RECEIVE_FREQ_1 =   2022-12-11T03:25:28.157   2216513780.1
RECEIVE_FREQ_1 =   2022-12-11T03:25:38.179   2216513780.1
RECEIVE_FREQ_1 =   2022-12-11T03:25:48.202   2216513779.9
RECEIVE_FREQ_1 =   2022-12-11T03:25:58.138   2216513779.7
RECEIVE_FREQ_1 =   2022-12-11T03:26:08.160   2216513779.7
RECEIVE_FREQ_1 =   2022-12-11T03:26:18.182   2216513779.5
RECEIVE_FREQ_1 =   2022-12-11T03:26:28.205   2216513779.4
RECEIVE_FREQ_1 =   2022-12-11T03:26:38.141   2216513779.4
RECEIVE_FREQ_1 =   2022-12-11T03:26:48.163   2216513779.1
RECEIVE_FREQ_1 =   2022-12-11T03:26:58.186   2216513779.0
RECEIVE_FREQ_1 =   2022-12-11T03:27:08.122   2216513778.9
RECEIVE_FREQ_1 =   2022-12-11T03:27:18.144   2216513778.6
RECEIVE_FREQ_1 =   2022-12-11T03:27:28.166   2216513778.5
RECEIVE_FREQ_1 =   2022-12-11T03:27:38.189   2216513778.3
RECEIVE_FREQ_1 =   2022-12-11T03:27:48.211   2216513778.2
RECEIVE_FREQ_1 =   2022-12-11T03:27:58.147   2216513778.2
RECEIVE_FREQ_1 =   2022-12-11T03:28:08.170   2216513777.9
RECEIVE_FREQ_1 =   2022-12-11T03:28:18.192   2216513777.6
RECEIVE_FREQ_1 =   2022-12-11T03:28:28.128   2216513777.7
RECEIVE_FREQ_1 =   2022-12-11T03:28:38.150   2216513777.5
RECEIVE_FREQ_1 =   2022-12-11T03:28:48.173   2216513777.3
RECEIVE_FREQ_1 =   2022-12-11T03:28:58.195   2216513777.1
RECEIVE_FREQ_1 =   2022-12-11T03:29:08.131   2216513777.1
RECEIVE_FREQ_1 =   2022-12-11T03:29:18.154   2216513777.1
RECEIVE_FREQ_1 =   2022-12-11T03:29:28.176   2216513777.0
RECEIVE_FREQ_1 =   2022-12-11T03:29:38.112   2216513776.8
RECEIVE_FREQ_1 =   2022-12-11T03:29:48.134   2216513776.9
RECEIVE_FREQ_1 =   2022-12-11T03:29:58.157   2216513776.7
RECEIVE_FREQ_1 =   2022-12-11T03:30:08.179   2216513776.7
RECEIVE_FREQ_1 =   2022-12-11T03:30:18.115   2216513776.5
RECEIVE_FREQ_1 =   2022-12-11T03:30:28.138   2216513776.6
RECEIVE_FREQ_1 =   2022-12-11T03:30:38.160   2216513776.5
RECEIVE_FREQ_1 =   2022-12-11T03:30:48.182   2216513776.4
RECEIVE_FREQ_1 =   2022-12-11T03:30:58.118   2216513776.2
RECEIVE_FREQ_1 =   2022-12-11T03:31:08.141   2216513776.1
RECEIVE_FREQ_1 =   2022-12-11T03:31:18.163   2216513776.2
RECEIVE_FREQ_1 =   2022-12-11T03:31:28.186   2216513776.1
RECEIVE_FREQ_1 =   2022-12-11T03:31:38.208   2216513776.0
RECEIVE_FREQ_1 =   2022-12-11T03:31:48.144   2216513775.9
RECEIVE_FREQ_1 =   2022-12-11T03:31:58.166   2216513775.9
RECEIVE_FREQ_1 =   2022-12-11T03:32:08.189   2216513775.6
RECEIVE_FREQ_1 =   2022-12-11T03:32:18.125   2216513775.7
RECEIVE_FREQ_1 =   2022-12-11T03:32:28.147   2216513775.5
RECEIVE_FREQ_1 =   2022-12-11T03:32:38.170   2216513775.6
RECEIVE_FREQ_1 =   2022-12-11T03:32:48.192   2216513775.2
RECEIVE_FREQ_1 =   2022-12-11T03:32:58.128   2216513775.5
RECEIVE_FREQ_1 =   2022-12-11T03:33:08.150   2216513775.3
RECEIVE_FREQ_1 =   2022-12-11T03:33:18.173   2216513775.1
RECEIVE_FREQ_1 =   2022-12-11T03:33:28.195   2216513775.1
RECEIVE_FREQ_1 =   2022-12-11T03:33:38.131   2216513774.9
RECEIVE_FREQ_1 =   2022-12-11T03:33:48.154   2216513774.9
RECEIVE_FREQ_1 =   2022-12-11T03:33:58.176   2216513774.9
RECEIVE_FREQ_1 =   2022-12-11T03:34:08.112   2216513774.7
RECEIVE_FREQ_1 =   2022-12-11T03:34:18.134   2216513774.6
RECEIVE_FREQ_1 =   2022-12-11T03:34:28.157   2216513774.5
RECEIVE_FREQ_1 =   2022-12-11T03:34:38.179   2216513774.5
RECEIVE_FREQ_1 =   2022-12-11T03:34:48.202   2216513774.4
RECEIVE_FREQ_1 =   2022-12-11T03:34:58.138   2216513774.2
RECEIVE_FREQ_1 =   2022-12-11T03:35:08.160   2216513774.1
RECEIVE_FREQ_1 =   2022-12-11T03:35:18.182   2216513774.0
RECEIVE_FREQ_1 =   2022-12-11T03:35:28.205   2216513774.0
RECEIVE_FREQ_1 =   2022-12-11T03:35:38.141   2216513774.0
RECEIVE_FREQ_1 =   2022-12-11T03:35:58.186   2216513773.9
RECEIVE_FREQ_1 =   2022-12-11T03:37:08.170   2216513773.0
RECEIVE_FREQ_1 =   2022-12-11T03:37:18.192   2216513772.8
RECEIVE_FREQ_1 =   2022-12-11T03:37:48.173   2216513772.4
RECEIVE_FREQ_1 =   2022-12-11T03:37:58.109   2216513772.3
RECEIVE_FREQ_1 =   2022-12-11T03:38:08.131   2216513772.3
RECEIVE_FREQ_1 =   2022-12-11T03:38:18.154   2216513772.2
RECEIVE_FREQ_1 =   2022-12-11T03:38:28.176   2216513772.0
RECEIVE_FREQ_1 =   2022-12-11T03:38:58.157   2216513771.7
RECEIVE_FREQ_1 =   2022-12-11T03:39:38.160   2216513771.3
RECEIVE_FREQ_1 =   2022-12-11T03:39:48.182   2216513771.0
RECEIVE_FREQ_1 =   2022-12-11T03:39:58.118   2216513771.1
RECEIVE_FREQ_1 =   2022-12-11T03:40:08.141   2216513770.8
RECEIVE_FREQ_1 =   2022-12-11T03:40:18.163   2216513770.8
RECEIVE_FREQ_1 =   2022-12-11T03:40:28.186   2216513770.6
RECEIVE_FREQ_1 =   2022-12-11T03:40:38.122   2216513770.5
RECEIVE_FREQ_1 =   2022-12-11T03:40:48.144   2216513770.1
RECEIVE_FREQ_1 =   2022-12-11T03:40:58.166   2216513770.2
RECEIVE_FREQ_1 =   2022-12-11T03:41:08.189   2216513770.2
RECEIVE_FREQ_1 =   2022-12-11T03:41:18.125   2216513770.0
RECEIVE_FREQ_1 =   2022-12-11T03:41:28.147   2216513769.9
RECEIVE_FREQ_1 =   2022-12-11T03:41:38.170   2216513769.9
RECEIVE_FREQ_1 =   2022-12-11T03:41:48.192   2216513769.7
RECEIVE_FREQ_1 =   2022-12-11T03:42:18.173   2216513769.3
RECEIVE_FREQ_1 =   2022-12-11T03:42:28.195   2216513769.2
RECEIVE_FREQ_1 =   2022-12-11T03:42:58.176   2216513768.8
RECEIVE_FREQ_1 =   2022-12-11T03:43:08.198   2216513768.8
RECEIVE_FREQ_1 =   2022-12-11T03:43:18.134   2216513768.4
RECEIVE_FREQ_1 =   2022-12-11T03:43:28.157   2216513768.4
RECEIVE_FREQ_1 =   2022-12-11T03:43:38.179   2216513768.1
RECEIVE_FREQ_1 =   2022-12-11T03:43:48.202   2216513768.2
RECEIVE_FREQ_1 =   2022-12-11T03:43:58.138   2216513767.9
RECEIVE_FREQ_1 =   2022-12-11T03:44:08.160   2216513767.8
RECEIVE_FREQ_1 =   2022-12-11T03:44:18.182   2216513767.7
RECEIVE_FREQ_1 =   2022-12-11T03:44:28.118   2216513767.5
RECEIVE_FREQ_1 =   2022-12-11T03:44:48.163   2216513767.1
RECEIVE_FREQ_1 =   2022-12-11T03:44:58.186   2216513767.1
RECEIVE_FREQ_1 =   2022-12-11T03:45:08.122   2216513767.2
RECEIVE_FREQ_1 =   2022-12-11T03:45:18.144   2216513766.7
RECEIVE_FREQ_1 =   2022-12-11T03:45:28.166   2216513766.7
RECEIVE_FREQ_1 =   2022-12-11T03:45:38.189   2216513766.5
RECEIVE_FREQ_1 =   2022-12-11T03:45:48.211   2216513766.4
RECEIVE_FREQ_1 =   2022-12-11T03:45:58.147   2216513766.3
RECEIVE_FREQ_1 =   2022-12-11T03:46:08.170   2216513766.0
RECEIVE_FREQ_1 =   2022-12-11T03:46:18.106   2216513765.8
RECEIVE_FREQ_1 =   2022-12-11T03:46:28.128   2216513765.9
RECEIVE_FREQ_1 =   2022-12-11T03:46:38.150   2216513765.5
RECEIVE_FREQ_1 =   2022-12-11T03:46:48.173   2216513765.3
RECEIVE_FREQ_1 =   2022-12-11T03:46:58.109   2216513765.3
RECEIVE_FREQ_1 =   2022-12-11T03:47:08.218   2216513765.0
RECEIVE_FREQ_1 =   2022-12-11T03:47:38.112   2216513764.8
RECEIVE_FREQ_1 =   2022-12-11T03:47:48.134   2216513764.4
RECEIVE_FREQ_1 =   2022-12-11T03:48:08.179   2216513764.1
RECEIVE_FREQ_1 =   2022-12-11T03:48:18.115   2216513764.3
RECEIVE_FREQ_1 =   2022-12-11T03:48:28.138   2216513763.7
RECEIVE_FREQ_1 =   2022-12-11T03:48:38.160   2216513763.7
RECEIVE_FREQ_1 =   2022-12-11T03:48:48.182   2216513763.6
RECEIVE_FREQ_1 =   2022-12-11T03:48:58.118   2216513763.4
RECEIVE_FREQ_1 =   2022-12-11T03:49:08.141   2216513763.2
RECEIVE_FREQ_1 =   2022-12-11T03:49:18.163   2216513763.4
RECEIVE_FREQ_1 =   2022-12-11T03:49:28.186   2216513763.0
RECEIVE_FREQ_1 =   2022-12-11T03:49:38.208   2216513762.9
RECEIVE_FREQ_1 =   2022-12-11T03:49:48.144   2216513762.8
RECEIVE_FREQ_1 =   2022-12-11T03:49:58.166   2216513762.4
RECEIVE_FREQ_1 =   2022-12-11T03:50:08.189   2216513762.3
RECEIVE_FREQ_1 =   2022-12-11T03:50:18.211   2216513762.1
RECEIVE_FREQ_1 =   2022-12-11T03:50:28.147   2216513762.0
RECEIVE_FREQ_1 =   2022-12-11T03:50:38.170   2216513761.9
RECEIVE_FREQ_1 =   2022-12-11T03:50:48.192   2216513761.7
RECEIVE_FREQ_1 =   2022-12-11T03:50:58.128   2216513761.6
RECEIVE_FREQ_1 =   2022-12-11T03:51:08.150   2216513761.4
RECEIVE_FREQ_1 =   2022-12-11T03:51:18.173   2216513761.1
RECEIVE_FREQ_1 =   2022-12-11T03:51:28.195   2216513760.9
RECEIVE_FREQ_1 =   2022-12-11T03:51:38.218   2216513760.9
RECEIVE_FREQ_1 =   2022-12-11T03:51:48.154   2216513760.9
RECEIVE_FREQ_1 =   2022-12-11T03:51:58.176   2216513760.5
RECEIVE_FREQ_1 =   2022-12-11T03:52:08.112   2216513760.2
RECEIVE_FREQ_1 =   2022-12-11T03:52:18.134   2216513760.1
RECEIVE_FREQ_1 =   2022-12-11T03:52:28.157   2216513760.0
RECEIVE_FREQ_1 =   2022-12-11T03:52:38.179   2216513759.8
RECEIVE_FREQ_1 =   2022-12-11T03:52:48.115   2216513759.7
RECEIVE_FREQ_1 =   2022-12-11T03:52:58.138   2216513759.5
RECEIVE_FREQ_1 =   2022-12-11T03:53:08.160   2216513759.3
RECEIVE_FREQ_1 =   2022-12-11T03:53:18.182   2216513759.1
RECEIVE_FREQ_1 =   2022-12-11T03:53:28.118   2216513758.9
RECEIVE_FREQ_1 =   2022-12-11T03:53:48.163   2216513758.5
RECEIVE_FREQ_1 =   2022-12-11T03:54:18.144   2216513758.1
RECEIVE_FREQ_1 =   2022-12-11T03:54:48.125   2216513757.6
RECEIVE_FREQ_1 =   2022-12-11T03:54:58.147   2216513757.3
RECEIVE_FREQ_1 =   2022-12-11T03:55:08.170   2216513757.4
RECEIVE_FREQ_1 =   2022-12-11T03:55:18.192   2216513757.0
RECEIVE_FREQ_1 =   2022-12-11T03:55:28.128   2216513756.9
RECEIVE_FREQ_1 =   2022-12-11T03:55:38.150   2216513756.6
RECEIVE_FREQ_1 =   2022-12-11T03:56:08.131   2216513756.1
RECEIVE_FREQ_1 =   2022-12-11T03:56:18.154   2216513755.8
RECEIVE_FREQ_1 =   2022-12-11T03:56:38.112   2216513755.6
RECEIVE_FREQ_1 =   2022-12-11T03:56:48.134   2216513755.2
RECEIVE_FREQ_1 =   2022-12-11T03:56:58.157   2216513755.2
RECEIVE_FREQ_1 =   2022-12-11T03:57:08.179   2216513755.0
RECEIVE_FREQ_1 =   2022-12-11T03:57:18.202   2216513754.7
RECEIVE_FREQ_1 =   2022-12-11T03:57:28.138   2216513754.6
RECEIVE_FREQ_1 =   2022-12-11T03:57:48.182   2216513754.3
RECEIVE_FREQ_1 =   2022-12-11T03:57:58.118   2216513754.0
RECEIVE_FREQ_1 =   2022-12-11T03:58:08.141   2216513753.9
RECEIVE_FREQ_1 =   2022-12-11T03:58:18.163   2216513753.6
RECEIVE_FREQ_1 =   2022-12-11T03:58:28.186   2216513753.3
RECEIVE_FREQ_1 =   2022-12-11T03:58:38.208   2216513753.1
RECEIVE_FREQ_1 =   2022-12-11T03:58:48.144   2216513753.0
RECEIVE_FREQ_1 =   2022-12-11T03:58:58.166   2216513752.7
RECEIVE_FREQ_1 =   2022-12-11T03:59:08.189   2216513752.5
RECEIVE_FREQ_1 =   2022-12-11T03:59:18.125   2216513752.5
RECEIVE_FREQ_1 =   2022-12-11T03:59:28.147   2216513752.2
RECEIVE_FREQ_1 =   2022-12-11T03:59:38.170   2216513752.0
RECEIVE_FREQ_1 =   2022-12-11T03:59:48.192   2216513751.8
RECEIVE_FREQ_1 =   2022-12-11T03:59:58.128   2216513751.7
RECEIVE_FREQ_1 =   2022-12-11T04:00:08.150   2216513751.4
RECEIVE_FREQ_1 =   2022-12-11T04:00:18.173   2216513751.2
RECEIVE_FREQ_1 =   2022-12-11T04:00:28.195   2216513751.2
RECEIVE_FREQ_1 =   2022-12-11T04:00:38.218   2216513750.9
RECEIVE_FREQ_1 =   2022-12-11T04:00:48.154   2216513750.7
RECEIVE_FREQ_1 =   2022-12-11T04:00:58.176   2216513750.3
RECEIVE_FREQ_1 =   2022-12-11T04:01:08.198   2216513750.2
RECEIVE_FREQ_1 =   2022-12-11T04:01:18.221   2216513750.1
RECEIVE_FREQ_1 =   2022-12-11T04:01:28.157   2216513749.9
RECEIVE_FREQ_1 =   2022-12-11T04:01:38.179   2216513749.6
RECEIVE_FREQ_1 =   2022-12-11T04:01:48.202   2216513749.5
RECEIVE_FREQ_1 =   2022-12-11T04:01:58.138   2216513749.2
RECEIVE_FREQ_1 =   2022-12-11T04:02:08.160   2216513749.0
RECEIVE_FREQ_1 =   2022-12-11T04:02:18.182   2216513748.9
RECEIVE_FREQ_1 =   2022-12-11T04:02:28.118   2216513748.6
RECEIVE_FREQ_1 =   2022-12-11T04:02:38.141   2216513748.5
RECEIVE_FREQ_1 =   2022-12-11T04:02:48.163   2216513748.2
RECEIVE_FREQ_1 =   2022-12-11T04:02:58.186   2216513748.0
RECEIVE_FREQ_1 =   2022-12-11T04:03:08.122   2216513747.8
RECEIVE_FREQ_1 =   2022-12-11T04:03:18.144   2216513747.6
RECEIVE_FREQ_1 =   2022-12-11T04:03:28.166   2216513747.3
RECEIVE_FREQ_1 =   2022-12-11T04:03:38.189   2216513747.2
RECEIVE_FREQ_1 =   2022-12-11T04:03:48.211   2216513746.9
RECEIVE_FREQ_1 =   2022-12-11T04:03:58.147   2216513746.8
RECEIVE_FREQ_1 =   2022-12-11T04:04:08.170   2216513746.6
RECEIVE_FREQ_1 =   2022-12-11T04:04:18.192   2216513746.4
RECEIVE_FREQ_1 =   2022-12-11T04:04:28.128   2216513746.3
RECEIVE_FREQ_1 =   2022-12-11T04:04:38.150   2216513746.0
RECEIVE_FREQ_1 =   2022-12-11T04:04:48.173   2216513745.7
RECEIVE_FREQ_1 =   2022-12-11T04:04:58.195   2216513745.5
RECEIVE_FREQ_1 =   2022-12-11T04:05:08.131   2216513745.2
RECEIVE_FREQ_1 =   2022-12-11T04:05:18.154   2216513745.0
RECEIVE_FREQ_1 =   2022-12-11T04:05:28.176   2216513744.9
RECEIVE_FREQ_1 =   2022-12-11T04:05:38.198   2216513744.6
RECEIVE_FREQ_1 =   2022-12-11T04:05:48.134   2216513744.3
RECEIVE_FREQ_1 =   2022-12-11T04:05:58.157   2216513744.1
RECEIVE_FREQ_1 =   2022-12-11T04:06:08.179   2216513744.0
RECEIVE_FREQ_1 =   2022-12-11T04:06:18.115   2216513744.0
RECEIVE_FREQ_1 =   2022-12-11T04:06:28.138   2216513743.6
RECEIVE_FREQ_1 =   2022-12-11T04:06:38.160   2216513743.5
RECEIVE_FREQ_1 =   2022-12-11T04:06:48.182   2216513743.4
RECEIVE_FREQ_1 =   2022-12-11T04:06:58.205   2216513743.1
RECEIVE_FREQ_1 =   2022-12-11T04:07:08.141   2216513743.2
RECEIVE_FREQ_1 =   2022-12-11T04:07:38.208   2216513742.4
RECEIVE_FREQ_1 =   2022-12-11T04:07:48.144   2216513742.3
RECEIVE_FREQ_1 =   2022-12-11T04:07:58.166   2216513742.1
RECEIVE_FREQ_1 =   2022-12-11T04:08:18.125   2216513741.8
RECEIVE_FREQ_1 =   2022-12-11T04:08:28.147   2216513741.6
RECEIVE_FREQ_1 =   2022-12-11T04:08:38.170   2216513741.4
RECEIVE_FREQ_1 =   2022-12-11T04:08:48.192   2216513741.3
RECEIVE_FREQ_1 =   2022-12-11T04:08:58.128   2216513741.1
RECEIVE_FREQ_1 =   2022-12-11T04:09:08.150   2216513740.8
RECEIVE_FREQ_1 =   2022-12-11T04:09:38.131   2216513740.4
RECEIVE_FREQ_1 =   2022-12-11T04:09:48.154   2216513740.2
RECEIVE_FREQ_1 =   2022-12-11T04:10:08.198   2216513740.2
RECEIVE_FREQ_1 =   2022-12-11T04:10:18.134   2216513739.6
RECEIVE_FREQ_1 =   2022-12-11T04:10:28.157   2216513739.5
RECEIVE_FREQ_1 =   2022-12-11T04:10:38.179   2216513739.3
RECEIVE_FREQ_1 =   2022-12-11T04:10:48.202   2216513739.2
RECEIVE_FREQ_1 =   2022-12-11T04:10:58.138   2216513739.0
RECEIVE_FREQ_1 =   2022-12-11T04:11:08.160   2216513738.7
RECEIVE_FREQ_1 =   2022-12-11T04:11:38.141   2216513738.3
RECEIVE_FREQ_1 =   2022-12-11T04:11:48.163   2216513737.9
RECEIVE_FREQ_1 =   2022-12-11T04:11:58.186   2216513737.8
RECEIVE_FREQ_1 =   2022-12-11T04:12:08.122   2216513737.8
RECEIVE_FREQ_1 =   2022-12-11T04:12:18.144   2216513737.6
RECEIVE_FREQ_1 =   2022-12-11T04:12:28.166   2216513737.4
RECEIVE_FREQ_1 =   2022-12-11T04:12:38.189   2216513737.1
RECEIVE_FREQ_1 =   2022-12-11T04:12:48.211   2216513736.8
RECEIVE_FREQ_1 =   2022-12-11T04:12:58.147   2216513736.6
RECEIVE_FREQ_1 =   2022-12-11T04:13:08.170   2216513736.6
RECEIVE_FREQ_1 =   2022-12-11T04:13:18.192   2216513736.2
RECEIVE_FREQ_1 =   2022-12-11T04:13:28.214   2216513736.2
RECEIVE_FREQ_1 =   2022-12-11T04:13:38.150   2216513736.1
RECEIVE_FREQ_1 =   2022-12-11T04:13:48.173   2216513735.7
RECEIVE_FREQ_1 =   2022-12-11T04:13:58.195   2216513735.5
RECEIVE_FREQ_1 =   2022-12-11T04:14:08.131   2216513735.4
RECEIVE_FREQ_1 =   2022-12-11T04:14:18.154   2216513735.2
RECEIVE_FREQ_1 =   2022-12-11T04:14:28.176   2216513735.1
RECEIVE_FREQ_1 =   2022-12-11T04:14:38.112   2216513734.8
RECEIVE_FREQ_1 =   2022-12-11T04:14:48.134   2216513734.6
RECEIVE_FREQ_1 =   2022-12-11T04:14:58.157   2216513734.4
RECEIVE_FREQ_1 =   2022-12-11T04:15:08.179   2216513734.3
RECEIVE_FREQ_1 =   2022-12-11T04:15:18.115   2216513734.1
RECEIVE_FREQ_1 =   2022-12-11T04:15:28.138   2216513734.0
RECEIVE_FREQ_1 =   2022-12-11T04:15:38.160   2216513733.7
RECEIVE_FREQ_1 =   2022-12-11T04:15:48.182   2216513733.5
RECEIVE_FREQ_1 =   2022-12-11T04:15:48.182   2216513733.5
RECEIVE_FREQ_1 =   2022-12-11T04:15:58.118   2216513733.3
RECEIVE_FREQ_1 =   2022-12-11T04:16:08.141   2216513733.1
RECEIVE_FREQ_1 =   2022-12-11T04:16:28.186   2216513732.8
RECEIVE_FREQ_1 =   2022-12-11T04:16:38.122   2216513732.8
RECEIVE_FREQ_1 =   2022-12-11T04:16:48.144   2216513732.3
RECEIVE_FREQ_1 =   2022-12-11T04:16:58.166   2216513732.2
RECEIVE_FREQ_1 =   2022-12-11T04:17:08.189   2216513732.2
RECEIVE_FREQ_1 =   2022-12-11T04:17:18.125   2216513731.8
RECEIVE_FREQ_1 =   2022-12-11T04:17:28.147   2216513731.7
RECEIVE_FREQ_1 =   2022-12-11T04:17:48.192   2216513731.1
RECEIVE_FREQ_1 =   2022-12-11T04:17:58.128   2216513731.0
RECEIVE_FREQ_1 =   2022-12-11T04:18:08.150   2216513730.7
RECEIVE_FREQ_1 =   2022-12-11T04:18:18.173   2216513730.7
RECEIVE_FREQ_1 =   2022-12-11T04:18:28.195   2216513730.5
RECEIVE_FREQ_1 =   2022-12-11T04:18:38.131   2216513730.2
RECEIVE_FREQ_1 =   2022-12-11T04:18:48.154   2216513730.1
RECEIVE_FREQ_1 =   2022-12-11T04:19:08.198   2216513729.8
RECEIVE_FREQ_1 =   2022-12-11T04:19:18.134   2216513729.2
RECEIVE_FREQ_1 =   2022-12-11T04:19:28.157   2216513729.3
RECEIVE_FREQ_1 =   2022-12-11T04:19:38.179   2216513729.1
RECEIVE_FREQ_1 =   2022-12-11T04:19:58.138   2216513728.7
RECEIVE_FREQ_1 =   2022-12-11T04:20:08.160   2216513728.3
RECEIVE_FREQ_1 =   2022-12-11T04:20:18.182   2216513728.4
RECEIVE_FREQ_1 =   2022-12-11T04:20:28.205   2216513728.1
RECEIVE_FREQ_1 =   2022-12-11T04:20:38.141   2216513728.0
RECEIVE_FREQ_1 =   2022-12-11T04:20:48.163   2216513727.7
RECEIVE_FREQ_1 =   2022-12-11T04:20:58.186   2216513727.7
RECEIVE_FREQ_1 =   2022-12-11T04:21:08.122   2216513727.4
RECEIVE_FREQ_1 =   2022-12-11T04:21:18.144   2216513727.1
RECEIVE_FREQ_1 =   2022-12-11T04:21:28.166   2216513726.9
RECEIVE_FREQ_1 =   2022-12-11T04:21:38.189   2216513726.6
RECEIVE_FREQ_1 =   2022-12-11T04:21:48.125   2216513726.3
RECEIVE_FREQ_1 =   2022-12-11T04:21:58.147   2216513726.3
RECEIVE_FREQ_1 =   2022-12-11T04:22:08.170   2216513726.1
RECEIVE_FREQ_1 =   2022-12-11T04:22:18.192   2216513725.8
RECEIVE_FREQ_1 =   2022-12-11T04:22:38.150   2216513725.6
RECEIVE_FREQ_1 =   2022-12-11T04:22:48.173   2216513725.2
RECEIVE_FREQ_1 =   2022-12-11T04:22:58.109   2216513725.1
RECEIVE_FREQ_1 =   2022-12-11T04:23:08.131   2216513725.0
RECEIVE_FREQ_1 =   2022-12-11T04:23:18.154   2216513724.7
RECEIVE_FREQ_1 =   2022-12-11T04:23:28.176   2216513724.4
RECEIVE_FREQ_1 =   2022-12-11T04:23:38.198   2216513724.4
RECEIVE_FREQ_1 =   2022-12-11T04:23:48.134   2216513724.0
RECEIVE_FREQ_1 =   2022-12-11T04:23:58.157   2216513723.9
RECEIVE_FREQ_1 =   2022-12-11T04:24:08.179   2216513723.7
RECEIVE_FREQ_1 =   2022-12-11T04:24:18.202   2216513723.5
RECEIVE_FREQ_1 =   2022-12-11T04:24:28.138   2216513723.3
RECEIVE_FREQ_1 =   2022-12-11T04:24:38.160   2216513723.1
RECEIVE_FREQ_1 =   2022-12-11T04:24:48.182   2216513722.7
RECEIVE_FREQ_1 =   2022-12-11T04:25:08.141   2216513722.5
RECEIVE_FREQ_1 =   2022-12-11T04:25:18.163   2216513722.3
RECEIVE_FREQ_1 =   2022-12-11T04:25:28.186   2216513722.0
RECEIVE_FREQ_1 =   2022-12-11T04:25:38.122   2216513721.9
RECEIVE_FREQ_1 =   2022-12-11T04:25:48.144   2216513721.9
RECEIVE_FREQ_1 =   2022-12-11T04:26:08.189   2216513721.1
RECEIVE_FREQ_1 =   2022-12-11T04:26:18.211   2216513721.2
RECEIVE_FREQ_1 =   2022-12-11T04:26:28.147   2216513720.9
RECEIVE_FREQ_1 =   2022-12-11T04:26:58.128   2216513720.1
RECEIVE_FREQ_1 =   2022-12-11T04:27:08.150   2216513720.0
RECEIVE_FREQ_1 =   2022-12-11T04:27:18.173   2216513719.8
RECEIVE_FREQ_1 =   2022-12-11T04:27:28.195   2216513719.6
RECEIVE_FREQ_1 =   2022-12-11T04:27:38.131   2216513719.4
RECEIVE_FREQ_1 =   2022-12-11T04:27:48.154   2216513719.4
RECEIVE_FREQ_1 =   2022-12-11T04:27:58.176   2216513719.0
RECEIVE_FREQ_1 =   2022-12-11T04:28:08.198   2216513718.8
RECEIVE_FREQ_1 =   2022-12-11T04:28:18.134   2216513718.5
RECEIVE_FREQ_1 =   2022-12-11T04:28:28.157   2216513718.3
RECEIVE_FREQ_1 =   2022-12-11T04:28:38.179   2216513718.4
RECEIVE_FREQ_1 =   2022-12-11T04:28:48.202   2216513718.0
RECEIVE_FREQ_1 =   2022-12-11T04:28:58.138   2216513718.0
RECEIVE_FREQ_1 =   2022-12-11T04:29:08.160   2216513717.5
RECEIVE_FREQ_1 =   2022-12-11T04:29:18.182   2216513717.4
RECEIVE_FREQ_1 =   2022-12-11T04:29:28.205   2216513717.1
RECEIVE_FREQ_1 =   2022-12-11T04:29:38.141   2216513717.2
RECEIVE_FREQ_1 =   2022-12-11T04:29:58.186   2216513716.5
RECEIVE_FREQ_1 =   2022-12-11T04:30:18.144   2216513716.1
RECEIVE_FREQ_1 =   2022-12-11T04:30:28.166   2216513715.8
RECEIVE_FREQ_1 =   2022-12-11T04:30:38.189   2216513715.6
RECEIVE_FREQ_1 =   2022-12-11T04:30:48.125   2216513715.4
RECEIVE_FREQ_1 =   2022-12-11T04:31:08.170   2216513715.0
RECEIVE_FREQ_1 =   2022-12-11T04:31:18.192   2216513714.9
RECEIVE_FREQ_1 =   2022-12-11T04:31:28.128   2216513714.7
RECEIVE_FREQ_1 =   2022-12-11T04:31:38.150   2216513714.5
RECEIVE_FREQ_1 =   2022-12-11T04:31:48.173   2216513714.3
RECEIVE_FREQ_1 =   2022-12-11T04:31:58.195   2216513714.0
RECEIVE_FREQ_1 =   2022-12-11T04:32:08.131   2216513713.8
RECEIVE_FREQ_1 =   2022-12-11T04:32:18.154   2216513713.3
RECEIVE_FREQ_1 =   2022-12-11T04:32:28.176   2216513713.4
RECEIVE_FREQ_1 =   2022-12-11T04:32:38.198   2216513712.8
RECEIVE_FREQ_1 =   2022-12-11T04:32:48.221   2216513713.0
RECEIVE_FREQ_1 =   2022-12-11T04:33:08.179   2216513712.5
RECEIVE_FREQ_1 =   2022-12-11T04:33:18.202   2216513712.5
RECEIVE_FREQ_1 =   2022-12-11T04:33:28.138   2216513712.2
RECEIVE_FREQ_1 =   2022-12-11T04:33:38.160   2216513712.0
RECEIVE_FREQ_1 =   2022-12-11T04:33:48.182   2216513711.8
RECEIVE_FREQ_1 =   2022-12-11T04:33:58.205   2216513711.4
RECEIVE_FREQ_1 =   2022-12-11T04:34:08.141   2216513711.3
RECEIVE_FREQ_1 =   2022-12-11T04:34:18.163   2216513711.0
RECEIVE_FREQ_1 =   2022-12-11T04:34:28.186   2216513710.9
RECEIVE_FREQ_1 =   2022-12-11T04:34:38.208   2216513710.6
RECEIVE_FREQ_1 =   2022-12-11T04:34:48.144   2216513710.4
RECEIVE_FREQ_1 =   2022-12-11T04:34:58.166   2216513710.2
RECEIVE_FREQ_1 =   2022-12-11T04:35:08.189   2216513710.2
RECEIVE_FREQ_1 =   2022-12-11T04:35:18.211   2216513709.9
RECEIVE_FREQ_1 =   2022-12-11T04:35:28.147   2216513709.7
RECEIVE_FREQ_1 =   2022-12-11T04:35:38.170   2216513709.6
RECEIVE_FREQ_1 =   2022-12-11T04:35:48.192   2216513709.4
RECEIVE_FREQ_1 =   2022-12-11T04:35:58.214   2216513709.1
RECEIVE_FREQ_1 =   2022-12-11T04:36:08.150   2216513708.9
RECEIVE_FREQ_1 =   2022-12-11T04:36:18.173   2216513708.7
RECEIVE_FREQ_1 =   2022-12-11T04:36:28.195   2216513708.3
RECEIVE_FREQ_1 =   2022-12-11T04:36:38.218   2216513708.2
RECEIVE_FREQ_1 =   2022-12-11T04:36:48.154   2216513708.0
RECEIVE_FREQ_1 =   2022-12-11T04:36:58.176   2216513707.8
RECEIVE_FREQ_1 =   2022-12-11T04:37:08.198   2216513707.6
RECEIVE_FREQ_1 =   2022-12-11T04:37:18.134   2216513707.3
RECEIVE_FREQ_1 =   2022-12-11T04:37:28.157   2216513707.0
RECEIVE_FREQ_1 =   2022-12-11T04:37:38.179   2216513706.9
RECEIVE_FREQ_1 =   2022-12-11T04:37:48.202   2216513706.8
RECEIVE_FREQ_1 =   2022-12-11T04:37:58.224   2216513706.5
RECEIVE_FREQ_1 =   2022-12-11T04:38:08.160   2216513706.1
RECEIVE_FREQ_1 =   2022-12-11T04:38:18.182   2216513706.0
RECEIVE_FREQ_1 =   2022-12-11T04:38:28.205   2216513705.9
RECEIVE_FREQ_1 =   2022-12-11T04:38:38.141   2216513705.5
RECEIVE_FREQ_1 =   2022-12-11T04:38:48.163   2216513705.5
RECEIVE_FREQ_1 =   2022-12-11T04:38:58.186   2216513705.3
RECEIVE_FREQ_1 =   2022-12-11T04:39:08.208   2216513705.0
RECEIVE_FREQ_1 =   2022-12-11T04:39:18.144   2216513704.9
RECEIVE_FREQ_1 =   2022-12-11T04:39:28.166   2216513704.6
RECEIVE_FREQ_1 =   2022-12-11T04:39:38.189   2216513704.4
RECEIVE_FREQ_1 =   2022-12-11T04:39:48.211   2216513704.2
RECEIVE_FREQ_1 =   2022-12-11T04:39:58.147   2216513704.1
RECEIVE_FREQ_1 =   2022-12-11T04:40:08.170   2216513703.9
RECEIVE_FREQ_1 =   2022-12-11T04:40:18.192   2216513703.5
RECEIVE_FREQ_1 =   2022-12-11T04:40:28.214   2216513703.4
RECEIVE_FREQ_1 =   2022-12-11T04:40:38.150   2216513703.2
RECEIVE_FREQ_1 =   2022-12-11T04:40:48.173   2216513703.1
RECEIVE_FREQ_1 =   2022-12-11T04:40:58.195   2216513702.8
RECEIVE_FREQ_1 =   2022-12-11T04:41:08.131   2216513702.4
RECEIVE_FREQ_1 =   2022-12-11T04:41:18.154   2216513702.6
RECEIVE_FREQ_1 =   2022-12-11T04:41:28.176   2216513702.0
RECEIVE_FREQ_1 =   2022-12-11T04:41:38.198   2216513702.0
RECEIVE_FREQ_1 =   2022-12-11T04:41:48.221   2216513701.7
RECEIVE_FREQ_1 =   2022-12-11T04:41:58.157   2216513701.5
RECEIVE_FREQ_1 =   2022-12-11T04:42:08.179   2216513701.5
RECEIVE_FREQ_1 =   2022-12-11T04:42:18.202   2216513701.1
RECEIVE_FREQ_1 =   2022-12-11T04:42:28.138   2216513700.9
RECEIVE_FREQ_1 =   2022-12-11T04:42:38.160   2216513700.7
RECEIVE_FREQ_1 =   2022-12-11T04:42:48.182   2216513700.4
RECEIVE_FREQ_1 =   2022-12-11T04:42:58.205   2216513700.3
RECEIVE_FREQ_1 =   2022-12-11T04:43:08.141   2216513700.0
RECEIVE_FREQ_1 =   2022-12-11T04:43:18.163   2216513699.7
RECEIVE_FREQ_1 =   2022-12-11T04:43:28.186   2216513699.7
RECEIVE_FREQ_1 =   2022-12-11T04:43:38.208   2216513699.4
RECEIVE_FREQ_1 =   2022-12-11T04:43:48.144   2216513699.3
RECEIVE_FREQ_1 =   2022-12-11T04:43:58.166   2216513699.1
RECEIVE_FREQ_1 =   2022-12-11T04:44:08.189   2216513698.8
RECEIVE_FREQ_1 =   2022-12-11T04:44:18.211   2216513698.6
RECEIVE_FREQ_1 =   2022-12-11T04:44:28.147   2216513698.4
RECEIVE_FREQ_1 =   2022-12-11T04:44:38.170   2216513698.3
RECEIVE_FREQ_1 =   2022-12-11T04:44:48.192   2216513697.9
RECEIVE_FREQ_1 =   2022-12-11T04:44:58.214   2216513697.8
RECEIVE_FREQ_1 =   2022-12-11T04:45:08.150   2216513697.6
RECEIVE_FREQ_1 =   2022-12-11T04:45:18.173   2216513697.2
RECEIVE_FREQ_1 =   2022-12-11T04:45:28.195   2216513697.3
RECEIVE_FREQ_1 =   2022-12-11T04:45:38.218   2216513697.0
RECEIVE_FREQ_1 =   2022-12-11T04:45:48.154   2216513696.8
RECEIVE_FREQ_1 =   2022-12-11T04:45:58.176   2216513696.5
RECEIVE_FREQ_1 =   2022-12-11T04:46:08.198   2216513696.4
RECEIVE_FREQ_1 =   2022-12-11T04:46:18.221   2216513696.1
RECEIVE_FREQ_1 =   2022-12-11T04:46:28.157   2216513696.0
RECEIVE_FREQ_1 =   2022-12-11T04:46:38.179   2216513695.8
RECEIVE_FREQ_1 =   2022-12-11T04:46:48.202   2216513695.6
RECEIVE_FREQ_1 =   2022-12-11T04:46:58.224   2216513695.4
RECEIVE_FREQ_1 =   2022-12-11T04:47:08.160   2216513695.2
RECEIVE_FREQ_1 =   2022-12-11T04:47:18.182   2216513694.9
RECEIVE_FREQ_1 =   2022-12-11T04:47:28.205   2216513694.8
RECEIVE_FREQ_1 =   2022-12-11T04:47:38.141   2216513694.4
RECEIVE_FREQ_1 =   2022-12-11T04:47:48.163   2216513694.5
RECEIVE_FREQ_1 =   2022-12-11T04:47:58.186   2216513694.2
RECEIVE_FREQ_1 =   2022-12-11T04:48:08.208   2216513693.8
RECEIVE_FREQ_1 =   2022-12-11T04:48:18.144   2216513693.9
RECEIVE_FREQ_1 =   2022-12-11T04:48:28.166   2216513693.2
RECEIVE_FREQ_1 =   2022-12-11T04:48:38.189   2216513693.4
RECEIVE_FREQ_1 =   2022-12-11T04:48:48.211   2216513693.2
RECEIVE_FREQ_1 =   2022-12-11T04:48:58.147   2216513692.9
RECEIVE_FREQ_1 =   2022-12-11T04:49:08.170   2216513692.7
RECEIVE_FREQ_1 =   2022-12-11T04:49:18.192   2216513692.4
RECEIVE_FREQ_1 =   2022-12-11T04:49:28.214   2216513692.3
RECEIVE_FREQ_1 =   2022-12-11T04:49:38.150   2216513692.1
RECEIVE_FREQ_1 =   2022-12-11T04:49:48.173   2216513692.2
RECEIVE_FREQ_1 =   2022-12-11T04:49:58.195   2216513691.7
RECEIVE_FREQ_1 =   2022-12-11T04:50:08.131   2216513691.6
RECEIVE_FREQ_1 =   2022-12-11T04:50:18.154   2216513691.1
RECEIVE_FREQ_1 =   2022-12-11T04:50:28.176   2216513691.1
RECEIVE_FREQ_1 =   2022-12-11T04:50:38.198   2216513690.9
RECEIVE_FREQ_1 =   2022-12-11T04:50:48.221   2216513690.7
RECEIVE_FREQ_1 =   2022-12-11T04:50:58.157   2216513690.5
RECEIVE_FREQ_1 =   2022-12-11T04:51:08.179   2216513690.3
RECEIVE_FREQ_1 =   2022-12-11T04:51:18.202   2216513690.2
RECEIVE_FREQ_1 =   2022-12-11T04:51:28.138   2216513689.9
RECEIVE_FREQ_1 =   2022-12-11T04:51:38.160   2216513689.8
RECEIVE_FREQ_1 =   2022-12-11T04:51:48.182   2216513689.5
RECEIVE_FREQ_1 =   2022-12-11T04:51:58.205   2216513689.3
RECEIVE_FREQ_1 =   2022-12-11T04:52:08.141   2216513689.1
RECEIVE_FREQ_1 =   2022-12-11T04:52:18.163   2216513689.1
RECEIVE_FREQ_1 =   2022-12-11T04:52:28.186   2216513688.9
RECEIVE_FREQ_1 =   2022-12-11T04:52:38.208   2216513688.5
RECEIVE_FREQ_1 =   2022-12-11T04:52:48.144   2216513688.5
RECEIVE_FREQ_1 =   2022-12-11T04:52:58.166   2216513688.1
RECEIVE_FREQ_1 =   2022-12-11T04:53:08.189   2216513688.1
RECEIVE_FREQ_1 =   2022-12-11T04:53:18.211   2216513687.7
RECEIVE_FREQ_1 =   2022-12-11T04:53:28.147   2216513687.5
RECEIVE_FREQ_1 =   2022-12-11T04:53:38.170   2216513687.4
RECEIVE_FREQ_1 =   2022-12-11T04:53:48.192   2216513687.1
RECEIVE_FREQ_1 =   2022-12-11T04:53:58.214   2216513686.9
RECEIVE_FREQ_1 =   2022-12-11T04:54:08.150   2216513686.7
RECEIVE_FREQ_1 =   2022-12-11T04:54:18.173   2216513686.5
RECEIVE_FREQ_1 =   2022-12-11T04:54:28.195   2216513686.4
RECEIVE_FREQ_1 =   2022-12-11T04:54:38.131   2216513686.2
RECEIVE_FREQ_1 =   2022-12-11T04:54:48.154   2216513686.0
RECEIVE_FREQ_1 =   2022-12-11T04:54:58.176   2216513685.8
RECEIVE_FREQ_1 =   2022-12-11T04:55:08.198   2216513685.6
RECEIVE_FREQ_1 =   2022-12-11T04:55:18.221   2216513685.4
RECEIVE_FREQ_1 =   2022-12-11T04:55:28.157   2216513685.3
RECEIVE_FREQ_1 =   2022-12-11T04:55:38.179   2216513685.1
RECEIVE_FREQ_1 =   2022-12-11T04:55:48.202   2216513684.8
RECEIVE_FREQ_1 =   2022-12-11T04:55:58.138   2216513684.8
RECEIVE_FREQ_1 =   2022-12-11T04:56:08.160   2216513684.3
RECEIVE_FREQ_1 =   2022-12-11T04:56:18.182   2216513684.4
RECEIVE_FREQ_1 =   2022-12-11T04:56:28.205   2216513684.1
RECEIVE_FREQ_1 =   2022-12-11T04:56:38.141   2216513683.8
RECEIVE_FREQ_1 =   2022-12-11T04:56:48.163   2216513683.7
RECEIVE_FREQ_1 =   2022-12-11T04:56:58.186   2216513683.5
RECEIVE_FREQ_1 =   2022-12-11T04:57:08.208   2216513683.1
RECEIVE_FREQ_1 =   2022-12-11T04:57:18.230   2216513683.2
RECEIVE_FREQ_1 =   2022-12-11T04:57:28.166   2216513682.7
RECEIVE_FREQ_1 =   2022-12-11T04:57:38.189   2216513682.6
RECEIVE_FREQ_1 =   2022-12-11T04:57:48.211   2216513682.5
RECEIVE_FREQ_1 =   2022-12-11T04:57:58.147   2216513682.4
RECEIVE_FREQ_1 =   2022-12-11T04:58:08.170   2216513682.1
RECEIVE_FREQ_1 =   2022-12-11T04:58:18.192   2216513681.9
RECEIVE_FREQ_1 =   2022-12-11T04:58:28.214   2216513681.8
RECEIVE_FREQ_1 =   2022-12-11T04:58:38.150   2216513681.5
RECEIVE_FREQ_1 =   2022-12-11T04:58:48.173   2216513681.2
RECEIVE_FREQ_1 =   2022-12-11T04:58:58.195   2216513681.2
RECEIVE_FREQ_1 =   2022-12-11T04:59:08.218   2216513681.1
RECEIVE_FREQ_1 =   2022-12-11T04:59:28.176   2216513680.7
RECEIVE_FREQ_1 =   2022-12-11T04:59:38.198   2216513680.5
RECEIVE_FREQ_1 =   2022-12-11T04:59:48.221   2216513680.2
RECEIVE_FREQ_1 =   2022-12-11T04:59:58.157   2216513680.2
RECEIVE_FREQ_1 =   2022-12-11T05:00:08.179   2216513679.9
RECEIVE_FREQ_1 =   2022-12-11T05:00:18.202   2216513679.7
RECEIVE_FREQ_1 =   2022-12-11T05:00:18.202   2216513679.7
RECEIVE_FREQ_1 =   2022-12-11T05:00:28.138   2216513679.7
RECEIVE_FREQ_1 =   2022-12-11T05:00:38.160   2216513679.4
RECEIVE_FREQ_1 =   2022-12-11T05:00:48.182   2216513679.2
RECEIVE_FREQ_1 =   2022-12-11T05:00:58.205   2216513679.0
RECEIVE_FREQ_1 =   2022-12-11T05:01:08.141   2216513678.9
RECEIVE_FREQ_1 =   2022-12-11T05:01:18.163   2216513678.7
RECEIVE_FREQ_1 =   2022-12-11T05:01:28.186   2216513678.7
RECEIVE_FREQ_1 =   2022-12-11T05:01:38.208   2216513678.3
RECEIVE_FREQ_1 =   2022-12-11T05:01:48.230   2216513678.2
RECEIVE_FREQ_1 =   2022-12-11T05:01:58.166   2216513678.0
RECEIVE_FREQ_1 =   2022-12-11T05:02:08.189   2216513677.5
RECEIVE_FREQ_1 =   2022-12-11T05:02:18.211   2216513677.5
RECEIVE_FREQ_1 =   2022-12-11T05:02:28.147   2216513677.4
RECEIVE_FREQ_1 =   2022-12-11T05:02:38.170   2216513677.3
RECEIVE_FREQ_1 =   2022-12-11T05:02:48.192   2216513677.2
RECEIVE_FREQ_1 =   2022-12-11T05:02:58.214   2216513676.7
RECEIVE_FREQ_1 =   2022-12-11T05:03:08.150   2216513676.8
RECEIVE_FREQ_1 =   2022-12-11T05:03:18.173   2216513676.4
RECEIVE_FREQ_1 =   2022-12-11T05:03:28.195   2216513676.3
RECEIVE_FREQ_1 =   2022-12-11T05:03:38.218   2216513676.1
RECEIVE_FREQ_1 =   2022-12-11T05:03:48.154   2216513676.1
RECEIVE_FREQ_1 =   2022-12-11T05:03:58.176   2216513675.8
RECEIVE_FREQ_1 =   2022-12-11T05:04:08.198   2216513675.6
RECEIVE_FREQ_1 =   2022-12-11T05:04:18.134   2216513675.4
RECEIVE_FREQ_1 =   2022-12-11T05:04:28.157   2216513675.2
RECEIVE_FREQ_1 =   2022-12-11T05:04:38.179   2216513675.2
RECEIVE_FREQ_1 =   2022-12-11T05:04:58.138   2216513674.8
RECEIVE_FREQ_1 =   2022-12-11T05:05:08.160   2216513674.7
RECEIVE_FREQ_1 =   2022-12-11T05:05:18.182   2216513674.5
RECEIVE_FREQ_1 =   2022-12-11T05:05:48.163   2216513673.8
RECEIVE_FREQ_1 =   2022-12-11T05:05:58.186   2216513673.9
RECEIVE_FREQ_1 =   2022-12-11T05:06:08.208   2216513673.5
RECEIVE_FREQ_1 =   2022-12-11T05:06:28.166   2216513673.3
RECEIVE_FREQ_1 =   2022-12-11T05:06:38.189   2216513673.0
RECEIVE_FREQ_1 =   2022-12-11T05:06:48.211   2216513672.9
RECEIVE_FREQ_1 =   2022-12-11T05:06:58.147   2216513672.8
RECEIVE_FREQ_1 =   2022-12-11T05:07:08.170   2216513672.6
RECEIVE_FREQ_1 =   2022-12-11T05:07:18.192   2216513672.5
RECEIVE_FREQ_1 =   2022-12-11T05:07:28.214   2216513672.3
RECEIVE_FREQ_1 =   2022-12-11T05:07:38.150   2216513672.1
RECEIVE_FREQ_1 =   2022-12-11T05:07:48.173   2216513671.9
RECEIVE_FREQ_1 =   2022-12-11T05:07:58.195   2216513671.8
RECEIVE_FREQ_1 =   2022-12-11T05:08:08.131   2216513671.6
RECEIVE_FREQ_1 =   2022-12-11T05:08:18.154   2216513671.6
RECEIVE_FREQ_1 =   2022-12-11T05:08:28.176   2216513671.3
RECEIVE_FREQ_1 =   2022-12-11T05:08:38.198   2216513671.2
RECEIVE_FREQ_1 =   2022-12-11T05:08:48.134   2216513671.2
RECEIVE_FREQ_1 =   2022-12-11T05:08:58.157   2216513670.9
RECEIVE_FREQ_1 =   2022-12-11T05:09:08.179   2216513670.6
RECEIVE_FREQ_1 =   2022-12-11T05:09:18.202   2216513670.4
RECEIVE_FREQ_1 =   2022-12-11T05:09:28.224   2216513670.5
RECEIVE_FREQ_1 =   2022-12-11T05:09:38.160   2216513670.1
RECEIVE_FREQ_1 =   2022-12-11T05:09:48.182   2216513670.0
RECEIVE_FREQ_1 =   2022-12-11T05:09:58.205   2216513669.8
RECEIVE_FREQ_1 =   2022-12-11T05:10:08.141   2216513669.7
RECEIVE_FREQ_1 =   2022-12-11T05:10:28.186   2216513669.2
RECEIVE_FREQ_1 =   2022-12-11T05:10:38.208   2216513668.7
RECEIVE_FREQ_1 =   2022-12-11T05:10:48.144   2216513668.9
RECEIVE_FREQ_1 =   2022-12-11T05:10:58.166   2216513668.4
RECEIVE_FREQ_1 =   2022-12-11T05:11:38.170   2216513667.6
RECEIVE_FREQ_1 =   2022-12-11T05:11:48.192   2216513667.7
RECEIVE_FREQ_1 =   2022-12-11T05:11:58.214   2216513667.2
RECEIVE_FREQ_1 =   2022-12-11T05:12:08.237   2216513667.1
RECEIVE_FREQ_1 =   2022-12-11T05:12:18.173   2216513667.1
RECEIVE_FREQ_1 =   2022-12-11T05:12:28.195   2216513666.6
RECEIVE_FREQ_1 =   2022-12-11T05:12:38.218   2216513666.3
RECEIVE_FREQ_1 =   2022-12-11T05:12:48.154   2216513666.1
RECEIVE_FREQ_1 =   2022-12-11T05:12:58.176   2216513666.0
RECEIVE_FREQ_1 =   2022-12-11T05:13:08.198   2216513665.9
RECEIVE_FREQ_1 =   2022-12-11T05:13:18.134   2216513665.6
RECEIVE_FREQ_1 =   2022-12-11T05:13:28.157   2216513665.3
RECEIVE_FREQ_1 =   2022-12-11T05:13:38.179   2216513665.0
RECEIVE_FREQ_1 =   2022-12-11T05:13:48.202   2216513664.9
RECEIVE_FREQ_1 =   2022-12-11T05:13:58.138   2216513664.5
RECEIVE_FREQ_1 =   2022-12-11T05:14:08.160   2216513664.2
RECEIVE_FREQ_1 =   2022-12-11T05:14:18.182   2216513664.1
RECEIVE_FREQ_1 =   2022-12-11T05:14:28.205   2216513663.9
RECEIVE_FREQ_1 =   2022-12-11T05:14:38.141   2216513663.8
RECEIVE_FREQ_1 =   2022-12-11T05:14:48.163   2216513663.6
RECEIVE_FREQ_1 =   2022-12-11T05:14:58.186   2216513663.1
RECEIVE_FREQ_1 =   2022-12-11T05:15:08.208   2216513662.8
RECEIVE_FREQ_1 =   2022-12-11T05:15:18.144   2216513662.8
RECEIVE_FREQ_1 =   2022-12-11T05:15:28.166   2216513662.6
RECEIVE_FREQ_1 =   2022-12-11T05:15:38.189   2216513662.5
RECEIVE_FREQ_1 =   2022-12-11T05:15:48.211   2216513662.1
RECEIVE_FREQ_1 =   2022-12-11T05:15:58.147   2216513662.1
RECEIVE_FREQ_1 =   2022-12-11T05:16:08.170   2216513661.7
RECEIVE_FREQ_1 =   2022-12-11T05:16:18.192   2216513661.5
RECEIVE_FREQ_1 =   2022-12-11T05:16:28.214   2216513661.5
RECEIVE_FREQ_1 =   2022-12-11T05:16:48.173   2216513661.0
RECEIVE_FREQ_1 =   2022-12-11T05:17:08.218   2216513660.5
RECEIVE_FREQ_1 =   2022-12-11T05:17:18.154   2216513660.4
RECEIVE_FREQ_1 =   2022-12-11T05:17:28.176   2216513660.0
RECEIVE_FREQ_1 =   2022-12-11T05:17:38.198   2216513659.8
RECEIVE_FREQ_1 =   2022-12-11T05:17:48.221   2216513659.7
RECEIVE_FREQ_1 =   2022-12-11T05:17:58.157   2216513659.6
RECEIVE_FREQ_1 =   2022-12-11T05:18:08.179   2216513659.2
RECEIVE_FREQ_1 =   2022-12-11T05:18:18.202   2216513659.2
RECEIVE_FREQ_1 =   2022-12-11T05:18:28.138   2216513658.9
RECEIVE_FREQ_1 =   2022-12-11T05:18:38.160   2216513658.8
RECEIVE_FREQ_1 =   2022-12-11T05:18:48.182   2216513658.7
RECEIVE_FREQ_1 =   2022-12-11T05:18:58.205   2216513658.3
RECEIVE_FREQ_1 =   2022-12-11T05:19:08.141   2216513658.2
RECEIVE_FREQ_1 =   2022-12-11T05:19:18.163   2216513657.9
RECEIVE_FREQ_1 =   2022-12-11T05:19:28.186   2216513657.6
RECEIVE_FREQ_1 =   2022-12-11T05:19:38.208   2216513657.9
RECEIVE_FREQ_1 =   2022-12-11T05:19:48.144   2216513657.5
RECEIVE_FREQ_1 =   2022-12-11T05:19:58.166   2216513657.0
RECEIVE_FREQ_1 =   2022-12-11T05:20:08.189   2216513656.9
RECEIVE_FREQ_1 =   2022-12-11T05:20:18.211   2216513656.7
RECEIVE_FREQ_1 =   2022-12-11T05:20:38.170   2216513656.4
RECEIVE_FREQ_1 =   2022-12-11T05:20:48.192   2216513656.2
RECEIVE_FREQ_1 =   2022-12-11T05:20:58.214   2216513655.9
RECEIVE_FREQ_1 =   2022-12-11T05:21:08.150   2216513655.8
RECEIVE_FREQ_1 =   2022-12-11T05:21:18.173   2216513655.6
RECEIVE_FREQ_1 =   2022-12-11T05:21:28.195   2216513655.4
RECEIVE_FREQ_1 =   2022-12-11T05:21:38.218   2216513655.1
RECEIVE_FREQ_1 =   2022-12-11T05:21:48.240   2216513655.0
RECEIVE_FREQ_1 =   2022-12-11T05:21:58.176   2216513654.7
RECEIVE_FREQ_1 =   2022-12-11T05:22:08.198   2216513654.6
RECEIVE_FREQ_1 =   2022-12-11T05:22:18.221   2216513654.6
RECEIVE_FREQ_1 =   2022-12-11T05:22:28.157   2216513654.3
RECEIVE_FREQ_1 =   2022-12-11T05:22:38.179   2216513654.2
RECEIVE_FREQ_1 =   2022-12-11T05:22:48.202   2216513653.8
RECEIVE_FREQ_1 =   2022-12-11T05:22:58.224   2216513653.7
RECEIVE_FREQ_1 =   2022-12-11T05:23:08.160   2216513653.4
RECEIVE_FREQ_1 =   2022-12-11T05:23:18.182   2216513653.4
RECEIVE_FREQ_1 =   2022-12-11T05:23:28.205   2216513653.1
RECEIVE_FREQ_1 =   2022-12-11T05:23:38.141   2216513652.9
RECEIVE_FREQ_1 =   2022-12-11T05:23:48.163   2216513652.8
RECEIVE_FREQ_1 =   2022-12-11T05:23:58.186   2216513652.7
RECEIVE_FREQ_1 =   2022-12-11T05:24:08.208   2216513652.4
RECEIVE_FREQ_1 =   2022-12-11T05:24:18.144   2216513652.3
