data/tdm/2022-11-20Z_2022-156A.tdm

CCSDS_TDM_VERS = 2.0
COMMENT TDM ARTEMIS 1 Doppler data by Scott Tilley for 2022-11-20 UTC
COMMENT Signal not demodulated, to low of SNR, centre carrier integrated in 10s by 0.1Hz bin and extracted for peak value.
CREATION_DATE = 2022-11-20Z
ORIGINATOR = SCOTT TILLEY

META_START
COMMENT 
COMMENT 
SYSTEM TIME = UTC
PARTICIPANT_1 = COSPAR 8049
PARTICIPANT_2 = 2022-156A
MODE = SEQUENTIAL
PATH = 2,1
INTEGRATION_INTERVAL = 10
INTEGRATION_REF = MIDDLE
FREQ_OFFSET = 0
TRANSMIT_DELAY_1 = 0
RECEIVE_DELAY_1 = 0
DATA_QUALITY = RAW
META_STOP

DATA_START
RECEIVE_FREQ_1 =   2022-11-20T14:23:46.435   2216499795.745
RECEIVE_FREQ_1 =   2022-11-20T14:23:56.890   2216499794.845
RECEIVE_FREQ_1 =   2022-11-20T14:24:07.430   2216499794.045
RECEIVE_FREQ_1 =   2022-11-20T14:24:28.339   2216499792.445
RECEIVE_FREQ_1 =   2022-11-20T14:24:38.794   2216499791.745
RECEIVE_FREQ_1 =   2022-11-20T14:24:49.334   2216499790.745
RECEIVE_FREQ_1 =   2022-11-20T14:24:59.789   2216499789.745
RECEIVE_FREQ_1 =   2022-11-20T14:25:10.243   2216499789.045
RECEIVE_FREQ_1 =   2022-11-20T14:25:20.784   2216499788.145
RECEIVE_FREQ_1 =   2022-11-20T14:25:31.325   2216499787.145
RECEIVE_FREQ_1 =   2022-11-20T14:25:52.320   2216499785.945
RECEIVE_FREQ_1 =   2022-11-20T14:26:02.861   2216499784.845
RECEIVE_FREQ_1 =   2022-11-20T14:26:13.315   2216499783.945
RECEIVE_FREQ_1 =   2022-11-20T14:26:23.856   2216499783.245
RECEIVE_FREQ_1 =   2022-11-20T14:26:34.397   2216499782.345
RECEIVE_FREQ_1 =   2022-11-20T14:26:55.392   2216499780.645
RECEIVE_FREQ_1 =   2022-11-20T14:27:05.846   2216499779.745
RECEIVE_FREQ_1 =   2022-11-20T14:27:26.755   2216499778.045
RECEIVE_FREQ_1 =   2022-11-20T14:27:37.296   2216499777.245
RECEIVE_FREQ_1 =   2022-11-20T14:27:47.750   2216499776.745
RECEIVE_FREQ_1 =   2022-11-20T14:27:58.291   2216499775.645
RECEIVE_FREQ_1 =   2022-11-20T14:28:19.286   2216499774.445
RECEIVE_FREQ_1 =   2022-11-20T14:28:29.827   2216499773.845
RECEIVE_FREQ_1 =   2022-11-20T14:28:40.282   2216499773.145
RECEIVE_FREQ_1 =   2022-11-20T14:28:50.822   2216499772.245
RECEIVE_FREQ_1 =   2022-11-20T14:29:01.277   2216499771.645
RECEIVE_FREQ_1 =   2022-11-20T14:29:11.818   2216499770.645
RECEIVE_FREQ_1 =   2022-11-20T14:29:22.272   2216499770.145
RECEIVE_FREQ_1 =   2022-11-20T14:29:43.267   2216499768.545
RECEIVE_FREQ_1 =   2022-11-20T14:29:53.808   2216499767.845
RECEIVE_FREQ_1 =   2022-11-20T14:30:04.349   2216499766.945
RECEIVE_FREQ_1 =   2022-11-20T14:30:14.890   2216499766.745
RECEIVE_FREQ_1 =   2022-11-20T14:30:25.344   2216499765.745
RECEIVE_FREQ_1 =   2022-11-20T14:30:35.885   2216499764.845
RECEIVE_FREQ_1 =   2022-11-20T14:30:46.426   2216499764.145
RECEIVE_FREQ_1 =   2022-11-20T14:30:56.966   2216499763.545
RECEIVE_FREQ_1 =   2022-11-20T14:31:07.421   2216499762.545
RECEIVE_FREQ_1 =   2022-11-20T14:31:17.875   2216499761.745
RECEIVE_FREQ_1 =   2022-11-20T14:31:28.416   2216499760.945
RECEIVE_FREQ_1 =   2022-11-20T14:31:38.957   2216499760.145
RECEIVE_FREQ_1 =   2022-11-20T14:31:49.411   2216499759.645
RECEIVE_FREQ_1 =   2022-11-20T14:31:59.952   2216499758.745
RECEIVE_FREQ_1 =   2022-11-20T14:32:10.406   2216499758.045
RECEIVE_FREQ_1 =   2022-11-20T14:32:20.947   2216499757.145
RECEIVE_FREQ_1 =   2022-11-20T14:32:31.488   2216499756.345
RECEIVE_FREQ_1 =   2022-11-20T14:32:41.942   2216499755.645
RECEIVE_FREQ_1 =   2022-11-20T14:32:52.397   2216499754.845
RECEIVE_FREQ_1 =   2022-11-20T14:33:02.938   2216499754.045
RECEIVE_FREQ_1 =   2022-11-20T14:33:13.392   2216499753.045
RECEIVE_FREQ_1 =   2022-11-20T14:33:23.933   2216499752.345
RECEIVE_FREQ_1 =   2022-11-20T14:33:34.474   2216499751.445
RECEIVE_FREQ_1 =   2022-11-20T14:33:45.014   2216499750.745
RECEIVE_FREQ_1 =   2022-11-20T14:33:55.469   2216499750.045
RECEIVE_FREQ_1 =   2022-11-20T14:34:05.923   2216499749.245
RECEIVE_FREQ_1 =   2022-11-20T14:34:16.464   2216499748.145
RECEIVE_FREQ_1 =   2022-11-20T14:34:26.918   2216499747.645
RECEIVE_FREQ_1 =   2022-11-20T14:34:37.459   2216499747.045
RECEIVE_FREQ_1 =   2022-11-20T14:34:47.914   2216499746.045
RECEIVE_FREQ_1 =   2022-11-20T14:34:58.368   2216499745.145
RECEIVE_FREQ_1 =   2022-11-20T14:35:08.909   2216499744.345
RECEIVE_FREQ_1 =   2022-11-20T14:35:19.363   2216499743.445
RECEIVE_FREQ_1 =   2022-11-20T14:35:29.904   2216499743.045
RECEIVE_FREQ_1 =   2022-11-20T14:35:40.445   2216499741.945
RECEIVE_FREQ_1 =   2022-11-20T14:35:50.986   2216499741.045
RECEIVE_FREQ_1 =   2022-11-20T14:36:01.526   2216499740.445
RECEIVE_FREQ_1 =   2022-11-20T14:36:12.067   2216499739.445
RECEIVE_FREQ_1 =   2022-11-20T14:36:22.608   2216499738.645
RECEIVE_FREQ_1 =   2022-11-20T14:36:33.062   2216499737.745
RECEIVE_FREQ_1 =   2022-11-20T14:36:43.603   2216499737.045
RECEIVE_FREQ_1 =   2022-11-20T14:36:54.144   2216499736.045
RECEIVE_FREQ_1 =   2022-11-20T14:37:04.598   2216499735.245
RECEIVE_FREQ_1 =   2022-11-20T14:37:15.139   2216499734.445
RECEIVE_FREQ_1 =   2022-11-20T14:37:25.680   2216499733.545
RECEIVE_FREQ_1 =   2022-11-20T14:37:36.134   2216499732.945
RECEIVE_FREQ_1 =   2022-11-20T14:37:46.589   2216499732.045
RECEIVE_FREQ_1 =   2022-11-20T14:37:57.130   2216499731.145
RECEIVE_FREQ_1 =   2022-11-20T14:38:07.670   2216499730.245
RECEIVE_FREQ_1 =   2022-11-20T14:38:18.125   2216499729.045
RECEIVE_FREQ_1 =   2022-11-20T14:38:28.666   2216499728.545
RECEIVE_FREQ_1 =   2022-11-20T14:38:39.206   2216499727.645
RECEIVE_FREQ_1 =   2022-11-20T14:38:49.747   2216499726.945
RECEIVE_FREQ_1 =   2022-11-20T14:39:00.288   2216499726.045
RECEIVE_FREQ_1 =   2022-11-20T14:39:10.742   2216499725.145
RECEIVE_FREQ_1 =   2022-11-20T14:39:21.283   2216499724.345
RECEIVE_FREQ_1 =   2022-11-20T14:39:31.824   2216499723.245
RECEIVE_FREQ_1 =   2022-11-20T14:39:42.278   2216499722.445
RECEIVE_FREQ_1 =   2022-11-20T14:39:52.819   2216499721.345
RECEIVE_FREQ_1 =   2022-11-20T14:40:03.360   2216499720.745
RECEIVE_FREQ_1 =   2022-11-20T14:40:13.814   2216499719.745
RECEIVE_FREQ_1 =   2022-11-20T14:40:24.355   2216499719.2
RECEIVE_FREQ_1 =   2022-11-20T14:40:34.810   2216499717.945
RECEIVE_FREQ_1 =   2022-11-20T14:40:45.350   2216499717.045
RECEIVE_FREQ_1 =   2022-11-20T14:40:55.891   2216499716.545
RECEIVE_FREQ_1 =   2022-11-20T14:41:06.346   2216499715.245
RECEIVE_FREQ_1 =   2022-11-20T14:41:16.886   2216499714.745
RECEIVE_FREQ_1 =   2022-11-20T14:41:27.341   2216499713.745
RECEIVE_FREQ_1 =   2022-11-20T14:41:37.882   2216499712.745
RECEIVE_FREQ_1 =   2022-11-20T14:41:48.336   2216499711.8
RECEIVE_FREQ_1 =   2022-11-20T14:41:58.877   2216499711.045
RECEIVE_FREQ_1 =   2022-11-20T14:42:09.331   2216499710.145
RECEIVE_FREQ_1 =   2022-11-20T14:42:19.872   2216499709.245
RECEIVE_FREQ_1 =   2022-11-20T14:42:30.413   2216499708.245
RECEIVE_FREQ_1 =   2022-11-20T14:42:40.867   2216499707.445
RECEIVE_FREQ_1 =   2022-11-20T14:42:51.408   2216499706.345
RECEIVE_FREQ_1 =   2022-11-20T14:43:01.862   2216499705.645
RECEIVE_FREQ_1 =   2022-11-20T14:43:12.403   2216499704.445
RECEIVE_FREQ_1 =   2022-11-20T14:43:22.944   2216499703.445
RECEIVE_FREQ_1 =   2022-11-20T14:43:33.398   2216499702.545
RECEIVE_FREQ_1 =   2022-11-20T14:43:44.026   2216499701.645
RECEIVE_FREQ_1 =   2022-11-20T14:43:54.566   2216499700.745
RECEIVE_FREQ_1 =   2022-11-20T14:44:05.107   2216499699.945
RECEIVE_FREQ_1 =   2022-11-20T14:44:15.562   2216499699.045
RECEIVE_FREQ_1 =   2022-11-20T14:44:26.102   2216499698.045
RECEIVE_FREQ_1 =   2022-11-20T14:44:36.557   2216499697.145
RECEIVE_FREQ_1 =   2022-11-20T14:44:47.098   2216499696.345
RECEIVE_FREQ_1 =   2022-11-20T14:44:57.638   2216499695.545
RECEIVE_FREQ_1 =   2022-11-20T14:45:08.179   2216499694.545
RECEIVE_FREQ_1 =   2022-11-20T14:45:18.720   2216499693.445
RECEIVE_FREQ_1 =   2022-11-20T14:45:29.174   2216499692.545
RECEIVE_FREQ_1 =   2022-11-20T14:45:39.715   2216499691.645
RECEIVE_FREQ_1 =   2022-11-20T14:45:50.256   2216499690.345
RECEIVE_FREQ_1 =   2022-11-20T14:46:00.710   2216499689.6
RECEIVE_FREQ_1 =   2022-11-20T14:46:11.251   2216499688.845
RECEIVE_FREQ_1 =   2022-11-20T14:46:21.792   2216499687.845
RECEIVE_FREQ_1 =   2022-11-20T14:46:32.246   2216499686.945
RECEIVE_FREQ_1 =   2022-11-20T14:46:42.787   2216499686.2
RECEIVE_FREQ_1 =   2022-11-20T14:46:53.328   2216499684.945
RECEIVE_FREQ_1 =   2022-11-20T14:47:03.869   2216499683.945
RECEIVE_FREQ_1 =   2022-11-20T14:47:14.410   2216499682.845
RECEIVE_FREQ_1 =   2022-11-20T14:47:24.864   2216499681.945
RECEIVE_FREQ_1 =   2022-11-20T14:47:35.405   2216499680.945
RECEIVE_FREQ_1 =   2022-11-20T14:47:45.859   2216499680.145
RECEIVE_FREQ_1 =   2022-11-20T14:47:56.400   2216499678.845
RECEIVE_FREQ_1 =   2022-11-20T14:48:06.854   2216499678.045
RECEIVE_FREQ_1 =   2022-11-20T14:48:17.309   2216499677.245
RECEIVE_FREQ_1 =   2022-11-20T14:48:27.850   2216499676.145
RECEIVE_FREQ_1 =   2022-11-20T14:48:38.304   2216499675.145
RECEIVE_FREQ_1 =   2022-11-20T14:48:48.845   2216499674.545
RECEIVE_FREQ_1 =   2022-11-20T14:48:59.386   2216499673.645
RECEIVE_FREQ_1 =   2022-11-20T14:49:09.840   2216499672.645
RECEIVE_FREQ_1 =   2022-11-20T14:49:20.381   2216499671.745
RECEIVE_FREQ_1 =   2022-11-20T14:49:30.835   2216499671.3
RECEIVE_FREQ_1 =   2022-11-20T14:49:41.376   2216499670.045
RECEIVE_FREQ_1 =   2022-11-20T14:49:51.917   2216499669.0
RECEIVE_FREQ_1 =   2022-11-20T14:50:02.458   2216499668.145
RECEIVE_FREQ_1 =   2022-11-20T14:50:12.912   2216499667.8
RECEIVE_FREQ_1 =   2022-11-20T14:50:23.453   2216499666.7
RECEIVE_FREQ_1 =   2022-11-20T14:50:33.994   2216499665.8
RECEIVE_FREQ_1 =   2022-11-20T14:50:44.534   2216499665.145
RECEIVE_FREQ_1 =   2022-11-20T14:50:55.075   2216499664.145
RECEIVE_FREQ_1 =   2022-11-20T14:51:05.530   2216499663.245
RECEIVE_FREQ_1 =   2022-11-20T14:51:16.070   2216499662.045
RECEIVE_FREQ_1 =   2022-11-20T14:51:26.525   2216499661.445
RECEIVE_FREQ_1 =   2022-11-20T14:51:37.066   2216499660.645
RECEIVE_FREQ_1 =   2022-11-20T14:51:47.520   2216499659.745
RECEIVE_FREQ_1 =   2022-11-20T14:51:58.061   2216499658.845
RECEIVE_FREQ_1 =   2022-11-20T14:52:08.515   2216499657.945
RECEIVE_FREQ_1 =   2022-11-20T14:52:19.056   2216499657.145
RECEIVE_FREQ_1 =   2022-11-20T14:52:29.510   2216499656.045
RECEIVE_FREQ_1 =   2022-11-20T14:52:40.051   2216499655.145
RECEIVE_FREQ_1 =   2022-11-20T14:52:50.506   2216499654.545
RECEIVE_FREQ_1 =   2022-11-20T14:53:01.046   2216499653.6
RECEIVE_FREQ_1 =   2022-11-20T14:53:11.587   2216499652.445
RECEIVE_FREQ_1 =   2022-11-20T14:53:22.042   2216499651.6
RECEIVE_FREQ_1 =   2022-11-20T14:53:32.582   2216499650.8
RECEIVE_FREQ_1 =   2022-11-20T14:53:43.037   2216499649.845
RECEIVE_FREQ_1 =   2022-11-20T14:53:53.578   2216499649.045
RECEIVE_FREQ_1 =   2022-11-20T14:54:04.118   2216499648.045
RECEIVE_FREQ_1 =   2022-11-20T14:54:14.573   2216499647.245
RECEIVE_FREQ_1 =   2022-11-20T14:54:25.114   2216499646.345
RECEIVE_FREQ_1 =   2022-11-20T14:54:35.654   2216499645.2
RECEIVE_FREQ_1 =   2022-11-20T14:54:46.109   2216499644.3
RECEIVE_FREQ_1 =   2022-11-20T14:54:56.650   2216499643.6
RECEIVE_FREQ_1 =   2022-11-20T14:55:07.190   2216499642.745
RECEIVE_FREQ_1 =   2022-11-20T14:55:17.731   2216499641.645
RECEIVE_FREQ_1 =   2022-11-20T14:55:28.186   2216499640.6
RECEIVE_FREQ_1 =   2022-11-20T14:55:38.640   2216499639.745
RECEIVE_FREQ_1 =   2022-11-20T14:55:49.181   2216499639.145
RECEIVE_FREQ_1 =   2022-11-20T14:55:59.635   2216499637.845
RECEIVE_FREQ_1 =   2022-11-20T14:56:10.176   2216499637.145
RECEIVE_FREQ_1 =   2022-11-20T14:56:20.630   2216499636.445
RECEIVE_FREQ_1 =   2022-11-20T14:56:31.171   2216499635.145
RECEIVE_FREQ_1 =   2022-11-20T14:56:41.626   2216499633.845
RECEIVE_FREQ_1 =   2022-11-20T14:56:52.166   2216499633.545
RECEIVE_FREQ_1 =   2022-11-20T14:57:02.621   2216499632.545
RECEIVE_FREQ_1 =   2022-11-20T14:57:13.162   2216499631.745
RECEIVE_FREQ_1 =   2022-11-20T14:57:23.702   2216499630.645
RECEIVE_FREQ_1 =   2022-11-20T14:57:34.157   2216499629.345
RECEIVE_FREQ_1 =   2022-11-20T14:57:44.698   2216499628.745
RECEIVE_FREQ_1 =   2022-11-20T14:57:55.152   2216499627.445
RECEIVE_FREQ_1 =   2022-11-20T14:58:05.693   2216499626.7
RECEIVE_FREQ_1 =   2022-11-20T14:58:16.234   2216499625.5
RECEIVE_FREQ_1 =   2022-11-20T14:58:26.774   2216499624.845
RECEIVE_FREQ_1 =   2022-11-20T14:58:37.315   2216499623.945
RECEIVE_FREQ_1 =   2022-11-20T14:58:47.770   2216499622.845
RECEIVE_FREQ_1 =   2022-11-20T14:58:58.310   2216499622.145
RECEIVE_FREQ_1 =   2022-11-20T14:59:08.765   2216499620.745
RECEIVE_FREQ_1 =   2022-11-20T14:59:19.306   2216499620.145
RECEIVE_FREQ_1 =   2022-11-20T14:59:29.760   2216499619.145
RECEIVE_FREQ_1 =   2022-11-20T14:59:40.301   2216499618.0
RECEIVE_FREQ_1 =   2022-11-20T14:59:50.755   2216499616.945
RECEIVE_FREQ_1 =   2022-11-20T15:00:01.296   2216499616.245
RECEIVE_FREQ_1 =   2022-11-20T15:00:11.750   2216499615.2
RECEIVE_FREQ_1 =   2022-11-20T15:00:22.291   2216499614.245
RECEIVE_FREQ_1 =   2022-11-20T15:00:32.832   2216499613.4
RECEIVE_FREQ_1 =   2022-11-20T15:00:43.286   2216499612.245
RECEIVE_FREQ_1 =   2022-11-20T15:00:53.741   2216499611.2
RECEIVE_FREQ_1 =   2022-11-20T15:01:04.282   2216499610.245
RECEIVE_FREQ_1 =   2022-11-20T15:01:14.736   2216499609.145
RECEIVE_FREQ_1 =   2022-11-20T15:01:25.277   2216499608.545
RECEIVE_FREQ_1 =   2022-11-20T15:01:35.731   2216499607.145
RECEIVE_FREQ_1 =   2022-11-20T15:01:46.186   2216499606.445
RECEIVE_FREQ_1 =   2022-11-20T15:01:56.726   2216499605.445
RECEIVE_FREQ_1 =   2022-11-20T15:02:07.181   2216499604.345
RECEIVE_FREQ_1 =   2022-11-20T15:02:17.722   2216499603.2
RECEIVE_FREQ_1 =   2022-11-20T15:02:28.262   2216499602.145
RECEIVE_FREQ_1 =   2022-11-20T15:02:38.803   2216499601.145
RECEIVE_FREQ_1 =   2022-11-20T15:02:49.344   2216499600.145
RECEIVE_FREQ_1 =   2022-11-20T15:02:59.798   2216499599.445
RECEIVE_FREQ_1 =   2022-11-20T15:03:10.339   2216499598.345
RECEIVE_FREQ_1 =   2022-11-20T15:03:20.880   2216499597.245
RECEIVE_FREQ_1 =   2022-11-20T15:03:31.334   2216499596.245
RECEIVE_FREQ_1 =   2022-11-20T15:03:41.875   2216499595.245
RECEIVE_FREQ_1 =   2022-11-20T15:03:52.416   2216499594.445
RECEIVE_FREQ_1 =   2022-11-20T15:04:02.870   2216499593.445
RECEIVE_FREQ_1 =   2022-11-20T15:04:13.411   2216499592.445
RECEIVE_FREQ_1 =   2022-11-20T15:04:23.866   2216499591.045
RECEIVE_FREQ_1 =   2022-11-20T15:04:34.406   2216499590.245
RECEIVE_FREQ_1 =   2022-11-20T15:04:44.861   2216499589.045
RECEIVE_FREQ_1 =   2022-11-20T15:04:55.402   2216499588.345
RECEIVE_FREQ_1 =   2022-11-20T15:05:05.856   2216499587.0
RECEIVE_FREQ_1 =   2022-11-20T15:05:16.397   2216499585.945
RECEIVE_FREQ_1 =   2022-11-20T15:05:26.851   2216499584.845
RECEIVE_FREQ_1 =   2022-11-20T15:05:37.392   2216499583.845
RECEIVE_FREQ_1 =   2022-11-20T15:05:47.846   2216499582.945
RECEIVE_FREQ_1 =   2022-11-20T15:05:58.387   2216499581.745
RECEIVE_FREQ_1 =   2022-11-20T15:06:08.928   2216499580.945
RECEIVE_FREQ_1 =   2022-11-20T15:06:19.382   2216499579.845
RECEIVE_FREQ_1 =   2022-11-20T15:06:29.923   2216499578.745
RECEIVE_FREQ_1 =   2022-11-20T15:06:40.378   2216499577.845
RECEIVE_FREQ_1 =   2022-11-20T15:06:50.918   2216499576.645
RECEIVE_FREQ_1 =   2022-11-20T15:07:01.373   2216499575.845
RECEIVE_FREQ_1 =   2022-11-20T15:07:11.914   2216499574.845
RECEIVE_FREQ_1 =   2022-11-20T15:07:22.368   2216499573.345
RECEIVE_FREQ_1 =   2022-11-20T15:07:32.909   2216499572.445
RECEIVE_FREQ_1 =   2022-11-20T15:07:43.450   2216499571.345
RECEIVE_FREQ_1 =   2022-11-20T15:07:53.904   2216499570.3
RECEIVE_FREQ_1 =   2022-11-20T15:08:04.445   2216499569.545
RECEIVE_FREQ_1 =   2022-11-20T15:08:14.899   2216499568.145
RECEIVE_FREQ_1 =   2022-11-20T15:08:25.440   2216499567.145
RECEIVE_FREQ_1 =   2022-11-20T15:08:35.894   2216499566.4
RECEIVE_FREQ_1 =   2022-11-20T15:08:46.349   2216499564.745
RECEIVE_FREQ_1 =   2022-11-20T15:08:56.803   2216499564.045
RECEIVE_FREQ_1 =   2022-11-20T15:09:07.344   2216499562.845
RECEIVE_FREQ_1 =   2022-11-20T15:09:17.798   2216499561.745
RECEIVE_FREQ_1 =   2022-11-20T15:09:28.426   2216499560.245
RECEIVE_FREQ_1 =   2022-11-20T15:09:38.966   2216499559.545
RECEIVE_FREQ_1 =   2022-11-20T15:09:49.507   2216499558.445
RECEIVE_FREQ_1 =   2022-11-20T15:10:00.048   2216499557.245
RECEIVE_FREQ_1 =   2022-11-20T15:10:10.589   2216499556.145
RECEIVE_FREQ_1 =   2022-11-20T15:10:21.130   2216499555.345
RECEIVE_FREQ_1 =   2022-11-20T15:10:31.584   2216499554.345
RECEIVE_FREQ_1 =   2022-11-20T15:10:42.038   2216499552.845
RECEIVE_FREQ_1 =   2022-11-20T15:10:52.579   2216499552.145
RECEIVE_FREQ_1 =   2022-11-20T15:11:03.120   2216499550.745
RECEIVE_FREQ_1 =   2022-11-20T15:11:13.661   2216499550.145
RECEIVE_FREQ_1 =   2022-11-20T15:11:24.202   2216499548.645
RECEIVE_FREQ_1 =   2022-11-20T15:11:45.283   2216499546.945
RECEIVE_FREQ_1 =   2022-11-20T15:12:06.451   2216499545.145
RECEIVE_FREQ_1 =   2022-11-20T15:12:27.533   2216499543.145
RECEIVE_FREQ_1 =   2022-11-20T15:12:59.155   2216499539.745
RECEIVE_FREQ_1 =   2022-11-20T15:13:09.696   2216499539.145
RECEIVE_FREQ_1 =   2022-11-20T15:13:41.232   2216499536.245
RECEIVE_FREQ_1 =   2022-11-20T15:13:51.686   2216499535.245
RECEIVE_FREQ_1 =   2022-11-20T15:14:02.227   2216499534.245
RECEIVE_FREQ_1 =   2022-11-20T15:14:33.677   2216499530.945
RECEIVE_FREQ_1 =   2022-11-20T15:14:44.218   2216499530.245
RECEIVE_FREQ_1 =   2022-11-20T15:14:54.758   2216499529.345
RECEIVE_FREQ_1 =   2022-11-20T15:15:15.754   2216499526.745
RECEIVE_FREQ_1 =   2022-11-20T15:15:36.749   2216499525.345
RECEIVE_FREQ_1 =   2022-11-20T15:15:47.290   2216499524.445
RECEIVE_FREQ_1 =   2022-11-20T15:15:57.744   2216499523.045
RECEIVE_FREQ_1 =   2022-11-20T15:16:18.826   2216499520.745
RECEIVE_FREQ_1 =   2022-11-20T15:16:29.453   2216499520.245
RECEIVE_FREQ_1 =   2022-11-20T15:16:40.166   2216499519.045
RECEIVE_FREQ_1 =   2022-11-20T15:16:50.707   2216499518.045
RECEIVE_FREQ_1 =   2022-11-20T15:17:01.248   2216499517.045
RECEIVE_FREQ_1 =   2022-11-20T15:17:11.789   2216499515.945
RECEIVE_FREQ_1 =   2022-11-20T15:17:22.243   2216499514.745
RECEIVE_FREQ_1 =   2022-11-20T15:17:32.784   2216499513.745
RECEIVE_FREQ_1 =   2022-11-20T15:17:43.325   2216499512.645
RECEIVE_FREQ_1 =   2022-11-20T15:17:53.779   2216499511.545
RECEIVE_FREQ_1 =   2022-11-20T15:18:04.320   2216499510.845
RECEIVE_FREQ_1 =   2022-11-20T15:18:14.861   2216499509.645
RECEIVE_FREQ_1 =   2022-11-20T15:18:25.402   2216499508.545
RECEIVE_FREQ_1 =   2022-11-20T15:18:57.024   2216499505.745
RECEIVE_FREQ_1 =   2022-11-20T15:19:39.101   2216499501.145
RECEIVE_FREQ_1 =   2022-11-20T15:19:49.642   2216499500.345
RECEIVE_FREQ_1 =   2022-11-20T15:20:10.637   2216499497.745
RECEIVE_FREQ_1 =   2022-11-20T15:20:31.632   2216499496.045
RECEIVE_FREQ_1 =   2022-11-20T15:20:42.173   2216499494.645
RECEIVE_FREQ_1 =   2022-11-20T15:21:03.168   2216499492.845
RECEIVE_FREQ_1 =   2022-11-20T15:21:13.622   2216499491.545
RECEIVE_FREQ_1 =   2022-11-20T15:21:34.618   2216499489.445
RECEIVE_FREQ_1 =   2022-11-20T15:21:45.158   2216499488.445
RECEIVE_FREQ_1 =   2022-11-20T15:22:16.608   2216499485.245
RECEIVE_FREQ_1 =   2022-11-20T15:22:27.062   2216499484.345
RECEIVE_FREQ_1 =   2022-11-20T15:22:37.603   2216499482.945
RECEIVE_FREQ_1 =   2022-11-20T15:22:48.058   2216499482.045
RECEIVE_FREQ_1 =   2022-11-20T15:22:58.598   2216499480.945
RECEIVE_FREQ_1 =   2022-11-20T15:23:19.507   2216499478.845
RECEIVE_FREQ_1 =   2022-11-20T15:23:30.048   2216499477.645
RECEIVE_FREQ_1 =   2022-11-20T15:23:40.589   2216499476.345
RECEIVE_FREQ_1 =   2022-11-20T15:23:51.130   2216499475.445
RECEIVE_FREQ_1 =   2022-11-20T15:24:01.757   2216499474.245
RECEIVE_FREQ_1 =   2022-11-20T15:24:12.298   2216499473.345
RECEIVE_FREQ_1 =   2022-11-20T15:24:22.838   2216499471.945
RECEIVE_FREQ_1 =   2022-11-20T15:24:33.293   2216499470.845
RECEIVE_FREQ_1 =   2022-11-20T15:24:43.834   2216499469.945
RECEIVE_FREQ_1 =   2022-11-20T15:24:54.288   2216499468.645
RECEIVE_FREQ_1 =   2022-11-20T15:25:15.283   2216499466.545
RECEIVE_FREQ_1 =   2022-11-20T15:25:25.824   2216499465.245
RECEIVE_FREQ_1 =   2022-11-20T15:25:46.819   2216499463.145
RECEIVE_FREQ_1 =   2022-11-20T15:26:07.901   2216499460.845
RECEIVE_FREQ_1 =   2022-11-20T15:26:18.355   2216499459.745
RECEIVE_FREQ_1 =   2022-11-20T15:26:28.896   2216499458.945
RECEIVE_FREQ_1 =   2022-11-20T15:26:39.437   2216499457.845
RECEIVE_FREQ_1 =   2022-11-20T15:27:00.432   2216499455.445
RECEIVE_FREQ_1 =   2022-11-20T15:27:21.514   2216499452.945
RECEIVE_FREQ_1 =   2022-11-20T15:27:32.054   2216499452.145
RECEIVE_FREQ_1 =   2022-11-20T15:27:42.509   2216499450.745
RECEIVE_FREQ_1 =   2022-11-20T15:27:53.136   2216499449.745
RECEIVE_FREQ_1 =   2022-11-20T15:28:03.677   2216499448.445
RECEIVE_FREQ_1 =   2022-11-20T15:28:14.304   2216499447.345
RECEIVE_FREQ_1 =   2022-11-20T15:28:24.845   2216499446.045
RECEIVE_FREQ_1 =   2022-11-20T15:28:45.840   2216499444.045
RECEIVE_FREQ_1 =   2022-11-20T15:28:56.381   2216499442.845
RECEIVE_FREQ_1 =   2022-11-20T15:29:06.922   2216499441.945
RECEIVE_FREQ_1 =   2022-11-20T15:29:17.462   2216499440.345
RECEIVE_FREQ_1 =   2022-11-20T15:29:28.003   2216499439.345
RECEIVE_FREQ_1 =   2022-11-20T15:29:38.458   2216499437.945
RECEIVE_FREQ_1 =   2022-11-20T15:29:48.998   2216499436.745
RECEIVE_FREQ_1 =   2022-11-20T15:29:59.453   2216499435.945
RECEIVE_FREQ_1 =   2022-11-20T15:30:09.994   2216499434.645
RECEIVE_FREQ_1 =   2022-11-20T15:30:20.534   2216499433.745
RECEIVE_FREQ_1 =   2022-11-20T15:30:31.075   2216499432.345
RECEIVE_FREQ_1 =   2022-11-20T15:30:41.616   2216499431.345
RECEIVE_FREQ_1 =   2022-11-20T15:30:52.157   2216499430.145
RECEIVE_FREQ_1 =   2022-11-20T15:31:02.611   2216499429.145
RECEIVE_FREQ_1 =   2022-11-20T15:31:13.152   2216499427.745
RECEIVE_FREQ_1 =   2022-11-20T15:31:23.693   2216499426.645
RECEIVE_FREQ_1 =   2022-11-20T15:31:34.147   2216499425.545
RECEIVE_FREQ_1 =   2022-11-20T15:31:44.688   2216499424.445
RECEIVE_FREQ_1 =   2022-11-20T15:31:55.229   2216499423.045
RECEIVE_FREQ_1 =   2022-11-20T15:32:05.683   2216499422.045
RECEIVE_FREQ_1 =   2022-11-20T15:32:16.224   2216499420.445
RECEIVE_FREQ_1 =   2022-11-20T15:32:26.765   2216499419.345
RECEIVE_FREQ_1 =   2022-11-20T15:32:37.306   2216499418.545
RECEIVE_FREQ_1 =   2022-11-20T15:32:47.846   2216499417.245
RECEIVE_FREQ_1 =   2022-11-20T15:32:58.387   2216499416.045
RECEIVE_FREQ_1 =   2022-11-20T15:33:08.842   2216499414.845
RECEIVE_FREQ_1 =   2022-11-20T15:33:19.382   2216499413.745
RECEIVE_FREQ_1 =   2022-11-20T15:33:29.923   2216499412.345
RECEIVE_FREQ_1 =   2022-11-20T15:33:40.378   2216499411.145
RECEIVE_FREQ_1 =   2022-11-20T15:33:50.918   2216499409.945
RECEIVE_FREQ_1 =   2022-11-20T15:34:01.459   2216499408.745
RECEIVE_FREQ_1 =   2022-11-20T15:34:11.914   2216499407.545
RECEIVE_FREQ_1 =   2022-11-20T15:34:22.454   2216499406.745
RECEIVE_FREQ_1 =   2022-11-20T15:34:32.995   2216499405.245
RECEIVE_FREQ_1 =   2022-11-20T15:34:43.536   2216499404.145
RECEIVE_FREQ_1 =   2022-11-20T15:34:54.077   2216499402.745
RECEIVE_FREQ_1 =   2022-11-20T15:35:04.531   2216499401.345
RECEIVE_FREQ_1 =   2022-11-20T15:35:15.072   2216499400.445
RECEIVE_FREQ_1 =   2022-11-20T15:35:25.613   2216499399.345
RECEIVE_FREQ_1 =   2022-11-20T15:35:36.154   2216499398.545
RECEIVE_FREQ_1 =   2022-11-20T15:35:46.608   2216499397.345
RECEIVE_FREQ_1 =   2022-11-20T15:35:57.149   2216499395.945
RECEIVE_FREQ_1 =   2022-11-20T15:36:07.690   2216499395.045
RECEIVE_FREQ_1 =   2022-11-20T15:36:18.144   2216499394.045
RECEIVE_FREQ_1 =   2022-11-20T15:36:28.685   2216499392.945
RECEIVE_FREQ_1 =   2022-11-20T15:36:39.139   2216499392.045
RECEIVE_FREQ_1 =   2022-11-20T15:36:49.594   2216499390.445
RECEIVE_FREQ_1 =   2022-11-20T15:37:00.134   2216499389.545
RECEIVE_FREQ_1 =   2022-11-20T15:37:10.589   2216499388.445
RECEIVE_FREQ_1 =   2022-11-20T15:37:21.043   2216499387.545
RECEIVE_FREQ_1 =   2022-11-20T15:37:31.584   2216499386.345
RECEIVE_FREQ_1 =   2022-11-20T15:37:42.038   2216499385.145
RECEIVE_FREQ_1 =   2022-11-20T15:37:52.579   2216499384.045
RECEIVE_FREQ_1 =   2022-11-20T15:38:03.034   2216499382.745
RECEIVE_FREQ_1 =   2022-11-20T15:38:13.574   2216499381.745
RECEIVE_FREQ_1 =   2022-11-20T15:38:24.029   2216499380.945
RECEIVE_FREQ_1 =   2022-11-20T15:38:34.483   2216499379.645
RECEIVE_FREQ_1 =   2022-11-20T15:38:45.024   2216499378.545
RECEIVE_FREQ_1 =   2022-11-20T15:38:55.478   2216499377.145
RECEIVE_FREQ_1 =   2022-11-20T15:39:06.019   2216499376.545
RECEIVE_FREQ_1 =   2022-11-20T15:39:16.474   2216499375.345
RECEIVE_FREQ_1 =   2022-11-20T15:39:27.014   2216499374.545
RECEIVE_FREQ_1 =   2022-11-20T15:39:37.469   2216499372.945
RECEIVE_FREQ_1 =   2022-11-20T15:39:47.923   2216499371.645
RECEIVE_FREQ_1 =   2022-11-20T15:39:58.464   2216499370.645
RECEIVE_FREQ_1 =   2022-11-20T15:40:08.918   2216499369.645
RECEIVE_FREQ_1 =   2022-11-20T15:40:19.459   2216499368.345
RECEIVE_FREQ_1 =   2022-11-20T15:40:29.914   2216499367.245
RECEIVE_FREQ_1 =   2022-11-20T15:40:40.454   2216499366.045
RECEIVE_FREQ_1 =   2022-11-20T15:40:50.909   2216499365.245
RECEIVE_FREQ_1 =   2022-11-20T15:41:01.450   2216499363.845
RECEIVE_FREQ_1 =   2022-11-20T15:41:11.990   2216499362.945
RECEIVE_FREQ_1 =   2022-11-20T15:41:22.445   2216499361.545
RECEIVE_FREQ_1 =   2022-11-20T15:41:32.986   2216499360.545
RECEIVE_FREQ_1 =   2022-11-20T15:41:43.526   2216499359.545
RECEIVE_FREQ_1 =   2022-11-20T15:41:53.981   2216499358.245
RECEIVE_FREQ_1 =   2022-11-20T15:42:04.522   2216499357.145
RECEIVE_FREQ_1 =   2022-11-20T15:42:15.062   2216499355.845
RECEIVE_FREQ_1 =   2022-11-20T15:42:25.517   2216499354.545
RECEIVE_FREQ_1 =   2022-11-20T15:42:36.058   2216499353.745
RECEIVE_FREQ_1 =   2022-11-20T15:42:46.598   2216499352.545
RECEIVE_FREQ_1 =   2022-11-20T15:42:57.053   2216499351.345
RECEIVE_FREQ_1 =   2022-11-20T15:43:07.594   2216499350.045
RECEIVE_FREQ_1 =   2022-11-20T15:43:18.048   2216499348.845
RECEIVE_FREQ_1 =   2022-11-20T15:43:28.589   2216499347.845
RECEIVE_FREQ_1 =   2022-11-20T15:43:39.043   2216499346.945
RECEIVE_FREQ_1 =   2022-11-20T15:43:49.584   2216499345.145
RECEIVE_FREQ_1 =   2022-11-20T15:44:00.038   2216499344.145
RECEIVE_FREQ_1 =   2022-11-20T15:44:10.579   2216499342.945
RECEIVE_FREQ_1 =   2022-11-20T15:44:21.120   2216499341.845
RECEIVE_FREQ_1 =   2022-11-20T15:44:31.574   2216499341.045
RECEIVE_FREQ_1 =   2022-11-20T15:44:42.029   2216499339.545
RECEIVE_FREQ_1 =   2022-11-20T15:44:52.570   2216499338.345
RECEIVE_FREQ_1 =   2022-11-20T15:45:03.024   2216499337.245
RECEIVE_FREQ_1 =   2022-11-20T15:45:13.565   2216499336.045
RECEIVE_FREQ_1 =   2022-11-20T15:45:24.019   2216499334.945
RECEIVE_FREQ_1 =   2022-11-20T15:45:34.560   2216499333.845
RECEIVE_FREQ_1 =   2022-11-20T15:45:45.014   2216499332.345
RECEIVE_FREQ_1 =   2022-11-20T15:45:55.555   2216499331.445
RECEIVE_FREQ_1 =   2022-11-20T15:46:06.010   2216499330.345
RECEIVE_FREQ_1 =   2022-11-20T15:46:16.464   2216499329.245
RECEIVE_FREQ_1 =   2022-11-20T15:46:27.005   2216499327.545
RECEIVE_FREQ_1 =   2022-11-20T15:46:37.459   2216499326.645
RECEIVE_FREQ_1 =   2022-11-20T15:46:48.000   2216499325.345
RECEIVE_FREQ_1 =   2022-11-20T15:46:58.541   2216499324.545
RECEIVE_FREQ_1 =   2022-11-20T15:47:08.995   2216499322.945
RECEIVE_FREQ_1 =   2022-11-20T15:47:19.536   2216499321.845
RECEIVE_FREQ_1 =   2022-11-20T15:47:29.990   2216499320.745
RECEIVE_FREQ_1 =   2022-11-20T15:47:40.531   2216499319.445
RECEIVE_FREQ_1 =   2022-11-20T15:47:50.986   2216499318.245
RECEIVE_FREQ_1 =   2022-11-20T15:48:01.440   2216499316.845
RECEIVE_FREQ_1 =   2022-11-20T15:48:11.894   2216499315.745
RECEIVE_FREQ_1 =   2022-11-20T15:48:22.435   2216499314.645
RECEIVE_FREQ_1 =   2022-11-20T15:48:32.890   2216499313.545
RECEIVE_FREQ_1 =   2022-11-20T15:48:43.344   2216499312.545
RECEIVE_FREQ_1 =   2022-11-20T15:48:53.885   2216499311.245
RECEIVE_FREQ_1 =   2022-11-20T15:49:04.339   2216499309.745
RECEIVE_FREQ_1 =   2022-11-20T15:49:14.880   2216499308.745
RECEIVE_FREQ_1 =   2022-11-20T15:49:25.421   2216499307.245
RECEIVE_FREQ_1 =   2022-11-20T15:49:35.875   2216499306.145
RECEIVE_FREQ_1 =   2022-11-20T15:49:46.416   2216499304.945
RECEIVE_FREQ_1 =   2022-11-20T15:49:56.957   2216499303.845
RECEIVE_FREQ_1 =   2022-11-20T15:50:07.498   2216499302.545
RECEIVE_FREQ_1 =   2022-11-20T15:50:17.952   2216499301.2
RECEIVE_FREQ_1 =   2022-11-20T15:50:28.406   2216499300.145
RECEIVE_FREQ_1 =   2022-11-20T15:50:38.947   2216499298.845
RECEIVE_FREQ_1 =   2022-11-20T15:50:49.402   2216499297.745
RECEIVE_FREQ_1 =   2022-11-20T15:50:59.856   2216499296.545
RECEIVE_FREQ_1 =   2022-11-20T15:51:10.397   2216499295.245
RECEIVE_FREQ_1 =   2022-11-20T15:51:20.851   2216499294.045
RECEIVE_FREQ_1 =   2022-11-20T15:51:31.306   2216499293.045
RECEIVE_FREQ_1 =   2022-11-20T15:51:41.846   2216499291.245
RECEIVE_FREQ_1 =   2022-11-20T15:51:52.301   2216499290.345
RECEIVE_FREQ_1 =   2022-11-20T15:52:02.755   2216499289.045
RECEIVE_FREQ_1 =   2022-11-20T15:52:13.296   2216499288.045
RECEIVE_FREQ_1 =   2022-11-20T15:52:23.750   2216499287.045
RECEIVE_FREQ_1 =   2022-11-20T15:52:34.205   2216499285.145
RECEIVE_FREQ_1 =   2022-11-20T15:52:44.746   2216499284.245
RECEIVE_FREQ_1 =   2022-11-20T15:52:55.200   2216499283.145
RECEIVE_FREQ_1 =   2022-11-20T15:53:05.741   2216499281.645
RECEIVE_FREQ_1 =   2022-11-20T15:53:16.195   2216499280.245
RECEIVE_FREQ_1 =   2022-11-20T15:53:26.736   2216499279.345
RECEIVE_FREQ_1 =   2022-11-20T15:53:37.277   2216499277.945
RECEIVE_FREQ_1 =   2022-11-20T15:53:47.731   2216499276.845
RECEIVE_FREQ_1 =   2022-11-20T15:53:58.272   2216499275.245
RECEIVE_FREQ_1 =   2022-11-20T15:54:08.813   2216499274.445
RECEIVE_FREQ_1 =   2022-11-20T15:54:19.354   2216499273.145
RECEIVE_FREQ_1 =   2022-11-20T15:54:29.808   2216499271.845
RECEIVE_FREQ_1 =   2022-11-20T15:54:40.349   2216499270.745
RECEIVE_FREQ_1 =   2022-11-20T15:54:50.803   2216499269.345
RECEIVE_FREQ_1 =   2022-11-20T15:55:01.344   2216499267.745
RECEIVE_FREQ_1 =   2022-11-20T15:55:11.798   2216499266.745
RECEIVE_FREQ_1 =   2022-11-20T15:55:22.339   2216499265.345
RECEIVE_FREQ_1 =   2022-11-20T15:55:32.880   2216499264.245
RECEIVE_FREQ_1 =   2022-11-20T15:55:43.421   2216499262.945
RECEIVE_FREQ_1 =   2022-11-20T15:55:53.875   2216499261.445
RECEIVE_FREQ_1 =   2022-11-20T15:56:04.330   2216499260.245
RECEIVE_FREQ_1 =   2022-11-20T15:56:14.870   2216499259.345
RECEIVE_FREQ_1 =   2022-11-20T15:56:25.325   2216499257.745
RECEIVE_FREQ_1 =   2022-11-20T15:56:35.866   2216499256.845
RECEIVE_FREQ_1 =   2022-11-20T15:56:46.320   2216499255.245
RECEIVE_FREQ_1 =   2022-11-20T15:56:56.861   2216499254.245
RECEIVE_FREQ_1 =   2022-11-20T15:57:07.315   2216499252.645
RECEIVE_FREQ_1 =   2022-11-20T15:57:17.770   2216499251.745
RECEIVE_FREQ_1 =   2022-11-20T15:57:28.310   2216499250.345
RECEIVE_FREQ_1 =   2022-11-20T15:57:38.765   2216499249.245
RECEIVE_FREQ_1 =   2022-11-20T15:57:49.306   2216499247.745
RECEIVE_FREQ_1 =   2022-11-20T15:57:59.760   2216499246.445
RECEIVE_FREQ_1 =   2022-11-20T15:58:10.301   2216499245.445
RECEIVE_FREQ_1 =   2022-11-20T15:58:20.755   2216499243.945
RECEIVE_FREQ_1 =   2022-11-20T15:58:31.296   2216499242.445
RECEIVE_FREQ_1 =   2022-11-20T15:58:41.750   2216499241.345
RECEIVE_FREQ_1 =   2022-11-20T15:58:52.291   2216499240.045
RECEIVE_FREQ_1 =   2022-11-20T15:59:02.832   2216499238.645
RECEIVE_FREQ_1 =   2022-11-20T15:59:13.373   2216499237.545
RECEIVE_FREQ_1 =   2022-11-20T15:59:23.827   2216499236.245
RECEIVE_FREQ_1 =   2022-11-20T15:59:34.368   2216499235.045
RECEIVE_FREQ_1 =   2022-11-20T15:59:44.822   2216499233.845
RECEIVE_FREQ_1 =   2022-11-20T15:59:55.363   2216499232.245
RECEIVE_FREQ_1 =   2022-11-20T16:00:05.904   2216499230.945
RECEIVE_FREQ_1 =   2022-11-20T16:00:16.358   2216499229.645
RECEIVE_FREQ_1 =   2022-11-20T16:00:26.899   2216499228.345
RECEIVE_FREQ_1 =   2022-11-20T16:00:37.354   2216499227.345
RECEIVE_FREQ_1 =   2022-11-20T16:00:47.894   2216499225.745
RECEIVE_FREQ_1 =   2022-11-20T16:00:58.435   2216499224.545
RECEIVE_FREQ_1 =   2022-11-20T16:01:08.890   2216499223.245
RECEIVE_FREQ_1 =   2022-11-20T16:01:19.430   2216499222.045
RECEIVE_FREQ_1 =   2022-11-20T16:01:29.885   2216499220.845
RECEIVE_FREQ_1 =   2022-11-20T16:01:40.426   2216499219.345
RECEIVE_FREQ_1 =   2022-11-20T16:01:50.880   2216499218.145
RECEIVE_FREQ_1 =   2022-11-20T16:02:01.421   2216499217.145
RECEIVE_FREQ_1 =   2022-11-20T16:02:11.962   2216499215.745
RECEIVE_FREQ_1 =   2022-11-20T16:02:22.416   2216499214.345
RECEIVE_FREQ_1 =   2022-11-20T16:02:32.870   2216499213.445
RECEIVE_FREQ_1 =   2022-11-20T16:02:43.411   2216499212.045
RECEIVE_FREQ_1 =   2022-11-20T16:02:53.866   2216499211.5
RECEIVE_FREQ_1 =   2022-11-20T16:03:04.406   2216499209.645
RECEIVE_FREQ_1 =   2022-11-20T16:03:14.947   2216499208.445
RECEIVE_FREQ_1 =   2022-11-20T16:03:25.402   2216499207.445
RECEIVE_FREQ_1 =   2022-11-20T16:03:35.942   2216499206.145
RECEIVE_FREQ_1 =   2022-11-20T16:03:46.483   2216499205.045
RECEIVE_FREQ_1 =   2022-11-20T16:03:57.024   2216499203.745
RECEIVE_FREQ_1 =   2022-11-20T16:04:07.565   2216499202.345
RECEIVE_FREQ_1 =   2022-11-20T16:04:18.019   2216499201.145
RECEIVE_FREQ_1 =   2022-11-20T16:04:28.560   2216499199.945
RECEIVE_FREQ_1 =   2022-11-20T16:04:39.014   2216499198.745
RECEIVE_FREQ_1 =   2022-11-20T16:04:49.469   2216499197.445
RECEIVE_FREQ_1 =   2022-11-20T16:05:00.010   2216499196.445
RECEIVE_FREQ_1 =   2022-11-20T16:05:10.464   2216499195.145
RECEIVE_FREQ_1 =   2022-11-20T16:05:21.005   2216499193.945
RECEIVE_FREQ_1 =   2022-11-20T16:05:31.459   2216499192.545
RECEIVE_FREQ_1 =   2022-11-20T16:05:42.000   2216499191.245
RECEIVE_FREQ_1 =   2022-11-20T16:05:52.454   2216499189.945
RECEIVE_FREQ_1 =   2022-11-20T16:06:02.909   2216499188.945
RECEIVE_FREQ_1 =   2022-11-20T16:06:13.450   2216499187.745
RECEIVE_FREQ_1 =   2022-11-20T16:06:23.904   2216499186.345
RECEIVE_FREQ_1 =   2022-11-20T16:06:34.445   2216499185.345
RECEIVE_FREQ_1 =   2022-11-20T16:06:44.986   2216499183.945
RECEIVE_FREQ_1 =   2022-11-20T16:06:55.440   2216499182.945
RECEIVE_FREQ_1 =   2022-11-20T16:07:05.981   2216499181.445
RECEIVE_FREQ_1 =   2022-11-20T16:07:16.435   2216499180.4
RECEIVE_FREQ_1 =   2022-11-20T16:07:26.976   2216499178.945
RECEIVE_FREQ_1 =   2022-11-20T16:07:37.517   2216499177.645
RECEIVE_FREQ_1 =   2022-11-20T16:07:48.058   2216499176.945
RECEIVE_FREQ_1 =   2022-11-20T16:07:58.512   2216499175.245
RECEIVE_FREQ_1 =   2022-11-20T16:08:09.053   2216499174.145
RECEIVE_FREQ_1 =   2022-11-20T16:08:19.507   2216499172.845
RECEIVE_FREQ_1 =   2022-11-20T16:08:30.048   2216499171.345
RECEIVE_FREQ_1 =   2022-11-20T16:08:40.589   2216499170.145
RECEIVE_FREQ_1 =   2022-11-20T16:08:51.043   2216499168.845
RECEIVE_FREQ_1 =   2022-11-20T16:09:01.498   2216499167.645
RECEIVE_FREQ_1 =   2022-11-20T16:09:12.038   2216499166.845
RECEIVE_FREQ_1 =   2022-11-20T16:09:22.493   2216499165.045
RECEIVE_FREQ_1 =   2022-11-20T16:09:33.034   2216499163.9
RECEIVE_FREQ_1 =   2022-11-20T16:09:43.488   2216499162.845
RECEIVE_FREQ_1 =   2022-11-20T16:09:53.942   2216499161.645
RECEIVE_FREQ_1 =   2022-11-20T16:10:04.483   2216499160.345
RECEIVE_FREQ_1 =   2022-11-20T16:10:14.938   2216499159.245
RECEIVE_FREQ_1 =   2022-11-20T16:10:25.478   2216499157.745
RECEIVE_FREQ_1 =   2022-11-20T16:10:35.933   2216499156.645
RECEIVE_FREQ_1 =   2022-11-20T16:10:46.474   2216499155.245
RECEIVE_FREQ_1 =   2022-11-20T16:10:57.014   2216499153.845
RECEIVE_FREQ_1 =   2022-11-20T16:11:07.555   2216499152.645
RECEIVE_FREQ_1 =   2022-11-20T16:11:18.096   2216499151.645
RECEIVE_FREQ_1 =   2022-11-20T16:11:28.550   2216499149.845
RECEIVE_FREQ_1 =   2022-11-20T16:11:39.091   2216499148.745
RECEIVE_FREQ_1 =   2022-11-20T16:11:49.546   2216499147.545
RECEIVE_FREQ_1 =   2022-11-20T16:12:00.086   2216499146.045
RECEIVE_FREQ_1 =   2022-11-20T16:12:10.541   2216499145.045
RECEIVE_FREQ_1 =   2022-11-20T16:12:21.082   2216499143.445
RECEIVE_FREQ_1 =   2022-11-20T16:12:31.622   2216499142.345
RECEIVE_FREQ_1 =   2022-11-20T16:12:42.163   2216499141.245
RECEIVE_FREQ_1 =   2022-11-20T16:12:52.618   2216499140.045
RECEIVE_FREQ_1 =   2022-11-20T16:13:03.072   2216499138.645
RECEIVE_FREQ_1 =   2022-11-20T16:13:13.613   2216499137.245
RECEIVE_FREQ_1 =   2022-11-20T16:13:24.067   2216499136.145
RECEIVE_FREQ_1 =   2022-11-20T16:13:34.608   2216499134.945
RECEIVE_FREQ_1 =   2022-11-20T16:13:45.062   2216499133.545
RECEIVE_FREQ_1 =   2022-11-20T16:13:55.603   2216499132.145
RECEIVE_FREQ_1 =   2022-11-20T16:14:06.058   2216499130.845
RECEIVE_FREQ_1 =   2022-11-20T16:14:16.598   2216499129.645
RECEIVE_FREQ_1 =   2022-11-20T16:14:27.053   2216499128.545
RECEIVE_FREQ_1 =   2022-11-20T16:14:37.594   2216499127.045
RECEIVE_FREQ_1 =   2022-11-20T16:14:48.048   2216499125.545
RECEIVE_FREQ_1 =   2022-11-20T16:14:58.502   2216499124.345
RECEIVE_FREQ_1 =   2022-11-20T16:15:09.043   2216499123.145
RECEIVE_FREQ_1 =   2022-11-20T16:15:19.498   2216499121.945
RECEIVE_FREQ_1 =   2022-11-20T16:15:30.038   2216499120.845
RECEIVE_FREQ_1 =   2022-11-20T16:15:40.493   2216499119.445
RECEIVE_FREQ_1 =   2022-11-20T16:15:50.947   2216499117.645
RECEIVE_FREQ_1 =   2022-11-20T16:16:01.488   2216499116.845
RECEIVE_FREQ_1 =   2022-11-20T16:16:11.942   2216499115.545
RECEIVE_FREQ_1 =   2022-11-20T16:16:22.483   2216499114.045
RECEIVE_FREQ_1 =   2022-11-20T16:16:33.024   2216499112.945
RECEIVE_FREQ_1 =   2022-11-20T16:16:43.478   2216499111.645
RECEIVE_FREQ_1 =   2022-11-20T16:16:54.019   2216499109.945
RECEIVE_FREQ_1 =   2022-11-20T16:17:04.474   2216499108.845
RECEIVE_FREQ_1 =   2022-11-20T16:17:15.014   2216499107.245
RECEIVE_FREQ_1 =   2022-11-20T16:17:25.469   2216499106.245
RECEIVE_FREQ_1 =   2022-11-20T16:17:36.010   2216499104.745
RECEIVE_FREQ_1 =   2022-11-20T16:17:46.464   2216499103.645
RECEIVE_FREQ_1 =   2022-11-20T16:17:57.005   2216499102.345
RECEIVE_FREQ_1 =   2022-11-20T16:18:07.546   2216499100.945
RECEIVE_FREQ_1 =   2022-11-20T16:18:18.000   2216499099.645
RECEIVE_FREQ_1 =   2022-11-20T16:18:28.541   2216499098.345
RECEIVE_FREQ_1 =   2022-11-20T16:18:38.995   2216499097.045
RECEIVE_FREQ_1 =   2022-11-20T16:18:49.536   2216499095.845
RECEIVE_FREQ_1 =   2022-11-20T16:18:59.990   2216499094.645
RECEIVE_FREQ_1 =   2022-11-20T16:19:10.531   2216499093.145
RECEIVE_FREQ_1 =   2022-11-20T16:19:20.986   2216499091.645
RECEIVE_FREQ_1 =   2022-11-20T16:19:31.526   2216499090.245
RECEIVE_FREQ_1 =   2022-11-20T16:19:41.981   2216499088.645
RECEIVE_FREQ_1 =   2022-11-20T16:19:52.522   2216499087.645
RECEIVE_FREQ_1 =   2022-11-20T16:20:02.976   2216499086.245
RECEIVE_FREQ_1 =   2022-11-20T16:20:13.517   2216499085.245
RECEIVE_FREQ_1 =   2022-11-20T16:20:23.971   2216499083.745
RECEIVE_FREQ_1 =   2022-11-20T16:20:34.512   2216499082.345
RECEIVE_FREQ_1 =   2022-11-20T16:20:44.966   2216499081.045
RECEIVE_FREQ_1 =   2022-11-20T16:20:55.507   2216499079.845
RECEIVE_FREQ_1 =   2022-11-20T16:21:05.962   2216499078.445
RECEIVE_FREQ_1 =   2022-11-20T16:21:16.416   2216499077.145
RECEIVE_FREQ_1 =   2022-11-20T16:21:26.957   2216499075.745
RECEIVE_FREQ_1 =   2022-11-20T16:21:37.498   2216499074.745
RECEIVE_FREQ_1 =   2022-11-20T16:21:47.952   2216499073.045
RECEIVE_FREQ_1 =   2022-11-20T16:21:58.493   2216499071.945
RECEIVE_FREQ_1 =   2022-11-20T16:22:08.947   2216499070.245
RECEIVE_FREQ_1 =   2022-11-20T16:22:19.488   2216499068.845
RECEIVE_FREQ_1 =   2022-11-20T16:22:29.942   2216499068.045
RECEIVE_FREQ_1 =   2022-11-20T16:22:40.397   2216499066.345
RECEIVE_FREQ_1 =   2022-11-20T16:22:50.938   2216499065.145
RECEIVE_FREQ_1 =   2022-11-20T16:23:01.392   2216499063.645
RECEIVE_FREQ_1 =   2022-11-20T16:23:11.846   2216499062.445
RECEIVE_FREQ_1 =   2022-11-20T16:23:22.301   2216499061.045
RECEIVE_FREQ_1 =   2022-11-20T16:23:32.842   2216499059.745
RECEIVE_FREQ_1 =   2022-11-20T16:23:43.296   2216499058.145
RECEIVE_FREQ_1 =   2022-11-20T16:23:53.837   2216499056.745
RECEIVE_FREQ_1 =   2022-11-20T16:24:04.291   2216499056.045
RECEIVE_FREQ_1 =   2022-11-20T16:24:14.832   2216499054.445
RECEIVE_FREQ_1 =   2022-11-20T16:24:25.373   2216499052.845
RECEIVE_FREQ_1 =   2022-11-20T16:24:35.914   2216499051.845
RECEIVE_FREQ_1 =   2022-11-20T16:24:46.454   2216499050.245
RECEIVE_FREQ_1 =   2022-11-20T16:24:56.909   2216499049.045
RECEIVE_FREQ_1 =   2022-11-20T16:25:07.450   2216499047.445
RECEIVE_FREQ_1 =   2022-11-20T16:25:17.904   2216499046.145
RECEIVE_FREQ_1 =   2022-11-20T16:25:28.358   2216499044.945
RECEIVE_FREQ_1 =   2022-11-20T16:25:38.899   2216499043.445
RECEIVE_FREQ_1 =   2022-11-20T16:25:49.354   2216499042.445
RECEIVE_FREQ_1 =   2022-11-20T16:25:59.808   2216499040.545
RECEIVE_FREQ_1 =   2022-11-20T16:26:10.262   2216499039.345
RECEIVE_FREQ_1 =   2022-11-20T16:26:20.803   2216499038.045
RECEIVE_FREQ_1 =   2022-11-20T16:26:31.258   2216499036.645
RECEIVE_FREQ_1 =   2022-11-20T16:26:41.798   2216499035.245
RECEIVE_FREQ_1 =   2022-11-20T16:26:52.253   2216499033.945
RECEIVE_FREQ_1 =   2022-11-20T16:27:02.794   2216499032.545
RECEIVE_FREQ_1 =   2022-11-20T16:27:13.334   2216499031.245
RECEIVE_FREQ_1 =   2022-11-20T16:27:23.789   2216499029.845
RECEIVE_FREQ_1 =   2022-11-20T16:27:34.330   2216499028.345
RECEIVE_FREQ_1 =   2022-11-20T16:27:44.870   2216499026.945
RECEIVE_FREQ_1 =   2022-11-20T16:27:55.325   2216499026.045
RECEIVE_FREQ_1 =   2022-11-20T16:28:05.866   2216499024.145
RECEIVE_FREQ_1 =   2022-11-20T16:28:16.320   2216499022.945
RECEIVE_FREQ_1 =   2022-11-20T16:28:26.861   2216499021.445
RECEIVE_FREQ_1 =   2022-11-20T16:28:37.315   2216499020.145
RECEIVE_FREQ_1 =   2022-11-20T16:28:47.856   2216499018.845
RECEIVE_FREQ_1 =   2022-11-20T16:28:58.310   2216499017.8
RECEIVE_FREQ_1 =   2022-11-20T16:29:08.851   2216499016.145
RECEIVE_FREQ_1 =   2022-11-20T16:29:19.306   2216499014.445
RECEIVE_FREQ_1 =   2022-11-20T16:29:29.846   2216499013.345
RECEIVE_FREQ_1 =   2022-11-20T16:29:40.301   2216499011.945
RECEIVE_FREQ_1 =   2022-11-20T16:29:50.842   2216499010.245
RECEIVE_FREQ_1 =   2022-11-20T16:30:01.296   2216499009.145
RECEIVE_FREQ_1 =   2022-11-20T16:30:11.837   2216499007.745
RECEIVE_FREQ_1 =   2022-11-20T16:30:22.291   2216499006.145
RECEIVE_FREQ_1 =   2022-11-20T16:30:32.746   2216499004.845
RECEIVE_FREQ_1 =   2022-11-20T16:30:43.286   2216499003.445
RECEIVE_FREQ_1 =   2022-11-20T16:30:53.741   2216499002.345
RECEIVE_FREQ_1 =   2022-11-20T16:31:04.282   2216499000.845
RECEIVE_FREQ_1 =   2022-11-20T16:31:14.736   2216498999.3
RECEIVE_FREQ_1 =   2022-11-20T16:31:25.277   2216498998.045
RECEIVE_FREQ_1 =   2022-11-20T16:31:35.731   2216498996.845
RECEIVE_FREQ_1 =   2022-11-20T16:31:46.272   2216498995.545
RECEIVE_FREQ_1 =   2022-11-20T16:31:56.726   2216498993.745
RECEIVE_FREQ_1 =   2022-11-20T16:32:07.267   2216498992.745
RECEIVE_FREQ_1 =   2022-11-20T16:32:17.808   2216498991.1
RECEIVE_FREQ_1 =   2022-11-20T16:32:28.262   2216498989.745
RECEIVE_FREQ_1 =   2022-11-20T16:32:38.803   2216498988.345
RECEIVE_FREQ_1 =   2022-11-20T16:32:49.258   2216498987.245
RECEIVE_FREQ_1 =   2022-11-20T16:32:59.712   2216498985.545
RECEIVE_FREQ_1 =   2022-11-20T16:33:10.253   2216498984.345
RECEIVE_FREQ_1 =   2022-11-20T16:33:20.794   2216498983.045
RECEIVE_FREQ_1 =   2022-11-20T16:33:31.248   2216498981.845
RECEIVE_FREQ_1 =   2022-11-20T16:33:41.789   2216498980.245
RECEIVE_FREQ_1 =   2022-11-20T16:33:52.243   2216498979.145
RECEIVE_FREQ_1 =   2022-11-20T16:34:02.698   2216498978.045
RECEIVE_FREQ_1 =   2022-11-20T16:34:13.238   2216498976.445
RECEIVE_FREQ_1 =   2022-11-20T16:34:23.779   2216498975.145
RECEIVE_FREQ_1 =   2022-11-20T16:34:34.234   2216498974.045
RECEIVE_FREQ_1 =   2022-11-20T16:34:44.774   2216498972.745
RECEIVE_FREQ_1 =   2022-11-20T16:34:55.229   2216498971.645
RECEIVE_FREQ_1 =   2022-11-20T16:35:05.770   2216498970.145
RECEIVE_FREQ_1 =   2022-11-20T16:35:16.224   2216498968.745
RECEIVE_FREQ_1 =   2022-11-20T16:35:26.765   2216498967.245
RECEIVE_FREQ_1 =   2022-11-20T16:35:37.306   2216498965.945
RECEIVE_FREQ_1 =   2022-11-20T16:35:47.846   2216498964.445
RECEIVE_FREQ_1 =   2022-11-20T16:35:58.301   2216498963.545
RECEIVE_FREQ_1 =   2022-11-20T16:36:08.842   2216498961.645
RECEIVE_FREQ_1 =   2022-11-20T16:36:19.296   2216498960.945
RECEIVE_FREQ_1 =   2022-11-20T16:36:29.837   2216498959.445
RECEIVE_FREQ_1 =   2022-11-20T16:36:40.291   2216498958.145
RECEIVE_FREQ_1 =   2022-11-20T16:36:50.746   2216498956.845
RECEIVE_FREQ_1 =   2022-11-20T16:37:01.286   2216498955.645
RECEIVE_FREQ_1 =   2022-11-20T16:37:11.741   2216498953.845
RECEIVE_FREQ_1 =   2022-11-20T16:37:22.195   2216498952.545
RECEIVE_FREQ_1 =   2022-11-20T16:37:32.736   2216498951.245
RECEIVE_FREQ_1 =   2022-11-20T16:37:43.277   2216498949.8
RECEIVE_FREQ_1 =   2022-11-20T16:37:53.731   2216498948.645
RECEIVE_FREQ_1 =   2022-11-20T16:38:04.272   2216498947.245
RECEIVE_FREQ_1 =   2022-11-20T16:38:14.726   2216498945.745
RECEIVE_FREQ_1 =   2022-11-20T16:38:25.267   2216498944.745
RECEIVE_FREQ_1 =   2022-11-20T16:38:35.808   2216498943.445
RECEIVE_FREQ_1 =   2022-11-20T16:38:46.262   2216498941.945
RECEIVE_FREQ_1 =   2022-11-20T16:38:56.803   2216498940.745
RECEIVE_FREQ_1 =   2022-11-20T16:39:07.258   2216498939.045
RECEIVE_FREQ_1 =   2022-11-20T16:39:17.798   2216498937.845
RECEIVE_FREQ_1 =   2022-11-20T16:39:28.253   2216498936.445
RECEIVE_FREQ_1 =   2022-11-20T16:39:38.794   2216498935.145
RECEIVE_FREQ_1 =   2022-11-20T16:39:49.334   2216498934.145
RECEIVE_FREQ_1 =   2022-11-20T16:39:59.789   2216498932.645
RECEIVE_FREQ_1 =   2022-11-20T16:40:10.330   2216498931.145
RECEIVE_FREQ_1 =   2022-11-20T16:40:20.784   2216498929.645
RECEIVE_FREQ_1 =   2022-11-20T16:40:31.325   2216498928.245
RECEIVE_FREQ_1 =   2022-11-20T16:40:41.779   2216498927.145
RECEIVE_FREQ_1 =   2022-11-20T16:40:52.320   2216498925.645
RECEIVE_FREQ_1 =   2022-11-20T16:41:02.774   2216498924.745
RECEIVE_FREQ_1 =   2022-11-20T16:41:13.315   2216498923.245
RECEIVE_FREQ_1 =   2022-11-20T16:41:23.770   2216498921.645
RECEIVE_FREQ_1 =   2022-11-20T16:41:34.310   2216498920.245
RECEIVE_FREQ_1 =   2022-11-20T16:41:44.765   2216498918.945
RECEIVE_FREQ_1 =   2022-11-20T16:41:55.306   2216498917.545
RECEIVE_FREQ_1 =   2022-11-20T16:42:05.760   2216498916.545
RECEIVE_FREQ_1 =   2022-11-20T16:42:16.301   2216498914.645
RECEIVE_FREQ_1 =   2022-11-20T16:42:26.755   2216498913.645
RECEIVE_FREQ_1 =   2022-11-20T16:42:37.296   2216498911.945
RECEIVE_FREQ_1 =   2022-11-20T16:42:47.750   2216498911.045
RECEIVE_FREQ_1 =   2022-11-20T16:42:58.291   2216498909.145
RECEIVE_FREQ_1 =   2022-11-20T16:43:08.746   2216498908.145
RECEIVE_FREQ_1 =   2022-11-20T16:43:19.286   2216498906.745
RECEIVE_FREQ_1 =   2022-11-20T16:43:29.827   2216498905.345
RECEIVE_FREQ_1 =   2022-11-20T16:43:40.282   2216498903.845
RECEIVE_FREQ_1 =   2022-11-20T16:43:50.822   2216498902.545
RECEIVE_FREQ_1 =   2022-11-20T16:44:01.277   2216498901.245
RECEIVE_FREQ_1 =   2022-11-20T16:44:11.731   2216498899.945
RECEIVE_FREQ_1 =   2022-11-20T16:44:22.272   2216498898.545
RECEIVE_FREQ_1 =   2022-11-20T16:44:32.726   2216498897.045
RECEIVE_FREQ_1 =   2022-11-20T16:44:43.267   2216498895.645
RECEIVE_FREQ_1 =   2022-11-20T16:44:53.722   2216498894.445
RECEIVE_FREQ_1 =   2022-11-20T16:45:04.262   2216498893.245
RECEIVE_FREQ_1 =   2022-11-20T16:45:14.717   2216498891.645
RECEIVE_FREQ_1 =   2022-11-20T16:45:25.258   2216498890.145
RECEIVE_FREQ_1 =   2022-11-20T16:45:35.798   2216498889.145
RECEIVE_FREQ_1 =   2022-11-20T16:45:46.253   2216498887.745
RECEIVE_FREQ_1 =   2022-11-20T16:45:56.794   2216498886.045
RECEIVE_FREQ_1 =   2022-11-20T16:46:07.248   2216498884.445
RECEIVE_FREQ_1 =   2022-11-20T16:46:17.789   2216498883.345
RECEIVE_FREQ_1 =   2022-11-20T16:46:28.243   2216498881.745
RECEIVE_FREQ_1 =   2022-11-20T16:46:38.784   2216498880.945
RECEIVE_FREQ_1 =   2022-11-20T16:46:49.325   2216498879.145
RECEIVE_FREQ_1 =   2022-11-20T16:46:59.779   2216498877.6
RECEIVE_FREQ_1 =   2022-11-20T16:47:10.234   2216498876.645
RECEIVE_FREQ_1 =   2022-11-20T16:47:20.774   2216498874.745
RECEIVE_FREQ_1 =   2022-11-20T16:47:31.229   2216498873.945
RECEIVE_FREQ_1 =   2022-11-20T16:47:41.683   2216498872.245
RECEIVE_FREQ_1 =   2022-11-20T16:47:52.138   2216498870.9
RECEIVE_FREQ_1 =   2022-11-20T16:48:02.678   2216498869.345
RECEIVE_FREQ_1 =   2022-11-20T16:48:13.133   2216498868.045
RECEIVE_FREQ_1 =   2022-11-20T16:48:23.674   2216498866.745
RECEIVE_FREQ_1 =   2022-11-20T16:48:34.128   2216498865.445
RECEIVE_FREQ_1 =   2022-11-20T16:48:44.582   2216498864.045
RECEIVE_FREQ_1 =   2022-11-20T16:48:55.123   2216498862.445
RECEIVE_FREQ_1 =   2022-11-20T16:49:05.578   2216498860.845
RECEIVE_FREQ_1 =   2022-11-20T16:49:16.118   2216498859.745
RECEIVE_FREQ_1 =   2022-11-20T16:49:26.573   2216498858.445
RECEIVE_FREQ_1 =   2022-11-20T16:49:37.027   2216498857.045
RECEIVE_FREQ_1 =   2022-11-20T16:49:47.568   2216498855.745
RECEIVE_FREQ_1 =   2022-11-20T16:49:58.022   2216498854.345
RECEIVE_FREQ_1 =   2022-11-20T16:50:08.563   2216498852.745
RECEIVE_FREQ_1 =   2022-11-20T16:50:19.018   2216498851.345
RECEIVE_FREQ_1 =   2022-11-20T16:50:29.558   2216498850.045
RECEIVE_FREQ_1 =   2022-11-20T16:50:40.013   2216498848.645
RECEIVE_FREQ_1 =   2022-11-20T16:50:50.554   2216498847.145
RECEIVE_FREQ_1 =   2022-11-20T16:51:01.008   2216498845.645
RECEIVE_FREQ_1 =   2022-11-20T16:51:11.462   2216498844.645
RECEIVE_FREQ_1 =   2022-11-20T16:51:22.003   2216498843.245
RECEIVE_FREQ_1 =   2022-11-20T16:51:32.544   2216498841.745
RECEIVE_FREQ_1 =   2022-11-20T16:51:42.998   2216498840.345
RECEIVE_FREQ_1 =   2022-11-20T16:51:53.539   2216498838.745
RECEIVE_FREQ_1 =   2022-11-20T16:52:03.994   2216498837.445
RECEIVE_FREQ_1 =   2022-11-20T16:52:14.448   2216498836.345
RECEIVE_FREQ_1 =   2022-11-20T16:52:24.989   2216498834.645
RECEIVE_FREQ_1 =   2022-11-20T16:52:35.443   2216498833.245
RECEIVE_FREQ_1 =   2022-11-20T16:52:45.984   2216498831.945
RECEIVE_FREQ_1 =   2022-11-20T16:52:56.438   2216498830.545
RECEIVE_FREQ_1 =   2022-11-20T16:53:06.979   2216498829.345
RECEIVE_FREQ_1 =   2022-11-20T16:53:17.434   2216498827.645
RECEIVE_FREQ_1 =   2022-11-20T16:53:27.974   2216498826.445
RECEIVE_FREQ_1 =   2022-11-20T16:53:38.429   2216498824.745
RECEIVE_FREQ_1 =   2022-11-20T16:53:48.970   2216498823.745
RECEIVE_FREQ_1 =   2022-11-20T16:53:59.424   2216498822.045
RECEIVE_FREQ_1 =   2022-11-20T16:54:09.965   2216498820.545
RECEIVE_FREQ_1 =   2022-11-20T16:54:20.419   2216498819.245
RECEIVE_FREQ_1 =   2022-11-20T16:54:30.874   2216498817.645
RECEIVE_FREQ_1 =   2022-11-20T16:54:41.414   2216498816.545
RECEIVE_FREQ_1 =   2022-11-20T16:54:51.869   2216498814.745
RECEIVE_FREQ_1 =   2022-11-20T16:55:02.323   2216498813.445
RECEIVE_FREQ_1 =   2022-11-20T16:55:12.864   2216498812.045
RECEIVE_FREQ_1 =   2022-11-20T16:55:23.318   2216498810.545
RECEIVE_FREQ_1 =   2022-11-20T16:55:33.773   2216498808.945
RECEIVE_FREQ_1 =   2022-11-20T16:55:44.227   2216498807.845
RECEIVE_FREQ_1 =   2022-11-20T16:55:54.768   2216498806.645
RECEIVE_FREQ_1 =   2022-11-20T16:56:05.222   2216498805.245
RECEIVE_FREQ_1 =   2022-11-20T16:56:15.763   2216498803.845
RECEIVE_FREQ_1 =   2022-11-20T16:56:26.304   2216498802.245
RECEIVE_FREQ_1 =   2022-11-20T16:56:36.758   2216498800.645
RECEIVE_FREQ_1 =   2022-11-20T16:56:47.299   2216498799.445
RECEIVE_FREQ_1 =   2022-11-20T16:56:57.840   2216498797.745
RECEIVE_FREQ_1 =   2022-11-20T16:57:08.294   2216498796.445
RECEIVE_FREQ_1 =   2022-11-20T16:57:18.835   2216498795.045
RECEIVE_FREQ_1 =   2022-11-20T16:57:29.290   2216498793.445
RECEIVE_FREQ_1 =   2022-11-20T16:57:39.830   2216498792.045
RECEIVE_FREQ_1 =   2022-11-20T16:57:50.285   2216498790.645
RECEIVE_FREQ_1 =   2022-11-20T16:58:00.826   2216498789.645
RECEIVE_FREQ_1 =   2022-11-20T16:58:11.280   2216498787.845
RECEIVE_FREQ_1 =   2022-11-20T16:58:21.821   2216498786.645
RECEIVE_FREQ_1 =   2022-11-20T16:58:32.362   2216498785.145
RECEIVE_FREQ_1 =   2022-11-20T16:58:42.816   2216498783.745
RECEIVE_FREQ_1 =   2022-11-20T16:58:53.357   2216498782.245
RECEIVE_FREQ_1 =   2022-11-20T16:59:03.898   2216498780.945
RECEIVE_FREQ_1 =   2022-11-20T16:59:14.352   2216498779.945
RECEIVE_FREQ_1 =   2022-11-20T16:59:24.893   2216498777.545
RECEIVE_FREQ_1 =   2022-11-20T16:59:35.347   2216498776.545
RECEIVE_FREQ_1 =   2022-11-20T16:59:45.888   2216498775.045
RECEIVE_FREQ_1 =   2022-11-20T16:59:56.342   2216498773.645
RECEIVE_FREQ_1 =   2022-11-20T17:00:06.883   2216498772.445
RECEIVE_FREQ_1 =   2022-11-20T17:00:17.338   2216498770.945
RECEIVE_FREQ_1 =   2022-11-20T17:00:27.878   2216498769.545
RECEIVE_FREQ_1 =   2022-11-20T17:00:38.333   2216498767.845
RECEIVE_FREQ_1 =   2022-11-20T17:00:48.874   2216498766.445
RECEIVE_FREQ_1 =   2022-11-20T17:00:59.328   2216498764.945
RECEIVE_FREQ_1 =   2022-11-20T17:01:09.869   2216498763.345
RECEIVE_FREQ_1 =   2022-11-20T17:01:20.323   2216498762.245
RECEIVE_FREQ_1 =   2022-11-20T17:01:30.778   2216498760.745
RECEIVE_FREQ_1 =   2022-11-20T17:01:41.318   2216498759.245
RECEIVE_FREQ_1 =   2022-11-20T17:01:51.773   2216498758.245
RECEIVE_FREQ_1 =   2022-11-20T17:02:02.227   2216498756.345
RECEIVE_FREQ_1 =   2022-11-20T17:02:12.682   2216498754.945
RECEIVE_FREQ_1 =   2022-11-20T17:02:23.136   2216498753.745
RECEIVE_FREQ_1 =   2022-11-20T17:02:33.677   2216498751.645
RECEIVE_FREQ_1 =   2022-11-20T17:02:44.131   2216498750.645
RECEIVE_FREQ_1 =   2022-11-20T17:02:54.672   2216498749.345
RECEIVE_FREQ_1 =   2022-11-20T17:03:05.126   2216498747.645
RECEIVE_FREQ_1 =   2022-11-20T17:03:15.581   2216498746.245
RECEIVE_FREQ_1 =   2022-11-20T17:03:26.122   2216498745.245
RECEIVE_FREQ_1 =   2022-11-20T17:03:36.576   2216498743.545
RECEIVE_FREQ_1 =   2022-11-20T17:03:47.117   2216498741.945
RECEIVE_FREQ_1 =   2022-11-20T17:03:57.571   2216498740.645
RECEIVE_FREQ_1 =   2022-11-20T17:04:08.026   2216498739.145
RECEIVE_FREQ_1 =   2022-11-20T17:04:18.566   2216498737.645
RECEIVE_FREQ_1 =   2022-11-20T17:04:29.021   2216498736.745
RECEIVE_FREQ_1 =   2022-11-20T17:04:39.475   2216498734.945
RECEIVE_FREQ_1 =   2022-11-20T17:04:50.016   2216498733.545
RECEIVE_FREQ_1 =   2022-11-20T17:05:00.470   2216498732.045
RECEIVE_FREQ_1 =   2022-11-20T17:05:11.011   2216498730.545
RECEIVE_FREQ_1 =   2022-11-20T17:05:21.466   2216498729.345
RECEIVE_FREQ_1 =   2022-11-20T17:05:32.006   2216498727.845
RECEIVE_FREQ_1 =   2022-11-20T17:05:42.461   2216498726.545
RECEIVE_FREQ_1 =   2022-11-20T17:05:53.002   2216498724.745
RECEIVE_FREQ_1 =   2022-11-20T17:06:03.456   2216498723.445
RECEIVE_FREQ_1 =   2022-11-20T17:06:13.997   2216498722.245
RECEIVE_FREQ_1 =   2022-11-20T17:06:24.451   2216498720.445
RECEIVE_FREQ_1 =   2022-11-20T17:06:34.992   2216498719.145
RECEIVE_FREQ_1 =   2022-11-20T17:06:45.446   2216498717.445
RECEIVE_FREQ_1 =   2022-11-20T17:06:55.901   2216498716.245
RECEIVE_FREQ_1 =   2022-11-20T17:07:06.442   2216498714.245
RECEIVE_FREQ_1 =   2022-11-20T17:07:16.896   2216498713.345
RECEIVE_FREQ_1 =   2022-11-20T17:07:27.437   2216498711.645
RECEIVE_FREQ_1 =   2022-11-20T17:07:37.978   2216498710.445
RECEIVE_FREQ_1 =   2022-11-20T17:07:48.432   2216498708.845
RECEIVE_FREQ_1 =   2022-11-20T17:07:58.973   2216498707.545
RECEIVE_FREQ_1 =   2022-11-20T17:08:09.427   2216498705.945
RECEIVE_FREQ_1 =   2022-11-20T17:08:19.882   2216498704.445
RECEIVE_FREQ_1 =   2022-11-20T17:08:30.422   2216498702.845
RECEIVE_FREQ_1 =   2022-11-20T17:08:40.877   2216498701.645
RECEIVE_FREQ_1 =   2022-11-20T17:08:51.418   2216498699.845
RECEIVE_FREQ_1 =   2022-11-20T17:09:01.872   2216498698.445
RECEIVE_FREQ_1 =   2022-11-20T17:09:12.326   2216498697.145
RECEIVE_FREQ_1 =   2022-11-20T17:09:22.781   2216498695.545
RECEIVE_FREQ_1 =   2022-11-20T17:09:33.322   2216498694.245
RECEIVE_FREQ_1 =   2022-11-20T17:09:43.776   2216498692.745
RECEIVE_FREQ_1 =   2022-11-20T17:09:54.230   2216498691.245
RECEIVE_FREQ_1 =   2022-11-20T17:10:04.685   2216498689.545
RECEIVE_FREQ_1 =   2022-11-20T17:10:15.226   2216498688.545
RECEIVE_FREQ_1 =   2022-11-20T17:10:25.680   2216498686.845
RECEIVE_FREQ_1 =   2022-11-20T17:10:36.221   2216498685.245
RECEIVE_FREQ_1 =   2022-11-20T17:10:46.675   2216498684.145
RECEIVE_FREQ_1 =   2022-11-20T17:10:57.216   2216498682.745
RECEIVE_FREQ_1 =   2022-11-20T17:11:07.670   2216498681.245
RECEIVE_FREQ_1 =   2022-11-20T17:11:18.211   2216498679.245
RECEIVE_FREQ_1 =   2022-11-20T17:11:28.666   2216498678.145
RECEIVE_FREQ_1 =   2022-11-20T17:11:39.206   2216498676.845
RECEIVE_FREQ_1 =   2022-11-20T17:11:49.747   2216498675.445
RECEIVE_FREQ_1 =   2022-11-20T17:12:00.202   2216498673.745
RECEIVE_FREQ_1 =   2022-11-20T17:12:10.742   2216498672.445
RECEIVE_FREQ_1 =   2022-11-20T17:12:21.197   2216498670.745
RECEIVE_FREQ_1 =   2022-11-20T17:12:31.738   2216498669.545
RECEIVE_FREQ_1 =   2022-11-20T17:12:42.192   2216498667.545
RECEIVE_FREQ_1 =   2022-11-20T17:12:52.733   2216498666.545
RECEIVE_FREQ_1 =   2022-11-20T17:13:03.187   2216498665.345
RECEIVE_FREQ_1 =   2022-11-20T17:13:13.728   2216498663.345
RECEIVE_FREQ_1 =   2022-11-20T17:13:24.182   2216498662.145
RECEIVE_FREQ_1 =   2022-11-20T17:13:34.723   2216498660.545
RECEIVE_FREQ_1 =   2022-11-20T17:13:45.178   2216498659.145
RECEIVE_FREQ_1 =   2022-11-20T17:13:55.632   2216498657.445
RECEIVE_FREQ_1 =   2022-11-20T17:14:06.173   2216498655.945
RECEIVE_FREQ_1 =   2022-11-20T17:14:16.627   2216498655.045
RECEIVE_FREQ_1 =   2022-11-20T17:14:27.168   2216498653.145
RECEIVE_FREQ_1 =   2022-11-20T17:14:37.622   2216498651.645
RECEIVE_FREQ_1 =   2022-11-20T17:14:48.163   2216498650.245
RECEIVE_FREQ_1 =   2022-11-20T17:14:58.618   2216498648.545
RECEIVE_FREQ_1 =   2022-11-20T17:15:09.072   2216498647.645
RECEIVE_FREQ_1 =   2022-11-20T17:15:19.613   2216498646.045
RECEIVE_FREQ_1 =   2022-11-20T17:15:30.067   2216498644.645
RECEIVE_FREQ_1 =   2022-11-20T17:15:40.608   2216498643.345
RECEIVE_FREQ_1 =   2022-11-20T17:15:51.062   2216498641.545
RECEIVE_FREQ_1 =   2022-11-20T17:16:01.603   2216498640.245
RECEIVE_FREQ_1 =   2022-11-20T17:16:12.058   2216498638.645
RECEIVE_FREQ_1 =   2022-11-20T17:16:22.598   2216498637.445
RECEIVE_FREQ_1 =   2022-11-20T17:16:33.053   2216498635.945
RECEIVE_FREQ_1 =   2022-11-20T17:16:43.594   2216498634.345
RECEIVE_FREQ_1 =   2022-11-20T17:16:54.048   2216498633.445
RECEIVE_FREQ_1 =   2022-11-20T17:17:04.502   2216498631.545
RECEIVE_FREQ_1 =   2022-11-20T17:17:15.043   2216498630.145
RECEIVE_FREQ_1 =   2022-11-20T17:17:25.584   2216498629.0
RECEIVE_FREQ_1 =   2022-11-20T17:17:36.038   2216498627.245
RECEIVE_FREQ_1 =   2022-11-20T17:17:46.579   2216498625.945
RECEIVE_FREQ_1 =   2022-11-20T17:17:57.034   2216498624.445
RECEIVE_FREQ_1 =   2022-11-20T17:18:07.574   2216498622.945
RECEIVE_FREQ_1 =   2022-11-20T17:18:18.029   2216498621.745
RECEIVE_FREQ_1 =   2022-11-20T17:18:28.483   2216498620.545
RECEIVE_FREQ_1 =   2022-11-20T17:18:39.024   2216498618.845
RECEIVE_FREQ_1 =   2022-11-20T17:18:49.478   2216498617.445
RECEIVE_FREQ_1 =   2022-11-20T17:19:00.019   2216498616.045
RECEIVE_FREQ_1 =   2022-11-20T17:19:10.474   2216498614.345
RECEIVE_FREQ_1 =   2022-11-20T17:19:21.014   2216498613.145
RECEIVE_FREQ_1 =   2022-11-20T17:19:31.469   2216498611.445
RECEIVE_FREQ_1 =   2022-11-20T17:19:41.923   2216498609.845
RECEIVE_FREQ_1 =   2022-11-20T17:19:52.464   2216498608.745
RECEIVE_FREQ_1 =   2022-11-20T17:20:02.918   2216498607.2
RECEIVE_FREQ_1 =   2022-11-20T17:20:13.373   2216498605.645
RECEIVE_FREQ_1 =   2022-11-20T17:20:23.914   2216498604.445
RECEIVE_FREQ_1 =   2022-11-20T17:20:34.368   2216498602.745
RECEIVE_FREQ_1 =   2022-11-20T17:20:44.909   2216498601.345
RECEIVE_FREQ_1 =   2022-11-20T17:20:55.363   2216498600.145
RECEIVE_FREQ_1 =   2022-11-20T17:21:05.904   2216498598.945
RECEIVE_FREQ_1 =   2022-11-20T17:21:16.358   2216498597.345
RECEIVE_FREQ_1 =   2022-11-20T17:21:26.899   2216498595.745
RECEIVE_FREQ_1 =   2022-11-20T17:21:37.354   2216498594.045
RECEIVE_FREQ_1 =   2022-11-20T17:21:47.894   2216498592.645
RECEIVE_FREQ_1 =   2022-11-20T17:21:58.349   2216498591.245
RECEIVE_FREQ_1 =   2022-11-20T17:22:08.803   2216498589.845
RECEIVE_FREQ_1 =   2022-11-20T17:22:19.344   2216498588.245
RECEIVE_FREQ_1 =   2022-11-20T17:22:29.885   2216498586.945
RECEIVE_FREQ_1 =   2022-11-20T17:22:40.339   2216498585.645
RECEIVE_FREQ_1 =   2022-11-20T17:22:50.880   2216498584.145
RECEIVE_FREQ_1 =   2022-11-20T17:23:01.334   2216498582.445
RECEIVE_FREQ_1 =   2022-11-20T17:23:11.875   2216498581.245
RECEIVE_FREQ_1 =   2022-11-20T17:23:22.330   2216498579.745
RECEIVE_FREQ_1 =   2022-11-20T17:23:32.784   2216498578.445
