data/tdm/2022-11-16Z_2022-156A.tdm

CCSDS_TDM_VERS = 2.0
COMMENT TDM ARTEMIS 1 Doppler data by Scott Tilley for 2022-11-16 UTC
COMMENT Signal not demodulated, to low of SNR, centre carrier integrated in 1s by 1Hz bin and extracted for peak value.
CREATION_DATE = 2022-11-16Z
ORIGINATOR = SCOTT TILLEY

META_START
COMMENT 
COMMENT 
SYSTEM TIME = UTC
PARTICIPANT_1 = COSPAR 8049
PARTICIPANT_2 = 2022-156A
MODE = SEQUENTIAL
PATH = 2,1
INTEGRATION_INTERVAL = 1
INTEGRATION_REF = MIDDLE
FREQ_OFFSET = 0
TRANSMIT_DELAY_1 = 0
RECEIVE_DELAY_1 = 0
DATA_QUALITY = RAW
META_STOP

DATA_START
RECEIVE_FREQ_1 =   2022-11-16T11:29:57.955   2216475588.0
RECEIVE_FREQ_1 =   2022-11-16T11:29:58.992   2216475589.0
RECEIVE_FREQ_1 =   2022-11-16T11:29:59.942   2216475590.0
RECEIVE_FREQ_1 =   2022-11-16T11:30:00.979   2216475590.0
RECEIVE_FREQ_1 =   2022-11-16T11:30:02.016   2216475591.0
RECEIVE_FREQ_1 =   2022-11-16T11:30:02.966   2216475592.0
RECEIVE_FREQ_1 =   2022-11-16T11:30:04.003   2216475593.0
RECEIVE_FREQ_1 =   2022-11-16T11:30:04.954   2216475594.0
RECEIVE_FREQ_1 =   2022-11-16T11:30:05.990   2216475595.0
RECEIVE_FREQ_1 =   2022-11-16T11:30:06.941   2216475596.0
RECEIVE_FREQ_1 =   2022-11-16T11:30:07.978   2216475597.0
RECEIVE_FREQ_1 =   2022-11-16T11:30:09.014   2216475598.0
RECEIVE_FREQ_1 =   2022-11-16T11:30:09.965   2216475599.0
RECEIVE_FREQ_1 =   2022-11-16T11:30:11.002   2216475600.0
RECEIVE_FREQ_1 =   2022-11-16T11:30:11.952   2216475601.0
RECEIVE_FREQ_1 =   2022-11-16T11:30:12.989   2216475602.0
RECEIVE_FREQ_1 =   2022-11-16T11:30:13.939   2216475603.0
RECEIVE_FREQ_1 =   2022-11-16T11:30:14.976   2216475603.0
RECEIVE_FREQ_1 =   2022-11-16T11:30:16.013   2216475604.0
RECEIVE_FREQ_1 =   2022-11-16T11:30:16.963   2216475605.0
RECEIVE_FREQ_1 =   2022-11-16T11:30:18.000   2216475606.0
RECEIVE_FREQ_1 =   2022-11-16T11:30:18.950   2216475607.0
RECEIVE_FREQ_1 =   2022-11-16T11:30:19.987   2216475608.0
RECEIVE_FREQ_1 =   2022-11-16T11:30:20.938   2216475609.0
RECEIVE_FREQ_1 =   2022-11-16T11:30:21.974   2216475610.0
RECEIVE_FREQ_1 =   2022-11-16T11:30:23.011   2216475610.0
RECEIVE_FREQ_1 =   2022-11-16T11:30:23.962   2216475611.0
RECEIVE_FREQ_1 =   2022-11-16T11:30:24.998   2216475612.0
RECEIVE_FREQ_1 =   2022-11-16T11:30:25.949   2216475613.0
RECEIVE_FREQ_1 =   2022-11-16T11:30:26.986   2216475614.0
RECEIVE_FREQ_1 =   2022-11-16T11:30:27.936   2216475615.0
RECEIVE_FREQ_1 =   2022-11-16T11:30:28.973   2216475616.0
RECEIVE_FREQ_1 =   2022-11-16T11:30:30.010   2216475617.0
RECEIVE_FREQ_1 =   2022-11-16T11:30:30.960   2216475618.0
RECEIVE_FREQ_1 =   2022-11-16T11:30:31.997   2216475619.0
RECEIVE_FREQ_1 =   2022-11-16T11:30:32.947   2216475620.0
RECEIVE_FREQ_1 =   2022-11-16T11:30:33.984   2216475620.0
RECEIVE_FREQ_1 =   2022-11-16T11:30:34.934   2216475621.0
RECEIVE_FREQ_1 =   2022-11-16T11:30:35.971   2216475622.0
RECEIVE_FREQ_1 =   2022-11-16T11:30:37.008   2216475623.0
RECEIVE_FREQ_1 =   2022-11-16T11:30:37.958   2216475624.0
RECEIVE_FREQ_1 =   2022-11-16T11:30:38.995   2216475625.0
RECEIVE_FREQ_1 =   2022-11-16T11:30:39.946   2216475626.0
RECEIVE_FREQ_1 =   2022-11-16T11:30:40.982   2216475626.0
RECEIVE_FREQ_1 =   2022-11-16T11:30:41.933   2216475627.0
RECEIVE_FREQ_1 =   2022-11-16T11:30:42.970   2216475628.0
RECEIVE_FREQ_1 =   2022-11-16T11:30:44.006   2216475629.0
RECEIVE_FREQ_1 =   2022-11-16T11:30:44.957   2216475630.0
RECEIVE_FREQ_1 =   2022-11-16T11:30:45.994   2216475631.0
RECEIVE_FREQ_1 =   2022-11-16T11:30:46.944   2216475632.0
RECEIVE_FREQ_1 =   2022-11-16T11:30:47.981   2216475633.0
RECEIVE_FREQ_1 =   2022-11-16T11:30:48.931   2216475634.0
RECEIVE_FREQ_1 =   2022-11-16T11:30:49.968   2216475635.0
RECEIVE_FREQ_1 =   2022-11-16T11:30:51.005   2216475636.0
RECEIVE_FREQ_1 =   2022-11-16T11:30:51.955   2216475636.0
RECEIVE_FREQ_1 =   2022-11-16T11:30:52.992   2216475637.0
RECEIVE_FREQ_1 =   2022-11-16T11:30:53.942   2216475638.0
RECEIVE_FREQ_1 =   2022-11-16T11:30:54.979   2216475639.0
RECEIVE_FREQ_1 =   2022-11-16T11:30:55.930   2216475640.0
RECEIVE_FREQ_1 =   2022-11-16T11:30:56.966   2216475641.0
RECEIVE_FREQ_1 =   2022-11-16T11:30:58.003   2216475642.0
RECEIVE_FREQ_1 =   2022-11-16T11:30:58.954   2216475643.0
RECEIVE_FREQ_1 =   2022-11-16T11:30:59.990   2216475644.0
RECEIVE_FREQ_1 =   2022-11-16T11:31:00.941   2216475644.0
RECEIVE_FREQ_1 =   2022-11-16T11:31:01.978   2216475645.0
RECEIVE_FREQ_1 =   2022-11-16T11:31:03.014   2216475646.0
RECEIVE_FREQ_1 =   2022-11-16T11:31:03.965   2216475647.0
RECEIVE_FREQ_1 =   2022-11-16T11:31:05.002   2216475648.0
RECEIVE_FREQ_1 =   2022-11-16T11:31:05.952   2216475649.0
RECEIVE_FREQ_1 =   2022-11-16T11:31:06.989   2216475650.0
RECEIVE_FREQ_1 =   2022-11-16T11:31:07.939   2216475651.0
RECEIVE_FREQ_1 =   2022-11-16T11:31:08.976   2216475651.0
RECEIVE_FREQ_1 =   2022-11-16T11:31:10.013   2216475652.0
RECEIVE_FREQ_1 =   2022-11-16T11:31:10.963   2216475653.0
RECEIVE_FREQ_1 =   2022-11-16T11:31:12.000   2216475654.0
RECEIVE_FREQ_1 =   2022-11-16T11:31:12.950   2216475655.0
RECEIVE_FREQ_1 =   2022-11-16T11:31:13.987   2216475656.0
RECEIVE_FREQ_1 =   2022-11-16T11:31:14.938   2216475657.0
RECEIVE_FREQ_1 =   2022-11-16T11:31:15.974   2216475658.0
RECEIVE_FREQ_1 =   2022-11-16T11:31:17.011   2216475658.0
RECEIVE_FREQ_1 =   2022-11-16T11:31:17.962   2216475659.0
RECEIVE_FREQ_1 =   2022-11-16T11:31:18.998   2216475660.0
RECEIVE_FREQ_1 =   2022-11-16T11:31:19.949   2216475661.0
RECEIVE_FREQ_1 =   2022-11-16T11:31:20.986   2216475662.0
RECEIVE_FREQ_1 =   2022-11-16T11:31:21.936   2216475663.0
RECEIVE_FREQ_1 =   2022-11-16T11:31:22.973   2216475664.0
RECEIVE_FREQ_1 =   2022-11-16T11:31:24.010   2216475665.0
RECEIVE_FREQ_1 =   2022-11-16T11:31:24.960   2216475666.0
RECEIVE_FREQ_1 =   2022-11-16T11:31:25.997   2216475666.0
RECEIVE_FREQ_1 =   2022-11-16T11:31:26.947   2216475667.0
RECEIVE_FREQ_1 =   2022-11-16T11:31:27.984   2216475668.0
RECEIVE_FREQ_1 =   2022-11-16T11:31:28.934   2216475669.0
RECEIVE_FREQ_1 =   2022-11-16T11:31:29.971   2216475670.0
RECEIVE_FREQ_1 =   2022-11-16T11:31:31.008   2216475670.0
RECEIVE_FREQ_1 =   2022-11-16T11:31:31.958   2216475672.0
RECEIVE_FREQ_1 =   2022-11-16T11:31:32.995   2216475673.0
RECEIVE_FREQ_1 =   2022-11-16T11:31:33.946   2216475674.0
RECEIVE_FREQ_1 =   2022-11-16T11:31:34.982   2216475675.0
RECEIVE_FREQ_1 =   2022-11-16T11:31:35.933   2216475675.0
RECEIVE_FREQ_1 =   2022-11-16T11:31:36.970   2216475677.0
RECEIVE_FREQ_1 =   2022-11-16T11:31:38.006   2216475677.0
RECEIVE_FREQ_1 =   2022-11-16T11:31:38.957   2216475678.0
RECEIVE_FREQ_1 =   2022-11-16T11:31:39.994   2216475679.0
RECEIVE_FREQ_1 =   2022-11-16T11:31:40.944   2216475680.0
RECEIVE_FREQ_1 =   2022-11-16T11:31:41.981   2216475681.0
RECEIVE_FREQ_1 =   2022-11-16T11:31:42.931   2216475682.0
RECEIVE_FREQ_1 =   2022-11-16T11:31:43.968   2216475682.0
RECEIVE_FREQ_1 =   2022-11-16T11:31:45.005   2216475683.0
RECEIVE_FREQ_1 =   2022-11-16T11:31:45.955   2216475684.0
RECEIVE_FREQ_1 =   2022-11-16T11:31:46.992   2216475685.0
RECEIVE_FREQ_1 =   2022-11-16T11:31:47.942   2216475686.0
RECEIVE_FREQ_1 =   2022-11-16T11:31:48.979   2216475687.0
RECEIVE_FREQ_1 =   2022-11-16T11:31:50.016   2216475688.0
RECEIVE_FREQ_1 =   2022-11-16T11:31:50.966   2216475688.0
RECEIVE_FREQ_1 =   2022-11-16T11:31:52.003   2216475690.0
RECEIVE_FREQ_1 =   2022-11-16T11:31:52.954   2216475690.0
RECEIVE_FREQ_1 =   2022-11-16T11:31:53.990   2216475691.0
RECEIVE_FREQ_1 =   2022-11-16T11:31:54.941   2216475692.0
RECEIVE_FREQ_1 =   2022-11-16T11:31:55.978   2216475693.0
RECEIVE_FREQ_1 =   2022-11-16T11:31:57.014   2216475694.0
RECEIVE_FREQ_1 =   2022-11-16T11:31:57.965   2216475695.0
RECEIVE_FREQ_1 =   2022-11-16T11:31:59.002   2216475696.0
RECEIVE_FREQ_1 =   2022-11-16T11:31:59.952   2216475696.0
RECEIVE_FREQ_1 =   2022-11-16T11:32:00.989   2216475697.0
RECEIVE_FREQ_1 =   2022-11-16T11:32:01.939   2216475698.0
RECEIVE_FREQ_1 =   2022-11-16T11:32:02.976   2216475699.0
RECEIVE_FREQ_1 =   2022-11-16T11:32:04.013   2216475700.0
RECEIVE_FREQ_1 =   2022-11-16T11:32:04.963   2216475700.0
RECEIVE_FREQ_1 =   2022-11-16T11:32:06.000   2216475701.0
RECEIVE_FREQ_1 =   2022-11-16T11:32:06.950   2216475702.0
RECEIVE_FREQ_1 =   2022-11-16T11:32:07.987   2216475703.0
RECEIVE_FREQ_1 =   2022-11-16T11:32:08.938   2216475704.0
RECEIVE_FREQ_1 =   2022-11-16T11:32:09.974   2216475705.0
RECEIVE_FREQ_1 =   2022-11-16T11:32:11.011   2216475706.0
RECEIVE_FREQ_1 =   2022-11-16T11:32:11.962   2216475707.0
RECEIVE_FREQ_1 =   2022-11-16T11:32:12.998   2216475707.0
RECEIVE_FREQ_1 =   2022-11-16T11:32:13.949   2216475709.0
RECEIVE_FREQ_1 =   2022-11-16T11:32:14.986   2216475710.0
RECEIVE_FREQ_1 =   2022-11-16T11:32:15.936   2216475711.0
RECEIVE_FREQ_1 =   2022-11-16T11:32:16.973   2216475711.0
RECEIVE_FREQ_1 =   2022-11-16T11:32:18.010   2216475712.0
RECEIVE_FREQ_1 =   2022-11-16T11:32:18.960   2216475713.0
RECEIVE_FREQ_1 =   2022-11-16T11:32:19.997   2216475714.0
RECEIVE_FREQ_1 =   2022-11-16T11:32:20.947   2216475715.0
RECEIVE_FREQ_1 =   2022-11-16T11:32:21.984   2216475715.0
RECEIVE_FREQ_1 =   2022-11-16T11:32:23.021   2216475716.0
RECEIVE_FREQ_1 =   2022-11-16T11:32:23.971   2216475717.0
RECEIVE_FREQ_1 =   2022-11-16T11:32:25.008   2216475718.0
RECEIVE_FREQ_1 =   2022-11-16T11:32:25.958   2216475719.0
RECEIVE_FREQ_1 =   2022-11-16T11:32:26.995   2216475720.0
RECEIVE_FREQ_1 =   2022-11-16T11:32:27.946   2216475721.0
RECEIVE_FREQ_1 =   2022-11-16T11:32:28.982   2216475721.0
RECEIVE_FREQ_1 =   2022-11-16T11:32:29.933   2216475722.0
RECEIVE_FREQ_1 =   2022-11-16T11:32:30.970   2216475723.0
RECEIVE_FREQ_1 =   2022-11-16T11:32:32.006   2216475724.0
RECEIVE_FREQ_1 =   2022-11-16T11:32:32.957   2216475725.0
RECEIVE_FREQ_1 =   2022-11-16T11:32:33.994   2216475726.0
RECEIVE_FREQ_1 =   2022-11-16T11:32:34.944   2216475727.0
RECEIVE_FREQ_1 =   2022-11-16T11:32:35.981   2216475728.0
RECEIVE_FREQ_1 =   2022-11-16T11:32:37.018   2216475729.0
RECEIVE_FREQ_1 =   2022-11-16T11:32:37.968   2216475729.0
RECEIVE_FREQ_1 =   2022-11-16T11:32:39.005   2216475730.0
RECEIVE_FREQ_1 =   2022-11-16T11:32:39.955   2216475731.0
RECEIVE_FREQ_1 =   2022-11-16T11:32:40.992   2216475732.0
RECEIVE_FREQ_1 =   2022-11-16T11:32:41.942   2216475733.0
RECEIVE_FREQ_1 =   2022-11-16T11:32:42.979   2216475734.0
RECEIVE_FREQ_1 =   2022-11-16T11:32:44.016   2216475735.0
RECEIVE_FREQ_1 =   2022-11-16T11:32:44.966   2216475735.0
RECEIVE_FREQ_1 =   2022-11-16T11:32:46.003   2216475736.0
RECEIVE_FREQ_1 =   2022-11-16T11:32:46.954   2216475737.0
RECEIVE_FREQ_1 =   2022-11-16T11:32:47.990   2216475738.0
RECEIVE_FREQ_1 =   2022-11-16T11:32:49.978   2216475740.0
RECEIVE_FREQ_1 =   2022-11-16T11:32:51.014   2216475741.0
RECEIVE_FREQ_1 =   2022-11-16T11:32:51.965   2216475741.0
RECEIVE_FREQ_1 =   2022-11-16T11:32:53.002   2216475742.0
RECEIVE_FREQ_1 =   2022-11-16T11:32:53.952   2216475743.0
RECEIVE_FREQ_1 =   2022-11-16T11:32:54.989   2216475744.0
RECEIVE_FREQ_1 =   2022-11-16T11:32:56.976   2216475746.0
RECEIVE_FREQ_1 =   2022-11-16T11:32:58.013   2216475747.0
RECEIVE_FREQ_1 =   2022-11-16T11:33:00.950   2216475749.0
RECEIVE_FREQ_1 =   2022-11-16T11:33:05.011   2216475753.0
RECEIVE_FREQ_1 =   2022-11-16T11:33:07.949   2216475755.0
RECEIVE_FREQ_1 =   2022-11-16T11:33:08.986   2216475756.0
RECEIVE_FREQ_1 =   2022-11-16T11:33:10.973   2216475758.0
RECEIVE_FREQ_1 =   2022-11-16T11:33:12.010   2216475759.0
RECEIVE_FREQ_1 =   2022-11-16T11:33:12.960   2216475760.0
RECEIVE_FREQ_1 =   2022-11-16T11:34:13.958   2216475811.0
RECEIVE_FREQ_1 =   2022-11-16T11:34:14.995   2216475812.0
RECEIVE_FREQ_1 =   2022-11-16T11:34:16.982   2216475814.0
RECEIVE_FREQ_1 =   2022-11-16T11:34:17.933   2216475815.0
RECEIVE_FREQ_1 =   2022-11-16T11:34:20.006   2216475817.0
RECEIVE_FREQ_1 =   2022-11-16T11:34:21.994   2216475818.0
RECEIVE_FREQ_1 =   2022-11-16T11:34:22.944   2216475819.0
RECEIVE_FREQ_1 =   2022-11-16T11:34:23.981   2216475819.0
RECEIVE_FREQ_1 =   2022-11-16T11:34:24.931   2216475821.0
RECEIVE_FREQ_1 =   2022-11-16T11:34:25.968   2216475821.0
RECEIVE_FREQ_1 =   2022-11-16T11:34:27.005   2216475823.0
RECEIVE_FREQ_1 =   2022-11-16T11:34:27.955   2216475824.0
RECEIVE_FREQ_1 =   2022-11-16T11:34:28.992   2216475824.0
RECEIVE_FREQ_1 =   2022-11-16T11:34:29.942   2216475825.0
RECEIVE_FREQ_1 =   2022-11-16T11:34:30.979   2216475826.0
RECEIVE_FREQ_1 =   2022-11-16T11:34:32.016   2216475826.0
RECEIVE_FREQ_1 =   2022-11-16T11:34:32.966   2216475828.0
RECEIVE_FREQ_1 =   2022-11-16T11:34:34.003   2216475829.0
RECEIVE_FREQ_1 =   2022-11-16T11:34:34.954   2216475829.0
RECEIVE_FREQ_1 =   2022-11-16T11:34:35.990   2216475830.0
RECEIVE_FREQ_1 =   2022-11-16T11:34:37.978   2216475832.0
RECEIVE_FREQ_1 =   2022-11-16T11:34:39.014   2216475833.0
RECEIVE_FREQ_1 =   2022-11-16T11:34:39.965   2216475833.0
RECEIVE_FREQ_1 =   2022-11-16T11:34:41.002   2216475834.0
RECEIVE_FREQ_1 =   2022-11-16T11:34:42.989   2216475835.0
RECEIVE_FREQ_1 =   2022-11-16T11:34:44.976   2216475837.0
RECEIVE_FREQ_1 =   2022-11-16T11:34:46.013   2216475838.0
RECEIVE_FREQ_1 =   2022-11-16T11:34:46.963   2216475839.0
RECEIVE_FREQ_1 =   2022-11-16T11:34:48.000   2216475840.0
RECEIVE_FREQ_1 =   2022-11-16T11:34:48.950   2216475842.0
RECEIVE_FREQ_1 =   2022-11-16T11:34:49.987   2216475842.0
RECEIVE_FREQ_1 =   2022-11-16T11:34:50.938   2216475843.0
RECEIVE_FREQ_1 =   2022-11-16T11:34:51.974   2216475844.0
RECEIVE_FREQ_1 =   2022-11-16T11:34:53.011   2216475845.0
RECEIVE_FREQ_1 =   2022-11-16T11:34:53.962   2216475846.0
RECEIVE_FREQ_1 =   2022-11-16T11:34:54.998   2216475846.0
RECEIVE_FREQ_1 =   2022-11-16T11:34:55.949   2216475847.0
RECEIVE_FREQ_1 =   2022-11-16T11:34:56.986   2216475848.0
RECEIVE_FREQ_1 =   2022-11-16T11:34:57.936   2216475849.0
RECEIVE_FREQ_1 =   2022-11-16T11:34:58.973   2216475850.0
RECEIVE_FREQ_1 =   2022-11-16T11:35:00.010   2216475851.0
RECEIVE_FREQ_1 =   2022-11-16T11:35:00.960   2216475851.0
RECEIVE_FREQ_1 =   2022-11-16T11:35:01.997   2216475853.0
RECEIVE_FREQ_1 =   2022-11-16T11:35:02.947   2216475854.0
RECEIVE_FREQ_1 =   2022-11-16T11:35:03.984   2216475854.0
RECEIVE_FREQ_1 =   2022-11-16T11:35:04.934   2216475855.0
RECEIVE_FREQ_1 =   2022-11-16T11:35:05.971   2216475856.0
RECEIVE_FREQ_1 =   2022-11-16T11:35:07.008   2216475857.0
RECEIVE_FREQ_1 =   2022-11-16T11:35:07.958   2216475858.0
RECEIVE_FREQ_1 =   2022-11-16T11:35:08.995   2216475859.0
RECEIVE_FREQ_1 =   2022-11-16T11:35:09.946   2216475859.0
RECEIVE_FREQ_1 =   2022-11-16T11:35:10.982   2216475860.0
RECEIVE_FREQ_1 =   2022-11-16T11:35:11.933   2216475861.0
RECEIVE_FREQ_1 =   2022-11-16T11:35:12.970   2216475862.0
RECEIVE_FREQ_1 =   2022-11-16T11:35:14.006   2216475863.0
RECEIVE_FREQ_1 =   2022-11-16T11:35:14.957   2216475864.0
RECEIVE_FREQ_1 =   2022-11-16T11:35:15.994   2216475865.0
RECEIVE_FREQ_1 =   2022-11-16T11:35:16.944   2216475865.0
RECEIVE_FREQ_1 =   2022-11-16T11:35:17.981   2216475867.0
RECEIVE_FREQ_1 =   2022-11-16T11:35:19.018   2216475867.0
RECEIVE_FREQ_1 =   2022-11-16T11:35:19.968   2216475868.0
RECEIVE_FREQ_1 =   2022-11-16T11:35:21.005   2216475869.0
RECEIVE_FREQ_1 =   2022-11-16T11:35:21.955   2216475870.0
RECEIVE_FREQ_1 =   2022-11-16T11:35:22.992   2216475871.0
RECEIVE_FREQ_1 =   2022-11-16T11:35:23.942   2216475872.0
RECEIVE_FREQ_1 =   2022-11-16T11:35:24.979   2216475872.0
RECEIVE_FREQ_1 =   2022-11-16T11:35:25.930   2216475873.0
RECEIVE_FREQ_1 =   2022-11-16T11:35:26.966   2216475874.0
RECEIVE_FREQ_1 =   2022-11-16T11:35:28.003   2216475875.0
RECEIVE_FREQ_1 =   2022-11-16T11:35:28.954   2216475876.0
RECEIVE_FREQ_1 =   2022-11-16T11:35:29.990   2216475877.0
RECEIVE_FREQ_1 =   2022-11-16T11:35:30.941   2216475878.0
RECEIVE_FREQ_1 =   2022-11-16T11:35:31.978   2216475879.0
RECEIVE_FREQ_1 =   2022-11-16T11:35:33.014   2216475880.0
RECEIVE_FREQ_1 =   2022-11-16T11:35:33.965   2216475880.0
RECEIVE_FREQ_1 =   2022-11-16T11:35:35.002   2216475881.0
RECEIVE_FREQ_1 =   2022-11-16T11:35:35.952   2216475882.0
RECEIVE_FREQ_1 =   2022-11-16T11:35:36.989   2216475883.0
RECEIVE_FREQ_1 =   2022-11-16T11:35:37.939   2216475884.0
RECEIVE_FREQ_1 =   2022-11-16T11:35:38.976   2216475885.0
RECEIVE_FREQ_1 =   2022-11-16T11:35:40.013   2216475886.0
RECEIVE_FREQ_1 =   2022-11-16T11:35:40.963   2216475887.0
RECEIVE_FREQ_1 =   2022-11-16T11:35:42.000   2216475887.0
RECEIVE_FREQ_1 =   2022-11-16T11:35:42.950   2216475888.0
RECEIVE_FREQ_1 =   2022-11-16T11:35:43.987   2216475889.0
RECEIVE_FREQ_1 =   2022-11-16T11:35:44.938   2216475890.0
RECEIVE_FREQ_1 =   2022-11-16T11:35:45.974   2216475891.0
RECEIVE_FREQ_1 =   2022-11-16T11:35:47.011   2216475892.0
RECEIVE_FREQ_1 =   2022-11-16T11:35:47.962   2216475893.0
RECEIVE_FREQ_1 =   2022-11-16T11:35:48.998   2216475894.0
RECEIVE_FREQ_1 =   2022-11-16T11:35:49.949   2216475894.0
RECEIVE_FREQ_1 =   2022-11-16T11:35:50.986   2216475895.0
RECEIVE_FREQ_1 =   2022-11-16T11:35:51.936   2216475896.0
RECEIVE_FREQ_1 =   2022-11-16T11:35:52.973   2216475897.0
RECEIVE_FREQ_1 =   2022-11-16T11:35:54.010   2216475898.0
RECEIVE_FREQ_1 =   2022-11-16T11:35:54.960   2216475898.0
RECEIVE_FREQ_1 =   2022-11-16T11:35:55.997   2216475899.0
RECEIVE_FREQ_1 =   2022-11-16T11:35:56.947   2216475901.0
RECEIVE_FREQ_1 =   2022-11-16T11:35:57.984   2216475901.0
RECEIVE_FREQ_1 =   2022-11-16T11:35:58.934   2216475902.0
RECEIVE_FREQ_1 =   2022-11-16T11:35:59.971   2216475903.0
RECEIVE_FREQ_1 =   2022-11-16T11:36:01.008   2216475904.0
RECEIVE_FREQ_1 =   2022-11-16T11:36:01.958   2216475905.0
RECEIVE_FREQ_1 =   2022-11-16T11:36:02.995   2216475906.0
RECEIVE_FREQ_1 =   2022-11-16T11:36:03.946   2216475907.0
RECEIVE_FREQ_1 =   2022-11-16T11:36:04.982   2216475907.0
RECEIVE_FREQ_1 =   2022-11-16T11:36:05.933   2216475908.0
RECEIVE_FREQ_1 =   2022-11-16T11:36:06.970   2216475909.0
RECEIVE_FREQ_1 =   2022-11-16T11:36:08.006   2216475910.0
RECEIVE_FREQ_1 =   2022-11-16T11:36:08.957   2216475910.0
RECEIVE_FREQ_1 =   2022-11-16T11:36:09.994   2216475911.0
RECEIVE_FREQ_1 =   2022-11-16T11:36:10.944   2216475912.0
RECEIVE_FREQ_1 =   2022-11-16T11:36:11.981   2216475913.0
RECEIVE_FREQ_1 =   2022-11-16T11:36:12.931   2216475914.0
RECEIVE_FREQ_1 =   2022-11-16T11:36:13.968   2216475915.0
RECEIVE_FREQ_1 =   2022-11-16T11:36:15.005   2216475916.0
RECEIVE_FREQ_1 =   2022-11-16T11:36:15.955   2216475917.0
RECEIVE_FREQ_1 =   2022-11-16T11:36:16.992   2216475918.0
RECEIVE_FREQ_1 =   2022-11-16T11:36:17.942   2216475918.0
RECEIVE_FREQ_1 =   2022-11-16T11:36:18.979   2216475919.0
RECEIVE_FREQ_1 =   2022-11-16T11:36:19.930   2216475920.0
RECEIVE_FREQ_1 =   2022-11-16T11:36:20.966   2216475921.0
RECEIVE_FREQ_1 =   2022-11-16T11:36:22.003   2216475922.0
RECEIVE_FREQ_1 =   2022-11-16T11:36:22.954   2216475922.0
RECEIVE_FREQ_1 =   2022-11-16T11:36:23.990   2216475924.0
RECEIVE_FREQ_1 =   2022-11-16T11:36:24.941   2216475925.0
RECEIVE_FREQ_1 =   2022-11-16T11:36:25.978   2216475926.0
RECEIVE_FREQ_1 =   2022-11-16T11:36:27.014   2216475926.0
RECEIVE_FREQ_1 =   2022-11-16T11:36:27.965   2216475927.0
RECEIVE_FREQ_1 =   2022-11-16T11:36:29.002   2216475928.0
RECEIVE_FREQ_1 =   2022-11-16T11:36:29.952   2216475929.0
RECEIVE_FREQ_1 =   2022-11-16T11:36:30.989   2216475930.0
RECEIVE_FREQ_1 =   2022-11-16T11:36:31.939   2216475930.0
RECEIVE_FREQ_1 =   2022-11-16T11:36:32.976   2216475931.0
RECEIVE_FREQ_1 =   2022-11-16T11:36:34.013   2216475932.0
RECEIVE_FREQ_1 =   2022-11-16T11:36:34.963   2216475933.0
RECEIVE_FREQ_1 =   2022-11-16T11:36:36.000   2216475934.0
RECEIVE_FREQ_1 =   2022-11-16T11:36:36.950   2216475935.0
RECEIVE_FREQ_1 =   2022-11-16T11:36:37.987   2216475936.0
RECEIVE_FREQ_1 =   2022-11-16T11:36:38.938   2216475936.0
RECEIVE_FREQ_1 =   2022-11-16T11:36:39.974   2216475937.0
RECEIVE_FREQ_1 =   2022-11-16T11:36:41.011   2216475938.0
RECEIVE_FREQ_1 =   2022-11-16T11:36:41.962   2216475939.0
RECEIVE_FREQ_1 =   2022-11-16T11:36:42.998   2216475940.0
RECEIVE_FREQ_1 =   2022-11-16T11:36:43.949   2216475941.0
RECEIVE_FREQ_1 =   2022-11-16T11:36:44.986   2216475942.0
RECEIVE_FREQ_1 =   2022-11-16T11:36:45.936   2216475943.0
RECEIVE_FREQ_1 =   2022-11-16T11:36:46.973   2216475943.0
RECEIVE_FREQ_1 =   2022-11-16T11:36:46.973   2216475943.0
RECEIVE_FREQ_1 =   2022-11-16T11:36:48.010   2216475944.0
RECEIVE_FREQ_1 =   2022-11-16T11:36:48.960   2216475945.0
RECEIVE_FREQ_1 =   2022-11-16T11:36:49.997   2216475946.0
RECEIVE_FREQ_1 =   2022-11-16T11:36:50.947   2216475947.0
RECEIVE_FREQ_1 =   2022-11-16T11:36:51.984   2216475948.0
RECEIVE_FREQ_1 =   2022-11-16T11:36:52.934   2216475949.0
RECEIVE_FREQ_1 =   2022-11-16T11:36:53.971   2216475949.0
RECEIVE_FREQ_1 =   2022-11-16T11:36:55.008   2216475950.0
RECEIVE_FREQ_1 =   2022-11-16T11:36:55.958   2216475951.0
RECEIVE_FREQ_1 =   2022-11-16T11:36:56.995   2216475952.0
RECEIVE_FREQ_1 =   2022-11-16T11:36:57.946   2216475953.0
RECEIVE_FREQ_1 =   2022-11-16T11:36:58.982   2216475954.0
RECEIVE_FREQ_1 =   2022-11-16T11:36:59.933   2216475955.0
RECEIVE_FREQ_1 =   2022-11-16T11:37:00.970   2216475955.0
RECEIVE_FREQ_1 =   2022-11-16T11:37:02.006   2216475956.0
RECEIVE_FREQ_1 =   2022-11-16T11:37:02.957   2216475957.0
RECEIVE_FREQ_1 =   2022-11-16T11:37:03.994   2216475958.0
RECEIVE_FREQ_1 =   2022-11-16T11:37:04.944   2216475959.0
RECEIVE_FREQ_1 =   2022-11-16T11:37:05.981   2216475959.0
RECEIVE_FREQ_1 =   2022-11-16T11:37:06.931   2216475960.0
RECEIVE_FREQ_1 =   2022-11-16T11:37:07.968   2216475961.0
RECEIVE_FREQ_1 =   2022-11-16T11:37:09.005   2216475962.0
RECEIVE_FREQ_1 =   2022-11-16T11:37:09.955   2216475963.0
RECEIVE_FREQ_1 =   2022-11-16T11:37:10.992   2216475963.0
RECEIVE_FREQ_1 =   2022-11-16T11:37:11.942   2216475964.0
RECEIVE_FREQ_1 =   2022-11-16T11:37:12.979   2216475966.0
RECEIVE_FREQ_1 =   2022-11-16T11:37:13.930   2216475966.0
RECEIVE_FREQ_1 =   2022-11-16T11:37:14.966   2216475967.0
RECEIVE_FREQ_1 =   2022-11-16T11:37:16.003   2216475968.0
RECEIVE_FREQ_1 =   2022-11-16T11:37:16.954   2216475969.0
RECEIVE_FREQ_1 =   2022-11-16T11:37:17.990   2216475970.0
RECEIVE_FREQ_1 =   2022-11-16T11:37:18.941   2216475971.0
RECEIVE_FREQ_1 =   2022-11-16T11:37:19.978   2216475971.0
RECEIVE_FREQ_1 =   2022-11-16T11:37:20.928   2216475972.0
RECEIVE_FREQ_1 =   2022-11-16T11:37:21.965   2216475973.0
RECEIVE_FREQ_1 =   2022-11-16T11:37:23.002   2216475974.0
RECEIVE_FREQ_1 =   2022-11-16T11:37:23.952   2216475975.0
RECEIVE_FREQ_1 =   2022-11-16T11:37:24.989   2216475976.0
RECEIVE_FREQ_1 =   2022-11-16T11:37:25.939   2216475976.0
RECEIVE_FREQ_1 =   2022-11-16T11:37:26.976   2216475977.0
RECEIVE_FREQ_1 =   2022-11-16T11:37:28.013   2216475978.0
RECEIVE_FREQ_1 =   2022-11-16T11:37:28.963   2216475979.0
RECEIVE_FREQ_1 =   2022-11-16T11:37:30.000   2216475980.0
RECEIVE_FREQ_1 =   2022-11-16T11:37:30.950   2216475980.0
RECEIVE_FREQ_1 =   2022-11-16T11:37:31.987   2216475981.0
RECEIVE_FREQ_1 =   2022-11-16T11:37:32.938   2216475982.0
RECEIVE_FREQ_1 =   2022-11-16T11:37:33.974   2216475983.0
RECEIVE_FREQ_1 =   2022-11-16T11:37:35.011   2216475984.0
RECEIVE_FREQ_1 =   2022-11-16T11:37:35.962   2216475985.0
RECEIVE_FREQ_1 =   2022-11-16T11:37:36.998   2216475986.0
RECEIVE_FREQ_1 =   2022-11-16T11:37:37.949   2216475987.0
RECEIVE_FREQ_1 =   2022-11-16T11:37:38.986   2216475988.0
RECEIVE_FREQ_1 =   2022-11-16T11:37:39.936   2216475988.0
RECEIVE_FREQ_1 =   2022-11-16T11:37:40.973   2216475989.0
RECEIVE_FREQ_1 =   2022-11-16T11:37:42.010   2216475990.0
RECEIVE_FREQ_1 =   2022-11-16T11:37:42.960   2216475991.0
RECEIVE_FREQ_1 =   2022-11-16T11:37:43.997   2216475992.0
RECEIVE_FREQ_1 =   2022-11-16T11:37:44.947   2216475993.0
RECEIVE_FREQ_1 =   2022-11-16T11:37:45.984   2216475993.0
RECEIVE_FREQ_1 =   2022-11-16T11:37:46.934   2216475994.0
RECEIVE_FREQ_1 =   2022-11-16T11:37:47.971   2216475995.0
RECEIVE_FREQ_1 =   2022-11-16T11:37:49.008   2216475996.0
RECEIVE_FREQ_1 =   2022-11-16T11:37:49.958   2216475997.0
RECEIVE_FREQ_1 =   2022-11-16T11:37:50.995   2216475997.0
RECEIVE_FREQ_1 =   2022-11-16T11:37:51.946   2216475998.0
RECEIVE_FREQ_1 =   2022-11-16T11:37:52.982   2216475999.0
RECEIVE_FREQ_1 =   2022-11-16T11:37:53.933   2216476000.0
RECEIVE_FREQ_1 =   2022-11-16T11:37:54.970   2216476001.0
RECEIVE_FREQ_1 =   2022-11-16T11:37:56.006   2216476001.0
RECEIVE_FREQ_1 =   2022-11-16T11:37:56.957   2216476002.0
RECEIVE_FREQ_1 =   2022-11-16T11:37:57.994   2216476003.0
RECEIVE_FREQ_1 =   2022-11-16T11:37:58.944   2216476004.0
RECEIVE_FREQ_1 =   2022-11-16T11:37:59.981   2216476005.0
RECEIVE_FREQ_1 =   2022-11-16T11:38:00.931   2216476006.0
RECEIVE_FREQ_1 =   2022-11-16T11:38:01.968   2216476007.0
RECEIVE_FREQ_1 =   2022-11-16T11:38:03.005   2216476007.0
RECEIVE_FREQ_1 =   2022-11-16T11:38:03.955   2216476008.0
RECEIVE_FREQ_1 =   2022-11-16T11:38:04.992   2216476009.0
RECEIVE_FREQ_1 =   2022-11-16T11:38:05.942   2216476010.0
RECEIVE_FREQ_1 =   2022-11-16T11:38:06.979   2216476011.0
RECEIVE_FREQ_1 =   2022-11-16T11:38:07.930   2216476011.0
RECEIVE_FREQ_1 =   2022-11-16T11:38:08.966   2216476012.0
RECEIVE_FREQ_1 =   2022-11-16T11:38:10.003   2216476013.0
RECEIVE_FREQ_1 =   2022-11-16T11:38:10.954   2216476014.0
RECEIVE_FREQ_1 =   2022-11-16T11:38:11.990   2216476015.0
RECEIVE_FREQ_1 =   2022-11-16T11:38:12.941   2216476016.0
RECEIVE_FREQ_1 =   2022-11-16T11:38:13.978   2216476017.0
RECEIVE_FREQ_1 =   2022-11-16T11:38:14.928   2216476018.0
RECEIVE_FREQ_1 =   2022-11-16T11:38:15.965   2216476019.0
RECEIVE_FREQ_1 =   2022-11-16T11:38:17.002   2216476019.0
RECEIVE_FREQ_1 =   2022-11-16T11:38:17.952   2216476020.0
RECEIVE_FREQ_1 =   2022-11-16T11:38:18.989   2216476021.0
RECEIVE_FREQ_1 =   2022-11-16T11:38:19.939   2216476022.0
RECEIVE_FREQ_1 =   2022-11-16T11:38:20.976   2216476023.0
RECEIVE_FREQ_1 =   2022-11-16T11:38:22.013   2216476023.0
RECEIVE_FREQ_1 =   2022-11-16T11:38:22.963   2216476024.0
RECEIVE_FREQ_1 =   2022-11-16T11:38:24.000   2216476025.0
RECEIVE_FREQ_1 =   2022-11-16T11:38:24.950   2216476026.0
RECEIVE_FREQ_1 =   2022-11-16T11:38:25.987   2216476027.0
RECEIVE_FREQ_1 =   2022-11-16T11:38:26.938   2216476028.0
RECEIVE_FREQ_1 =   2022-11-16T11:38:27.974   2216476028.0
RECEIVE_FREQ_1 =   2022-11-16T11:38:29.011   2216476029.0
RECEIVE_FREQ_1 =   2022-11-16T11:38:29.962   2216476030.0
RECEIVE_FREQ_1 =   2022-11-16T11:38:30.998   2216476031.0
RECEIVE_FREQ_1 =   2022-11-16T11:38:31.949   2216476032.0
RECEIVE_FREQ_1 =   2022-11-16T11:38:32.986   2216476033.0
RECEIVE_FREQ_1 =   2022-11-16T11:38:33.936   2216476034.0
RECEIVE_FREQ_1 =   2022-11-16T11:38:34.973   2216476034.0
RECEIVE_FREQ_1 =   2022-11-16T11:38:36.010   2216476035.0
RECEIVE_FREQ_1 =   2022-11-16T11:38:36.960   2216476036.0
RECEIVE_FREQ_1 =   2022-11-16T11:38:37.997   2216476037.0
RECEIVE_FREQ_1 =   2022-11-16T11:38:38.947   2216476037.0
RECEIVE_FREQ_1 =   2022-11-16T11:38:39.984   2216476038.0
RECEIVE_FREQ_1 =   2022-11-16T11:38:40.934   2216476039.0
RECEIVE_FREQ_1 =   2022-11-16T11:38:41.971   2216476040.0
RECEIVE_FREQ_1 =   2022-11-16T11:38:43.008   2216476041.0
RECEIVE_FREQ_1 =   2022-11-16T11:38:43.958   2216476042.0
RECEIVE_FREQ_1 =   2022-11-16T11:38:44.995   2216476043.0
RECEIVE_FREQ_1 =   2022-11-16T11:38:45.946   2216476043.0
RECEIVE_FREQ_1 =   2022-11-16T11:38:46.982   2216476044.0
RECEIVE_FREQ_1 =   2022-11-16T11:38:47.933   2216476045.0
RECEIVE_FREQ_1 =   2022-11-16T11:38:48.970   2216476046.0
RECEIVE_FREQ_1 =   2022-11-16T11:38:50.006   2216476047.0
RECEIVE_FREQ_1 =   2022-11-16T11:38:50.957   2216476047.0
RECEIVE_FREQ_1 =   2022-11-16T11:38:51.994   2216476048.0
RECEIVE_FREQ_1 =   2022-11-16T11:38:52.944   2216476049.0
RECEIVE_FREQ_1 =   2022-11-16T11:38:53.981   2216476050.0
RECEIVE_FREQ_1 =   2022-11-16T11:38:54.931   2216476051.0
RECEIVE_FREQ_1 =   2022-11-16T11:38:55.968   2216476052.0
RECEIVE_FREQ_1 =   2022-11-16T11:38:57.005   2216476053.0
RECEIVE_FREQ_1 =   2022-11-16T11:38:57.955   2216476053.0
RECEIVE_FREQ_1 =   2022-11-16T11:38:58.992   2216476054.0
RECEIVE_FREQ_1 =   2022-11-16T11:38:59.942   2216476055.0
RECEIVE_FREQ_1 =   2022-11-16T11:39:00.979   2216476056.0
RECEIVE_FREQ_1 =   2022-11-16T11:39:02.016   2216476056.0
RECEIVE_FREQ_1 =   2022-11-16T11:39:02.966   2216476057.0
RECEIVE_FREQ_1 =   2022-11-16T11:39:04.003   2216476058.0
RECEIVE_FREQ_1 =   2022-11-16T11:39:04.954   2216476059.0
RECEIVE_FREQ_1 =   2022-11-16T11:39:05.990   2216476060.0
RECEIVE_FREQ_1 =   2022-11-16T11:39:06.941   2216476061.0
RECEIVE_FREQ_1 =   2022-11-16T11:39:07.978   2216476061.0
RECEIVE_FREQ_1 =   2022-11-16T11:39:09.014   2216476062.0
RECEIVE_FREQ_1 =   2022-11-16T11:39:09.965   2216476063.0
RECEIVE_FREQ_1 =   2022-11-16T11:39:11.002   2216476064.0
RECEIVE_FREQ_1 =   2022-11-16T11:39:11.952   2216476065.0
RECEIVE_FREQ_1 =   2022-11-16T11:39:12.989   2216476065.0
RECEIVE_FREQ_1 =   2022-11-16T11:39:13.939   2216476066.0
RECEIVE_FREQ_1 =   2022-11-16T11:39:14.976   2216476067.0
RECEIVE_FREQ_1 =   2022-11-16T11:39:16.013   2216476068.0
RECEIVE_FREQ_1 =   2022-11-16T11:39:16.963   2216476069.0
RECEIVE_FREQ_1 =   2022-11-16T11:39:18.000   2216476070.0
RECEIVE_FREQ_1 =   2022-11-16T11:39:18.950   2216476070.0
RECEIVE_FREQ_1 =   2022-11-16T11:39:19.987   2216476071.0
RECEIVE_FREQ_1 =   2022-11-16T11:39:20.938   2216476072.0
RECEIVE_FREQ_1 =   2022-11-16T11:39:21.974   2216476073.0
RECEIVE_FREQ_1 =   2022-11-16T11:39:23.011   2216476074.0
RECEIVE_FREQ_1 =   2022-11-16T11:39:23.962   2216476074.0
RECEIVE_FREQ_1 =   2022-11-16T11:39:24.998   2216476075.0
RECEIVE_FREQ_1 =   2022-11-16T11:39:25.949   2216476076.0
RECEIVE_FREQ_1 =   2022-11-16T11:39:26.986   2216476077.0
RECEIVE_FREQ_1 =   2022-11-16T11:39:28.022   2216476078.0
RECEIVE_FREQ_1 =   2022-11-16T11:39:28.973   2216476079.0
RECEIVE_FREQ_1 =   2022-11-16T11:39:30.010   2216476080.0
RECEIVE_FREQ_1 =   2022-11-16T11:39:30.960   2216476080.0
RECEIVE_FREQ_1 =   2022-11-16T11:39:31.997   2216476081.0
RECEIVE_FREQ_1 =   2022-11-16T11:39:32.947   2216476082.0
RECEIVE_FREQ_1 =   2022-11-16T11:39:33.984   2216476082.0
RECEIVE_FREQ_1 =   2022-11-16T11:39:34.934   2216476083.0
RECEIVE_FREQ_1 =   2022-11-16T11:39:35.971   2216476084.0
RECEIVE_FREQ_1 =   2022-11-16T11:39:37.008   2216476085.0
RECEIVE_FREQ_1 =   2022-11-16T11:39:37.958   2216476086.0
RECEIVE_FREQ_1 =   2022-11-16T11:39:38.995   2216476087.0
RECEIVE_FREQ_1 =   2022-11-16T11:39:39.946   2216476088.0
RECEIVE_FREQ_1 =   2022-11-16T11:39:40.982   2216476089.0
RECEIVE_FREQ_1 =   2022-11-16T11:39:41.933   2216476089.0
RECEIVE_FREQ_1 =   2022-11-16T11:39:42.970   2216476090.0
RECEIVE_FREQ_1 =   2022-11-16T11:39:44.006   2216476091.0
RECEIVE_FREQ_1 =   2022-11-16T11:39:44.957   2216476092.0
RECEIVE_FREQ_1 =   2022-11-16T11:39:45.994   2216476092.0
RECEIVE_FREQ_1 =   2022-11-16T11:39:46.944   2216476093.0
RECEIVE_FREQ_1 =   2022-11-16T11:39:47.981   2216476094.0
RECEIVE_FREQ_1 =   2022-11-16T11:39:48.931   2216476095.0
RECEIVE_FREQ_1 =   2022-11-16T11:39:49.968   2216476096.0
RECEIVE_FREQ_1 =   2022-11-16T11:39:51.005   2216476097.0
RECEIVE_FREQ_1 =   2022-11-16T11:39:51.955   2216476097.0
RECEIVE_FREQ_1 =   2022-11-16T11:39:52.992   2216476098.0
RECEIVE_FREQ_1 =   2022-11-16T11:39:53.942   2216476099.0
RECEIVE_FREQ_1 =   2022-11-16T11:39:54.979   2216476100.0
RECEIVE_FREQ_1 =   2022-11-16T11:39:55.930   2216476101.0
RECEIVE_FREQ_1 =   2022-11-16T11:39:56.966   2216476102.0
RECEIVE_FREQ_1 =   2022-11-16T11:39:58.003   2216476102.0
RECEIVE_FREQ_1 =   2022-11-16T11:39:58.954   2216476103.0
RECEIVE_FREQ_1 =   2022-11-16T11:39:59.990   2216476104.0
RECEIVE_FREQ_1 =   2022-11-16T11:40:00.941   2216476105.0
RECEIVE_FREQ_1 =   2022-11-16T11:40:01.978   2216476106.0
RECEIVE_FREQ_1 =   2022-11-16T11:40:03.014   2216476106.0
RECEIVE_FREQ_1 =   2022-11-16T11:40:03.965   2216476107.0
RECEIVE_FREQ_1 =   2022-11-16T11:40:05.002   2216476108.0
RECEIVE_FREQ_1 =   2022-11-16T11:40:05.952   2216476109.0
RECEIVE_FREQ_1 =   2022-11-16T11:40:06.989   2216476109.0
RECEIVE_FREQ_1 =   2022-11-16T11:40:07.939   2216476110.0
RECEIVE_FREQ_1 =   2022-11-16T11:40:08.976   2216476111.0
RECEIVE_FREQ_1 =   2022-11-16T11:40:10.013   2216476112.0
RECEIVE_FREQ_1 =   2022-11-16T11:40:10.963   2216476113.0
RECEIVE_FREQ_1 =   2022-11-16T11:40:12.000   2216476114.0
RECEIVE_FREQ_1 =   2022-11-16T11:40:12.950   2216476114.0
RECEIVE_FREQ_1 =   2022-11-16T11:40:13.987   2216476115.0
RECEIVE_FREQ_1 =   2022-11-16T11:40:14.938   2216476116.0
RECEIVE_FREQ_1 =   2022-11-16T11:40:15.974   2216476117.0
RECEIVE_FREQ_1 =   2022-11-16T11:40:17.011   2216476118.0
RECEIVE_FREQ_1 =   2022-11-16T11:40:17.962   2216476118.0
RECEIVE_FREQ_1 =   2022-11-16T11:40:18.998   2216476119.0
RECEIVE_FREQ_1 =   2022-11-16T11:40:19.949   2216476120.0
RECEIVE_FREQ_1 =   2022-11-16T11:40:20.986   2216476121.0
RECEIVE_FREQ_1 =   2022-11-16T11:40:21.936   2216476122.0
RECEIVE_FREQ_1 =   2022-11-16T11:40:22.973   2216476122.0
RECEIVE_FREQ_1 =   2022-11-16T11:40:24.010   2216476123.0
RECEIVE_FREQ_1 =   2022-11-16T11:40:24.960   2216476124.0
RECEIVE_FREQ_1 =   2022-11-16T11:40:25.997   2216476125.0
RECEIVE_FREQ_1 =   2022-11-16T11:40:26.947   2216476126.0
RECEIVE_FREQ_1 =   2022-11-16T11:40:27.984   2216476126.0
RECEIVE_FREQ_1 =   2022-11-16T11:40:28.934   2216476127.0
RECEIVE_FREQ_1 =   2022-11-16T11:40:29.971   2216476128.0
RECEIVE_FREQ_1 =   2022-11-16T11:40:31.008   2216476129.0
RECEIVE_FREQ_1 =   2022-11-16T11:40:31.958   2216476129.0
RECEIVE_FREQ_1 =   2022-11-16T11:40:32.995   2216476130.0
RECEIVE_FREQ_1 =   2022-11-16T11:40:33.946   2216476131.0
RECEIVE_FREQ_1 =   2022-11-16T11:40:34.982   2216476132.0
RECEIVE_FREQ_1 =   2022-11-16T11:40:35.933   2216476133.0
RECEIVE_FREQ_1 =   2022-11-16T11:40:36.970   2216476134.0
RECEIVE_FREQ_1 =   2022-11-16T11:40:38.006   2216476134.0
RECEIVE_FREQ_1 =   2022-11-16T11:40:38.957   2216476135.0
RECEIVE_FREQ_1 =   2022-11-16T11:40:39.994   2216476136.0
RECEIVE_FREQ_1 =   2022-11-16T11:40:40.944   2216476137.0
RECEIVE_FREQ_1 =   2022-11-16T11:40:41.981   2216476138.0
RECEIVE_FREQ_1 =   2022-11-16T11:40:42.931   2216476139.0
RECEIVE_FREQ_1 =   2022-11-16T11:40:43.968   2216476139.0
RECEIVE_FREQ_1 =   2022-11-16T11:40:45.005   2216476140.0
RECEIVE_FREQ_1 =   2022-11-16T11:40:45.955   2216476141.0
RECEIVE_FREQ_1 =   2022-11-16T11:40:46.992   2216476142.0
RECEIVE_FREQ_1 =   2022-11-16T11:40:47.942   2216476143.0
RECEIVE_FREQ_1 =   2022-11-16T11:40:48.979   2216476143.0
RECEIVE_FREQ_1 =   2022-11-16T11:40:50.016   2216476144.0
RECEIVE_FREQ_1 =   2022-11-16T11:40:50.966   2216476145.0
RECEIVE_FREQ_1 =   2022-11-16T11:40:52.003   2216476146.0
RECEIVE_FREQ_1 =   2022-11-16T11:40:52.954   2216476146.0
RECEIVE_FREQ_1 =   2022-11-16T11:40:53.990   2216476147.0
RECEIVE_FREQ_1 =   2022-11-16T11:40:54.941   2216476148.0
RECEIVE_FREQ_1 =   2022-11-16T11:40:55.978   2216476149.0
RECEIVE_FREQ_1 =   2022-11-16T11:40:57.014   2216476150.0
RECEIVE_FREQ_1 =   2022-11-16T11:40:57.965   2216476151.0
RECEIVE_FREQ_1 =   2022-11-16T11:40:59.002   2216476151.0
RECEIVE_FREQ_1 =   2022-11-16T11:40:59.952   2216476152.0
RECEIVE_FREQ_1 =   2022-11-16T11:41:00.989   2216476153.0
RECEIVE_FREQ_1 =   2022-11-16T11:41:01.939   2216476153.0
RECEIVE_FREQ_1 =   2022-11-16T11:41:02.976   2216476155.0
RECEIVE_FREQ_1 =   2022-11-16T11:41:04.013   2216476155.0
RECEIVE_FREQ_1 =   2022-11-16T11:41:04.963   2216476156.0
RECEIVE_FREQ_1 =   2022-11-16T11:41:06.000   2216476157.0
RECEIVE_FREQ_1 =   2022-11-16T11:41:06.950   2216476158.0
RECEIVE_FREQ_1 =   2022-11-16T11:41:07.987   2216476159.0
RECEIVE_FREQ_1 =   2022-11-16T11:41:08.938   2216476159.0
RECEIVE_FREQ_1 =   2022-11-16T11:41:09.974   2216476160.0
RECEIVE_FREQ_1 =   2022-11-16T11:41:11.011   2216476161.0
RECEIVE_FREQ_1 =   2022-11-16T11:41:11.962   2216476161.0
RECEIVE_FREQ_1 =   2022-11-16T11:41:12.998   2216476162.0
RECEIVE_FREQ_1 =   2022-11-16T11:41:13.949   2216476163.0
RECEIVE_FREQ_1 =   2022-11-16T11:41:14.986   2216476164.0
RECEIVE_FREQ_1 =   2022-11-16T11:41:15.936   2216476165.0
RECEIVE_FREQ_1 =   2022-11-16T11:41:16.973   2216476166.0
RECEIVE_FREQ_1 =   2022-11-16T11:41:18.010   2216476167.0
RECEIVE_FREQ_1 =   2022-11-16T11:41:18.960   2216476168.0
RECEIVE_FREQ_1 =   2022-11-16T11:41:19.997   2216476168.0
RECEIVE_FREQ_1 =   2022-11-16T11:41:20.947   2216476169.0
RECEIVE_FREQ_1 =   2022-11-16T11:41:21.984   2216476170.0
RECEIVE_FREQ_1 =   2022-11-16T11:41:23.021   2216476171.0
RECEIVE_FREQ_1 =   2022-11-16T11:41:23.971   2216476172.0
RECEIVE_FREQ_1 =   2022-11-16T11:41:25.008   2216476172.0
RECEIVE_FREQ_1 =   2022-11-16T11:41:25.958   2216476173.0
RECEIVE_FREQ_1 =   2022-11-16T11:41:26.995   2216476174.0
RECEIVE_FREQ_1 =   2022-11-16T11:41:27.946   2216476175.0
RECEIVE_FREQ_1 =   2022-11-16T11:41:28.982   2216476176.0
RECEIVE_FREQ_1 =   2022-11-16T11:41:29.933   2216476176.0
RECEIVE_FREQ_1 =   2022-11-16T11:41:30.970   2216476178.0
RECEIVE_FREQ_1 =   2022-11-16T11:41:32.006   2216476178.0
RECEIVE_FREQ_1 =   2022-11-16T11:41:32.957   2216476179.0
RECEIVE_FREQ_1 =   2022-11-16T11:41:33.994   2216476180.0
RECEIVE_FREQ_1 =   2022-11-16T11:41:34.944   2216476181.0
RECEIVE_FREQ_1 =   2022-11-16T11:41:35.981   2216476182.0
RECEIVE_FREQ_1 =   2022-11-16T11:41:36.931   2216476183.0
RECEIVE_FREQ_1 =   2022-11-16T11:41:37.968   2216476184.0
RECEIVE_FREQ_1 =   2022-11-16T11:41:39.005   2216476184.0
RECEIVE_FREQ_1 =   2022-11-16T11:41:39.955   2216476185.0
RECEIVE_FREQ_1 =   2022-11-16T11:41:40.992   2216476186.0
RECEIVE_FREQ_1 =   2022-11-16T11:41:41.942   2216476187.0
RECEIVE_FREQ_1 =   2022-11-16T11:41:42.979   2216476188.0
RECEIVE_FREQ_1 =   2022-11-16T11:41:43.930   2216476188.0
RECEIVE_FREQ_1 =   2022-11-16T11:41:44.966   2216476189.0
RECEIVE_FREQ_1 =   2022-11-16T11:41:46.003   2216476190.0
RECEIVE_FREQ_1 =   2022-11-16T11:41:46.954   2216476191.0
RECEIVE_FREQ_1 =   2022-11-16T11:41:47.990   2216476192.0
RECEIVE_FREQ_1 =   2022-11-16T11:41:48.941   2216476193.0
RECEIVE_FREQ_1 =   2022-11-16T11:41:49.978   2216476193.0
RECEIVE_FREQ_1 =   2022-11-16T11:41:50.928   2216476194.0
RECEIVE_FREQ_1 =   2022-11-16T11:41:51.965   2216476195.0
RECEIVE_FREQ_1 =   2022-11-16T11:41:53.002   2216476196.0
RECEIVE_FREQ_1 =   2022-11-16T11:41:53.952   2216476197.0
RECEIVE_FREQ_1 =   2022-11-16T11:41:54.989   2216476198.0
RECEIVE_FREQ_1 =   2022-11-16T11:41:55.939   2216476199.0
RECEIVE_FREQ_1 =   2022-11-16T11:41:56.976   2216476199.0
RECEIVE_FREQ_1 =   2022-11-16T11:41:58.013   2216476200.0
RECEIVE_FREQ_1 =   2022-11-16T11:41:58.963   2216476201.0
RECEIVE_FREQ_1 =   2022-11-16T11:42:00.000   2216476202.0
RECEIVE_FREQ_1 =   2022-11-16T11:42:00.950   2216476202.0
RECEIVE_FREQ_1 =   2022-11-16T11:42:01.987   2216476203.0
RECEIVE_FREQ_1 =   2022-11-16T11:42:02.938   2216476204.0
RECEIVE_FREQ_1 =   2022-11-16T11:42:03.974   2216476205.0
RECEIVE_FREQ_1 =   2022-11-16T11:42:05.011   2216476206.0
RECEIVE_FREQ_1 =   2022-11-16T11:42:05.962   2216476207.0
RECEIVE_FREQ_1 =   2022-11-16T11:42:06.998   2216476207.0
RECEIVE_FREQ_1 =   2022-11-16T11:42:07.949   2216476208.0
RECEIVE_FREQ_1 =   2022-11-16T11:42:08.986   2216476209.0
RECEIVE_FREQ_1 =   2022-11-16T11:42:09.936   2216476210.0
RECEIVE_FREQ_1 =   2022-11-16T11:42:10.973   2216476211.0
RECEIVE_FREQ_1 =   2022-11-16T11:42:12.010   2216476211.0
RECEIVE_FREQ_1 =   2022-11-16T11:42:12.960   2216476212.0
RECEIVE_FREQ_1 =   2022-11-16T11:42:13.997   2216476213.0
RECEIVE_FREQ_1 =   2022-11-16T11:42:14.947   2216476214.0
RECEIVE_FREQ_1 =   2022-11-16T11:42:15.984   2216476215.0
RECEIVE_FREQ_1 =   2022-11-16T11:42:16.934   2216476216.0
RECEIVE_FREQ_1 =   2022-11-16T11:42:17.971   2216476217.0
RECEIVE_FREQ_1 =   2022-11-16T11:42:19.008   2216476218.0
RECEIVE_FREQ_1 =   2022-11-16T11:42:19.958   2216476218.0
RECEIVE_FREQ_1 =   2022-11-16T11:42:20.995   2216476219.0
RECEIVE_FREQ_1 =   2022-11-16T11:42:21.946   2216476220.0
RECEIVE_FREQ_1 =   2022-11-16T11:42:22.982   2216476221.0
RECEIVE_FREQ_1 =   2022-11-16T11:42:23.933   2216476221.0
RECEIVE_FREQ_1 =   2022-11-16T11:42:24.970   2216476222.0
RECEIVE_FREQ_1 =   2022-11-16T11:42:26.006   2216476223.0
RECEIVE_FREQ_1 =   2022-11-16T11:42:26.957   2216476224.0
RECEIVE_FREQ_1 =   2022-11-16T11:42:27.994   2216476225.0
RECEIVE_FREQ_1 =   2022-11-16T11:42:28.944   2216476226.0
RECEIVE_FREQ_1 =   2022-11-16T11:42:29.981   2216476226.0
RECEIVE_FREQ_1 =   2022-11-16T11:42:30.931   2216476227.0
RECEIVE_FREQ_1 =   2022-11-16T11:42:31.968   2216476228.0
RECEIVE_FREQ_1 =   2022-11-16T11:42:33.005   2216476229.0
RECEIVE_FREQ_1 =   2022-11-16T11:42:33.955   2216476230.0
RECEIVE_FREQ_1 =   2022-11-16T11:42:34.992   2216476231.0
RECEIVE_FREQ_1 =   2022-11-16T11:42:35.942   2216476232.0
RECEIVE_FREQ_1 =   2022-11-16T11:42:36.979   2216476232.0
RECEIVE_FREQ_1 =   2022-11-16T11:42:37.930   2216476233.0
RECEIVE_FREQ_1 =   2022-11-16T11:42:38.966   2216476234.0
RECEIVE_FREQ_1 =   2022-11-16T11:42:40.003   2216476235.0
RECEIVE_FREQ_1 =   2022-11-16T11:42:40.954   2216476236.0
RECEIVE_FREQ_1 =   2022-11-16T11:42:41.990   2216476236.0
RECEIVE_FREQ_1 =   2022-11-16T11:42:42.941   2216476237.0
RECEIVE_FREQ_1 =   2022-11-16T11:42:43.978   2216476238.0
RECEIVE_FREQ_1 =   2022-11-16T11:42:45.014   2216476239.0
RECEIVE_FREQ_1 =   2022-11-16T11:42:45.965   2216476239.0
RECEIVE_FREQ_1 =   2022-11-16T11:42:47.002   2216476240.0
RECEIVE_FREQ_1 =   2022-11-16T11:42:47.952   2216476241.0
RECEIVE_FREQ_1 =   2022-11-16T11:42:48.989   2216476242.0
RECEIVE_FREQ_1 =   2022-11-16T11:42:49.939   2216476243.0
RECEIVE_FREQ_1 =   2022-11-16T11:42:50.976   2216476244.0
RECEIVE_FREQ_1 =   2022-11-16T11:42:52.013   2216476244.0
RECEIVE_FREQ_1 =   2022-11-16T11:42:52.963   2216476245.0
RECEIVE_FREQ_1 =   2022-11-16T11:42:54.000   2216476246.0
RECEIVE_FREQ_1 =   2022-11-16T11:42:54.950   2216476247.0
RECEIVE_FREQ_1 =   2022-11-16T11:42:55.987   2216476248.0
RECEIVE_FREQ_1 =   2022-11-16T11:42:56.938   2216476249.0
RECEIVE_FREQ_1 =   2022-11-16T11:42:57.974   2216476250.0
RECEIVE_FREQ_1 =   2022-11-16T11:42:59.011   2216476250.0
RECEIVE_FREQ_1 =   2022-11-16T11:42:59.962   2216476251.0
RECEIVE_FREQ_1 =   2022-11-16T11:43:00.998   2216476252.0
RECEIVE_FREQ_1 =   2022-11-16T11:43:01.949   2216476253.0
RECEIVE_FREQ_1 =   2022-11-16T11:43:02.986   2216476254.0
RECEIVE_FREQ_1 =   2022-11-16T11:43:03.936   2216476254.0
RECEIVE_FREQ_1 =   2022-11-16T11:43:04.973   2216476255.0
RECEIVE_FREQ_1 =   2022-11-16T11:43:06.010   2216476256.0
RECEIVE_FREQ_1 =   2022-11-16T11:43:06.960   2216476256.0
RECEIVE_FREQ_1 =   2022-11-16T11:43:07.997   2216476258.0
RECEIVE_FREQ_1 =   2022-11-16T11:43:08.947   2216476259.0
RECEIVE_FREQ_1 =   2022-11-16T11:43:09.984   2216476259.0
RECEIVE_FREQ_1 =   2022-11-16T11:43:10.934   2216476260.0
RECEIVE_FREQ_1 =   2022-11-16T11:43:11.971   2216476261.0
RECEIVE_FREQ_1 =   2022-11-16T11:43:13.008   2216476262.0
RECEIVE_FREQ_1 =   2022-11-16T11:43:13.958   2216476263.0
RECEIVE_FREQ_1 =   2022-11-16T11:43:14.995   2216476263.0
RECEIVE_FREQ_1 =   2022-11-16T11:43:15.946   2216476264.0
RECEIVE_FREQ_1 =   2022-11-16T11:43:16.982   2216476265.0
RECEIVE_FREQ_1 =   2022-11-16T11:43:17.933   2216476266.0
RECEIVE_FREQ_1 =   2022-11-16T11:43:18.970   2216476266.0
RECEIVE_FREQ_1 =   2022-11-16T11:43:20.006   2216476267.0
RECEIVE_FREQ_1 =   2022-11-16T11:43:20.957   2216476268.0
RECEIVE_FREQ_1 =   2022-11-16T11:43:21.994   2216476269.0
RECEIVE_FREQ_1 =   2022-11-16T11:43:22.944   2216476270.0
RECEIVE_FREQ_1 =   2022-11-16T11:43:23.981   2216476271.0
RECEIVE_FREQ_1 =   2022-11-16T11:43:25.018   2216476271.0
RECEIVE_FREQ_1 =   2022-11-16T11:43:25.968   2216476272.0
RECEIVE_FREQ_1 =   2022-11-16T11:43:27.005   2216476273.0
RECEIVE_FREQ_1 =   2022-11-16T11:43:27.955   2216476274.0
RECEIVE_FREQ_1 =   2022-11-16T11:43:28.992   2216476275.0
RECEIVE_FREQ_1 =   2022-11-16T11:43:29.942   2216476275.0
RECEIVE_FREQ_1 =   2022-11-16T11:43:30.979   2216476277.0
RECEIVE_FREQ_1 =   2022-11-16T11:43:31.930   2216476277.0
RECEIVE_FREQ_1 =   2022-11-16T11:43:32.966   2216476278.0
RECEIVE_FREQ_1 =   2022-11-16T11:43:34.003   2216476279.0
RECEIVE_FREQ_1 =   2022-11-16T11:43:34.954   2216476280.0
RECEIVE_FREQ_1 =   2022-11-16T11:43:35.990   2216476280.0
RECEIVE_FREQ_1 =   2022-11-16T11:43:36.941   2216476281.0
RECEIVE_FREQ_1 =   2022-11-16T11:43:37.978   2216476282.0
RECEIVE_FREQ_1 =   2022-11-16T11:43:38.928   2216476283.0
RECEIVE_FREQ_1 =   2022-11-16T11:43:39.965   2216476284.0
RECEIVE_FREQ_1 =   2022-11-16T11:43:41.002   2216476284.0
RECEIVE_FREQ_1 =   2022-11-16T11:43:41.952   2216476285.0
RECEIVE_FREQ_1 =   2022-11-16T11:43:42.989   2216476286.0
RECEIVE_FREQ_1 =   2022-11-16T11:43:43.939   2216476287.0
RECEIVE_FREQ_1 =   2022-11-16T11:43:44.976   2216476288.0
RECEIVE_FREQ_1 =   2022-11-16T11:43:46.013   2216476288.0
RECEIVE_FREQ_1 =   2022-11-16T11:43:46.963   2216476289.0
RECEIVE_FREQ_1 =   2022-11-16T11:43:48.000   2216476290.0
RECEIVE_FREQ_1 =   2022-11-16T11:43:48.950   2216476291.0
RECEIVE_FREQ_1 =   2022-11-16T11:43:49.987   2216476291.0
RECEIVE_FREQ_1 =   2022-11-16T11:43:50.938   2216476293.0
RECEIVE_FREQ_1 =   2022-11-16T11:43:51.974   2216476293.0
RECEIVE_FREQ_1 =   2022-11-16T11:43:53.011   2216476294.0
RECEIVE_FREQ_1 =   2022-11-16T11:43:53.962   2216476295.0
RECEIVE_FREQ_1 =   2022-11-16T11:43:54.998   2216476295.0
RECEIVE_FREQ_1 =   2022-11-16T11:43:55.949   2216476296.0
RECEIVE_FREQ_1 =   2022-11-16T11:43:56.986   2216476297.0
RECEIVE_FREQ_1 =   2022-11-16T11:43:57.936   2216476298.0
RECEIVE_FREQ_1 =   2022-11-16T11:43:58.973   2216476299.0
RECEIVE_FREQ_1 =   2022-11-16T11:44:00.010   2216476300.0
RECEIVE_FREQ_1 =   2022-11-16T11:44:01.997   2216476301.0
RECEIVE_FREQ_1 =   2022-11-16T11:44:02.947   2216476302.0
RECEIVE_FREQ_1 =   2022-11-16T11:44:03.984   2216476303.0
RECEIVE_FREQ_1 =   2022-11-16T11:44:04.934   2216476303.0
RECEIVE_FREQ_1 =   2022-11-16T11:44:05.971   2216476305.0
RECEIVE_FREQ_1 =   2022-11-16T11:44:07.008   2216476305.0
RECEIVE_FREQ_1 =   2022-11-16T11:44:07.958   2216476306.0
RECEIVE_FREQ_1 =   2022-11-16T11:44:08.995   2216476307.0
RECEIVE_FREQ_1 =   2022-11-16T11:44:09.946   2216476307.0
RECEIVE_FREQ_1 =   2022-11-16T11:44:10.982   2216476308.0
RECEIVE_FREQ_1 =   2022-11-16T11:44:11.933   2216476309.0
RECEIVE_FREQ_1 =   2022-11-16T11:44:12.970   2216476310.0
RECEIVE_FREQ_1 =   2022-11-16T11:44:14.006   2216476311.0
RECEIVE_FREQ_1 =   2022-11-16T11:44:14.957   2216476312.0
RECEIVE_FREQ_1 =   2022-11-16T11:44:15.994   2216476312.0
RECEIVE_FREQ_1 =   2022-11-16T11:44:16.944   2216476313.0
RECEIVE_FREQ_1 =   2022-11-16T11:44:17.981   2216476314.0
RECEIVE_FREQ_1 =   2022-11-16T11:44:18.931   2216476315.0
RECEIVE_FREQ_1 =   2022-11-16T11:44:19.968   2216476315.0
RECEIVE_FREQ_1 =   2022-11-16T11:44:21.005   2216476317.0
RECEIVE_FREQ_1 =   2022-11-16T11:44:21.955   2216476317.0
RECEIVE_FREQ_1 =   2022-11-16T11:44:22.992   2216476318.0
RECEIVE_FREQ_1 =   2022-11-16T11:44:23.942   2216476319.0
RECEIVE_FREQ_1 =   2022-11-16T11:44:24.979   2216476320.0
RECEIVE_FREQ_1 =   2022-11-16T11:44:26.016   2216476321.0
RECEIVE_FREQ_1 =   2022-11-16T11:44:26.966   2216476321.0
RECEIVE_FREQ_1 =   2022-11-16T11:44:28.003   2216476322.0
RECEIVE_FREQ_1 =   2022-11-16T11:44:28.954   2216476323.0
RECEIVE_FREQ_1 =   2022-11-16T11:44:29.990   2216476323.0
RECEIVE_FREQ_1 =   2022-11-16T11:44:30.941   2216476325.0
RECEIVE_FREQ_1 =   2022-11-16T11:44:31.978   2216476325.0
RECEIVE_FREQ_1 =   2022-11-16T11:44:32.928   2216476326.0
RECEIVE_FREQ_1 =   2022-11-16T11:44:33.965   2216476327.0
RECEIVE_FREQ_1 =   2022-11-16T11:44:35.002   2216476327.0
RECEIVE_FREQ_1 =   2022-11-16T11:44:35.952   2216476328.0
RECEIVE_FREQ_1 =   2022-11-16T11:44:36.989   2216476329.0
RECEIVE_FREQ_1 =   2022-11-16T11:44:37.939   2216476330.0
RECEIVE_FREQ_1 =   2022-11-16T11:44:38.976   2216476331.0
RECEIVE_FREQ_1 =   2022-11-16T11:44:40.013   2216476332.0
RECEIVE_FREQ_1 =   2022-11-16T11:44:40.963   2216476332.0
RECEIVE_FREQ_1 =   2022-11-16T11:44:42.000   2216476333.0
RECEIVE_FREQ_1 =   2022-11-16T11:44:42.950   2216476334.0
RECEIVE_FREQ_1 =   2022-11-16T11:44:43.987   2216476335.0
RECEIVE_FREQ_1 =   2022-11-16T11:44:44.938   2216476336.0
RECEIVE_FREQ_1 =   2022-11-16T11:44:45.974   2216476336.0
RECEIVE_FREQ_1 =   2022-11-16T11:44:47.011   2216476337.0
RECEIVE_FREQ_1 =   2022-11-16T11:44:47.962   2216476338.0
RECEIVE_FREQ_1 =   2022-11-16T11:44:48.998   2216476339.0
RECEIVE_FREQ_1 =   2022-11-16T11:44:49.949   2216476340.0
RECEIVE_FREQ_1 =   2022-11-16T11:44:50.986   2216476340.0
RECEIVE_FREQ_1 =   2022-11-16T11:44:51.936   2216476341.0
RECEIVE_FREQ_1 =   2022-11-16T11:44:52.973   2216476342.0
RECEIVE_FREQ_1 =   2022-11-16T11:44:54.960   2216476343.0
RECEIVE_FREQ_1 =   2022-11-16T11:44:55.997   2216476344.0
RECEIVE_FREQ_1 =   2022-11-16T11:44:56.947   2216476345.0
RECEIVE_FREQ_1 =   2022-11-16T11:44:57.984   2216476346.0
RECEIVE_FREQ_1 =   2022-11-16T11:44:58.934   2216476347.0
RECEIVE_FREQ_1 =   2022-11-16T11:44:59.971   2216476348.0
RECEIVE_FREQ_1 =   2022-11-16T11:45:01.008   2216476348.0
RECEIVE_FREQ_1 =   2022-11-16T11:45:01.958   2216476349.0
RECEIVE_FREQ_1 =   2022-11-16T11:45:02.995   2216476350.0
RECEIVE_FREQ_1 =   2022-11-16T11:45:03.946   2216476351.0
RECEIVE_FREQ_1 =   2022-11-16T11:45:05.933   2216476352.0
RECEIVE_FREQ_1 =   2022-11-16T11:45:08.006   2216476354.0
RECEIVE_FREQ_1 =   2022-11-16T11:45:08.957   2216476354.0
RECEIVE_FREQ_1 =   2022-11-16T11:45:09.994   2216476355.0
RECEIVE_FREQ_1 =   2022-11-16T11:45:10.944   2216476356.0
RECEIVE_FREQ_1 =   2022-11-16T11:45:11.981   2216476357.0
RECEIVE_FREQ_1 =   2022-11-16T11:45:12.931   2216476358.0
RECEIVE_FREQ_1 =   2022-11-16T11:45:13.968   2216476358.0
RECEIVE_FREQ_1 =   2022-11-16T11:45:15.005   2216476359.0
RECEIVE_FREQ_1 =   2022-11-16T11:45:15.955   2216476360.0
RECEIVE_FREQ_1 =   2022-11-16T11:45:16.992   2216476361.0
RECEIVE_FREQ_1 =   2022-11-16T11:45:18.979   2216476362.0
RECEIVE_FREQ_1 =   2022-11-16T11:45:19.930   2216476363.0
RECEIVE_FREQ_1 =   2022-11-16T11:45:20.966   2216476364.0
RECEIVE_FREQ_1 =   2022-11-16T11:45:22.003   2216476365.0
RECEIVE_FREQ_1 =   2022-11-16T11:45:22.954   2216476366.0
RECEIVE_FREQ_1 =   2022-11-16T11:45:23.990   2216476366.0
RECEIVE_FREQ_1 =   2022-11-16T11:45:24.941   2216476367.0
RECEIVE_FREQ_1 =   2022-11-16T11:45:25.978   2216476368.0
RECEIVE_FREQ_1 =   2022-11-16T11:45:27.014   2216476369.0
RECEIVE_FREQ_1 =   2022-11-16T11:45:27.965   2216476370.0
RECEIVE_FREQ_1 =   2022-11-16T11:45:29.002   2216476371.0
RECEIVE_FREQ_1 =   2022-11-16T11:45:29.952   2216476371.0
RECEIVE_FREQ_1 =   2022-11-16T11:45:31.939   2216476373.0
RECEIVE_FREQ_1 =   2022-11-16T11:45:32.976   2216476373.0
RECEIVE_FREQ_1 =   2022-11-16T11:45:34.013   2216476374.0
RECEIVE_FREQ_1 =   2022-11-16T11:45:34.963   2216476375.0
RECEIVE_FREQ_1 =   2022-11-16T11:45:36.000   2216476376.0
RECEIVE_FREQ_1 =   2022-11-16T11:45:36.950   2216476377.0
RECEIVE_FREQ_1 =   2022-11-16T11:45:37.987   2216476377.0
RECEIVE_FREQ_1 =   2022-11-16T11:45:38.938   2216476378.0
RECEIVE_FREQ_1 =   2022-11-16T11:45:41.962   2216476380.0
RECEIVE_FREQ_1 =   2022-11-16T11:45:42.998   2216476381.0
RECEIVE_FREQ_1 =   2022-11-16T11:45:43.949   2216476382.0
RECEIVE_FREQ_1 =   2022-11-16T11:45:44.986   2216476383.0
RECEIVE_FREQ_1 =   2022-11-16T11:45:45.936   2216476384.0
RECEIVE_FREQ_1 =   2022-11-16T11:45:46.973   2216476384.0
RECEIVE_FREQ_1 =   2022-11-16T11:45:48.010   2216476385.0
RECEIVE_FREQ_1 =   2022-11-16T11:45:48.960   2216476386.0
RECEIVE_FREQ_1 =   2022-11-16T11:45:49.997   2216476387.0
RECEIVE_FREQ_1 =   2022-11-16T11:45:50.947   2216476388.0
RECEIVE_FREQ_1 =   2022-11-16T11:45:51.984   2216476388.0
RECEIVE_FREQ_1 =   2022-11-16T11:45:52.934   2216476389.0
RECEIVE_FREQ_1 =   2022-11-16T11:45:53.971   2216476390.0
RECEIVE_FREQ_1 =   2022-11-16T11:45:55.008   2216476390.0
RECEIVE_FREQ_1 =   2022-11-16T11:45:55.958   2216476392.0
RECEIVE_FREQ_1 =   2022-11-16T11:45:56.995   2216476392.0
RECEIVE_FREQ_1 =   2022-11-16T11:45:57.946   2216476393.0
RECEIVE_FREQ_1 =   2022-11-16T11:45:58.982   2216476394.0
RECEIVE_FREQ_1 =   2022-11-16T11:45:59.933   2216476395.0
RECEIVE_FREQ_1 =   2022-11-16T11:46:00.970   2216476396.0
RECEIVE_FREQ_1 =   2022-11-16T11:46:02.006   2216476396.0
RECEIVE_FREQ_1 =   2022-11-16T11:46:02.957   2216476397.0
RECEIVE_FREQ_1 =   2022-11-16T11:46:03.994   2216476398.0
RECEIVE_FREQ_1 =   2022-11-16T11:46:04.944   2216476398.0
RECEIVE_FREQ_1 =   2022-11-16T11:46:05.981   2216476399.0
RECEIVE_FREQ_1 =   2022-11-16T11:46:06.931   2216476400.0
RECEIVE_FREQ_1 =   2022-11-16T11:46:07.968   2216476401.0
RECEIVE_FREQ_1 =   2022-11-16T11:46:09.005   2216476401.0
RECEIVE_FREQ_1 =   2022-11-16T11:46:09.955   2216476402.0
RECEIVE_FREQ_1 =   2022-11-16T11:46:10.992   2216476403.0
RECEIVE_FREQ_1 =   2022-11-16T11:46:11.942   2216476404.0
RECEIVE_FREQ_1 =   2022-11-16T11:46:12.979   2216476405.0
RECEIVE_FREQ_1 =   2022-11-16T11:46:13.930   2216476405.0
RECEIVE_FREQ_1 =   2022-11-16T11:46:14.966   2216476406.0
RECEIVE_FREQ_1 =   2022-11-16T11:46:16.003   2216476407.0
RECEIVE_FREQ_1 =   2022-11-16T11:46:16.954   2216476408.0
RECEIVE_FREQ_1 =   2022-11-16T11:46:17.990   2216476409.0
RECEIVE_FREQ_1 =   2022-11-16T11:46:18.941   2216476409.0
RECEIVE_FREQ_1 =   2022-11-16T11:46:19.978   2216476410.0
RECEIVE_FREQ_1 =   2022-11-16T11:46:20.928   2216476411.0
RECEIVE_FREQ_1 =   2022-11-16T11:46:21.965   2216476412.0
RECEIVE_FREQ_1 =   2022-11-16T11:46:23.002   2216476413.0
RECEIVE_FREQ_1 =   2022-11-16T11:46:23.952   2216476413.0
RECEIVE_FREQ_1 =   2022-11-16T11:46:24.989   2216476414.0
RECEIVE_FREQ_1 =   2022-11-16T11:46:25.939   2216476414.0
RECEIVE_FREQ_1 =   2022-11-16T11:46:26.976   2216476415.0
RECEIVE_FREQ_1 =   2022-11-16T11:46:28.013   2216476416.0
RECEIVE_FREQ_1 =   2022-11-16T11:46:28.963   2216476417.0
RECEIVE_FREQ_1 =   2022-11-16T11:46:30.000   2216476418.0
RECEIVE_FREQ_1 =   2022-11-16T11:46:30.950   2216476419.0
RECEIVE_FREQ_1 =   2022-11-16T11:46:31.987   2216476420.0
RECEIVE_FREQ_1 =   2022-11-16T11:46:32.938   2216476420.0
RECEIVE_FREQ_1 =   2022-11-16T11:46:33.974   2216476421.0
RECEIVE_FREQ_1 =   2022-11-16T11:46:35.011   2216476422.0
RECEIVE_FREQ_1 =   2022-11-16T11:46:35.962   2216476422.0
RECEIVE_FREQ_1 =   2022-11-16T11:46:36.998   2216476423.0
RECEIVE_FREQ_1 =   2022-11-16T11:46:37.949   2216476424.0
RECEIVE_FREQ_1 =   2022-11-16T11:46:38.986   2216476425.0
RECEIVE_FREQ_1 =   2022-11-16T11:46:39.936   2216476425.0
RECEIVE_FREQ_1 =   2022-11-16T11:46:40.973   2216476426.0
RECEIVE_FREQ_1 =   2022-11-16T11:46:42.010   2216476427.0
RECEIVE_FREQ_1 =   2022-11-16T11:46:42.960   2216476428.0
RECEIVE_FREQ_1 =   2022-11-16T11:46:43.997   2216476429.0
RECEIVE_FREQ_1 =   2022-11-16T11:46:44.947   2216476429.0
RECEIVE_FREQ_1 =   2022-11-16T11:46:45.984   2216476430.0
RECEIVE_FREQ_1 =   2022-11-16T11:46:46.934   2216476431.0
RECEIVE_FREQ_1 =   2022-11-16T11:46:47.971   2216476432.0
RECEIVE_FREQ_1 =   2022-11-16T11:46:49.008   2216476432.0
RECEIVE_FREQ_1 =   2022-11-16T11:46:49.958   2216476433.0
RECEIVE_FREQ_1 =   2022-11-16T11:46:50.995   2216476434.0
RECEIVE_FREQ_1 =   2022-11-16T11:46:51.946   2216476435.0
RECEIVE_FREQ_1 =   2022-11-16T11:46:52.982   2216476436.0
RECEIVE_FREQ_1 =   2022-11-16T11:46:53.933   2216476436.0
RECEIVE_FREQ_1 =   2022-11-16T11:46:54.970   2216476437.0
RECEIVE_FREQ_1 =   2022-11-16T11:46:56.006   2216476438.0
RECEIVE_FREQ_1 =   2022-11-16T11:46:56.957   2216476439.0
RECEIVE_FREQ_1 =   2022-11-16T11:46:57.994   2216476440.0
RECEIVE_FREQ_1 =   2022-11-16T11:46:58.944   2216476440.0
RECEIVE_FREQ_1 =   2022-11-16T11:46:59.981   2216476441.0
RECEIVE_FREQ_1 =   2022-11-16T11:47:00.931   2216476442.0
RECEIVE_FREQ_1 =   2022-11-16T11:47:01.968   2216476442.0
RECEIVE_FREQ_1 =   2022-11-16T11:47:03.005   2216476443.0
RECEIVE_FREQ_1 =   2022-11-16T11:47:03.955   2216476444.0
RECEIVE_FREQ_1 =   2022-11-16T11:47:04.992   2216476445.0
RECEIVE_FREQ_1 =   2022-11-16T11:47:05.942   2216476445.0
RECEIVE_FREQ_1 =   2022-11-16T11:47:06.979   2216476446.0
RECEIVE_FREQ_1 =   2022-11-16T11:47:08.016   2216476447.0
RECEIVE_FREQ_1 =   2022-11-16T11:47:08.966   2216476448.0
RECEIVE_FREQ_1 =   2022-11-16T11:47:10.003   2216476449.0
RECEIVE_FREQ_1 =   2022-11-16T11:47:10.954   2216476449.0
RECEIVE_FREQ_1 =   2022-11-16T11:47:11.990   2216476450.0
RECEIVE_FREQ_1 =   2022-11-16T11:47:12.941   2216476451.0
RECEIVE_FREQ_1 =   2022-11-16T11:47:13.978   2216476452.0
RECEIVE_FREQ_1 =   2022-11-16T11:47:14.928   2216476452.0
RECEIVE_FREQ_1 =   2022-11-16T11:47:15.965   2216476453.0
RECEIVE_FREQ_1 =   2022-11-16T11:47:17.002   2216476454.0
RECEIVE_FREQ_1 =   2022-11-16T11:47:17.952   2216476455.0
RECEIVE_FREQ_1 =   2022-11-16T11:47:18.989   2216476455.0
RECEIVE_FREQ_1 =   2022-11-16T11:47:19.939   2216476456.0
RECEIVE_FREQ_1 =   2022-11-16T11:47:20.976   2216476457.0
RECEIVE_FREQ_1 =   2022-11-16T11:47:22.013   2216476458.0
RECEIVE_FREQ_1 =   2022-11-16T11:47:22.963   2216476458.0
RECEIVE_FREQ_1 =   2022-11-16T11:47:24.000   2216476459.0
RECEIVE_FREQ_1 =   2022-11-16T11:47:24.950   2216476460.0
RECEIVE_FREQ_1 =   2022-11-16T11:47:25.987   2216476461.0
RECEIVE_FREQ_1 =   2022-11-16T11:47:26.938   2216476461.0
RECEIVE_FREQ_1 =   2022-11-16T11:47:27.974   2216476462.0
RECEIVE_FREQ_1 =   2022-11-16T11:47:28.925   2216476463.0
RECEIVE_FREQ_1 =   2022-11-16T11:47:29.962   2216476464.0
RECEIVE_FREQ_1 =   2022-11-16T11:47:30.998   2216476465.0
RECEIVE_FREQ_1 =   2022-11-16T11:47:31.949   2216476465.0
RECEIVE_FREQ_1 =   2022-11-16T11:47:32.986   2216476466.0
RECEIVE_FREQ_1 =   2022-11-16T11:47:33.936   2216476467.0
RECEIVE_FREQ_1 =   2022-11-16T11:47:34.973   2216476468.0
RECEIVE_FREQ_1 =   2022-11-16T11:47:36.010   2216476468.0
RECEIVE_FREQ_1 =   2022-11-16T11:47:36.960   2216476469.0
RECEIVE_FREQ_1 =   2022-11-16T11:47:37.997   2216476470.0
RECEIVE_FREQ_1 =   2022-11-16T11:47:38.947   2216476470.0
RECEIVE_FREQ_1 =   2022-11-16T11:47:39.984   2216476471.0
RECEIVE_FREQ_1 =   2022-11-16T11:47:40.934   2216476472.0
RECEIVE_FREQ_1 =   2022-11-16T11:47:41.971   2216476473.0
RECEIVE_FREQ_1 =   2022-11-16T11:47:43.008   2216476474.0
RECEIVE_FREQ_1 =   2022-11-16T11:47:43.958   2216476475.0
RECEIVE_FREQ_1 =   2022-11-16T11:47:44.995   2216476475.0
RECEIVE_FREQ_1 =   2022-11-16T11:47:45.946   2216476476.0
RECEIVE_FREQ_1 =   2022-11-16T11:47:46.982   2216476477.0
RECEIVE_FREQ_1 =   2022-11-16T11:47:47.933   2216476478.0
RECEIVE_FREQ_1 =   2022-11-16T11:47:48.970   2216476478.0
RECEIVE_FREQ_1 =   2022-11-16T11:47:50.006   2216476479.0
RECEIVE_FREQ_1 =   2022-11-16T11:47:50.957   2216476480.0
RECEIVE_FREQ_1 =   2022-11-16T11:47:51.994   2216476480.0
RECEIVE_FREQ_1 =   2022-11-16T11:47:52.944   2216476481.0
RECEIVE_FREQ_1 =   2022-11-16T11:47:53.981   2216476482.0
RECEIVE_FREQ_1 =   2022-11-16T11:47:54.931   2216476483.0
RECEIVE_FREQ_1 =   2022-11-16T11:47:55.968   2216476484.0
RECEIVE_FREQ_1 =   2022-11-16T11:47:57.005   2216476484.0
RECEIVE_FREQ_1 =   2022-11-16T11:47:57.955   2216476485.0
RECEIVE_FREQ_1 =   2022-11-16T11:47:58.992   2216476486.0
RECEIVE_FREQ_1 =   2022-11-16T11:47:59.942   2216476486.0
RECEIVE_FREQ_1 =   2022-11-16T11:48:00.979   2216476487.0
RECEIVE_FREQ_1 =   2022-11-16T11:48:01.930   2216476488.0
RECEIVE_FREQ_1 =   2022-11-16T11:48:02.966   2216476489.0
RECEIVE_FREQ_1 =   2022-11-16T11:48:04.003   2216476490.0
RECEIVE_FREQ_1 =   2022-11-16T11:48:04.954   2216476491.0
RECEIVE_FREQ_1 =   2022-11-16T11:48:05.990   2216476491.0
RECEIVE_FREQ_1 =   2022-11-16T11:48:06.941   2216476492.0
RECEIVE_FREQ_1 =   2022-11-16T11:48:07.978   2216476493.0
RECEIVE_FREQ_1 =   2022-11-16T11:48:08.928   2216476494.0
RECEIVE_FREQ_1 =   2022-11-16T11:48:09.965   2216476495.0
RECEIVE_FREQ_1 =   2022-11-16T11:48:11.002   2216476495.0
RECEIVE_FREQ_1 =   2022-11-16T11:48:11.952   2216476496.0
RECEIVE_FREQ_1 =   2022-11-16T11:48:12.989   2216476497.0
RECEIVE_FREQ_1 =   2022-11-16T11:48:13.939   2216476498.0
RECEIVE_FREQ_1 =   2022-11-16T11:48:14.976   2216476499.0
RECEIVE_FREQ_1 =   2022-11-16T11:48:16.013   2216476499.0
RECEIVE_FREQ_1 =   2022-11-16T11:48:16.963   2216476501.0
RECEIVE_FREQ_1 =   2022-11-16T11:48:18.000   2216476501.0
RECEIVE_FREQ_1 =   2022-11-16T11:48:18.950   2216476502.0
RECEIVE_FREQ_1 =   2022-11-16T11:48:19.987   2216476503.0
RECEIVE_FREQ_1 =   2022-11-16T11:48:20.938   2216476503.0
RECEIVE_FREQ_1 =   2022-11-16T11:48:21.974   2216476504.0
RECEIVE_FREQ_1 =   2022-11-16T11:48:23.011   2216476505.0
RECEIVE_FREQ_1 =   2022-11-16T11:48:23.962   2216476506.0
RECEIVE_FREQ_1 =   2022-11-16T11:48:24.998   2216476507.0
