data/tdm/2022-12-06Z_2022-156A.tdm

CCSDS_TDM_VERS = 2.0
COMMENT TDM ARTEMIS 1 Doppler data by Scott Tilley for 2022-12-06 UTC
COMMENT Signal not demodulated, to low of SNR, centre carrier integrated in 10s by 0.1Hz bin and extracted for peak value.
CREATION_DATE = 2022-12-06Z
ORIGINATOR = SCOTT TILLEY

META_START
COMMENT 
COMMENT 
SYSTEM TIME = UTC
PARTICIPANT_1 = COSPAR 8049
PARTICIPANT_2 = 2022-156A
MODE = SEQUENTIAL
PATH = 2,1
INTEGRATION_INTERVAL = 10
INTEGRATION_REF = MIDDLE
FREQ_OFFSET = 0
TRANSMIT_DELAY_1 = 0
RECEIVE_DELAY_1 = 0
DATA_QUALITY = RAW
META_STOP

DATA_START
RECEIVE_FREQ_1 =   2022-12-07T02:10:06.499   2216502049.7
RECEIVE_FREQ_1 =   2022-12-07T02:10:16.522   2216502048.8
RECEIVE_FREQ_1 =   2022-12-07T02:10:36.566   2216502047.6
RECEIVE_FREQ_1 =   2022-12-07T02:10:46.589   2216502047.0
RECEIVE_FREQ_1 =   2022-12-07T02:10:56.525   2216502046.1
RECEIVE_FREQ_1 =   2022-12-07T02:11:06.547   2216502045.6
RECEIVE_FREQ_1 =   2022-12-07T02:11:16.570   2216502044.5
RECEIVE_FREQ_1 =   2022-12-07T02:11:26.506   2216502044.2
RECEIVE_FREQ_1 =   2022-12-07T02:11:46.550   2216502042.5
RECEIVE_FREQ_1 =   2022-12-07T02:11:56.573   2216502042.0
RECEIVE_FREQ_1 =   2022-12-07T02:12:06.595   2216502041.3
RECEIVE_FREQ_1 =   2022-12-07T02:12:16.531   2216502040.7
RECEIVE_FREQ_1 =   2022-12-07T02:12:36.576   2216502039.3
RECEIVE_FREQ_1 =   2022-12-07T02:12:46.512   2216502038.5
RECEIVE_FREQ_1 =   2022-12-07T02:12:56.534   2216502037.8
RECEIVE_FREQ_1 =   2022-12-07T02:13:16.579   2216502036.2
RECEIVE_FREQ_1 =   2022-12-07T02:13:26.515   2216502035.6
RECEIVE_FREQ_1 =   2022-12-07T02:14:16.541   2216502032.2
RECEIVE_FREQ_1 =   2022-12-07T02:14:46.522   2216502030.2
RECEIVE_FREQ_1 =   2022-12-07T02:14:56.544   2216502029.2
RECEIVE_FREQ_1 =   2022-12-07T02:15:06.566   2216502028.7
RECEIVE_FREQ_1 =   2022-12-07T02:15:36.547   2216502026.7
RECEIVE_FREQ_1 =   2022-12-07T02:16:16.550   2216502024.0
RECEIVE_FREQ_1 =   2022-12-07T02:16:26.573   2216502023.2
RECEIVE_FREQ_1 =   2022-12-07T02:16:36.509   2216502022.4
RECEIVE_FREQ_1 =   2022-12-07T02:16:46.531   2216502021.7
RECEIVE_FREQ_1 =   2022-12-07T02:16:56.554   2216502021.1
RECEIVE_FREQ_1 =   2022-12-07T02:17:06.576   2216502020.5
RECEIVE_FREQ_1 =   2022-12-07T02:17:16.512   2216502019.8
RECEIVE_FREQ_1 =   2022-12-07T02:17:26.534   2216502018.9
RECEIVE_FREQ_1 =   2022-12-07T02:17:36.557   2216502018.3
RECEIVE_FREQ_1 =   2022-12-07T02:17:46.579   2216502017.7
RECEIVE_FREQ_1 =   2022-12-07T02:18:06.538   2216502016.6
RECEIVE_FREQ_1 =   2022-12-07T02:18:16.560   2216502015.7
RECEIVE_FREQ_1 =   2022-12-07T02:18:26.496   2216502014.8
RECEIVE_FREQ_1 =   2022-12-07T02:18:46.541   2216502013.4
RECEIVE_FREQ_1 =   2022-12-07T02:19:06.499   2216502012.1
RECEIVE_FREQ_1 =   2022-12-07T02:19:16.522   2216502011.3
RECEIVE_FREQ_1 =   2022-12-07T02:19:26.544   2216502010.7
RECEIVE_FREQ_1 =   2022-12-07T02:19:36.566   2216502010.1
RECEIVE_FREQ_1 =   2022-12-07T02:19:56.525   2216502008.6
RECEIVE_FREQ_1 =   2022-12-07T02:20:16.570   2216502007.3
RECEIVE_FREQ_1 =   2022-12-07T02:20:26.506   2216502006.4
RECEIVE_FREQ_1 =   2022-12-07T02:20:46.550   2216502005.2
RECEIVE_FREQ_1 =   2022-12-07T02:21:06.509   2216502004.0
RECEIVE_FREQ_1 =   2022-12-07T02:21:16.531   2216502003.2
RECEIVE_FREQ_1 =   2022-12-07T02:21:26.554   2216502002.7
RECEIVE_FREQ_1 =   2022-12-07T02:21:36.576   2216502001.7
RECEIVE_FREQ_1 =   2022-12-07T02:21:46.512   2216502001.0
RECEIVE_FREQ_1 =   2022-12-07T02:21:56.534   2216502000.4
RECEIVE_FREQ_1 =   2022-12-07T02:22:16.493   2216501999.2
RECEIVE_FREQ_1 =   2022-12-07T02:22:36.538   2216501997.8
RECEIVE_FREQ_1 =   2022-12-07T02:23:06.518   2216501995.7
RECEIVE_FREQ_1 =   2022-12-07T02:23:26.563   2216501994.3
RECEIVE_FREQ_1 =   2022-12-07T02:24:36.547   2216501988.5
RECEIVE_FREQ_1 =   2022-12-07T02:24:46.570   2216501987.9
RECEIVE_FREQ_1 =   2022-12-07T02:25:06.528   2216501986.2
RECEIVE_FREQ_1 =   2022-12-07T02:25:16.550   2216501985.4
RECEIVE_FREQ_1 =   2022-12-07T02:25:36.509   2216501984.0
RECEIVE_FREQ_1 =   2022-12-07T02:25:56.554   2216501982.2
RECEIVE_FREQ_1 =   2022-12-07T02:26:26.534   2216501979.3
RECEIVE_FREQ_1 =   2022-12-07T02:26:36.557   2216501978.7
RECEIVE_FREQ_1 =   2022-12-07T02:26:56.515   2216501977.1
RECEIVE_FREQ_1 =   2022-12-07T02:27:06.538   2216501976.4
RECEIVE_FREQ_1 =   2022-12-07T02:27:56.563   2216501972.5
RECEIVE_FREQ_1 =   2022-12-07T02:28:26.544   2216501969.0
RECEIVE_FREQ_1 =   2022-12-07T02:29:26.506   2216501964.9
RECEIVE_FREQ_1 =   2022-12-07T02:30:26.554   2216501959.9
RECEIVE_FREQ_1 =   2022-12-07T02:30:46.512   2216501959.0
RECEIVE_FREQ_1 =   2022-12-07T02:30:56.534   2216501957.7
RECEIVE_FREQ_1 =   2022-12-07T02:31:06.557   2216501956.7
RECEIVE_FREQ_1 =   2022-12-07T02:31:26.515   2216501955.1
RECEIVE_FREQ_1 =   2022-12-07T02:31:36.538   2216501954.4
RECEIVE_FREQ_1 =   2022-12-07T02:32:06.518   2216501951.8
RECEIVE_FREQ_1 =   2022-12-07T02:32:16.541   2216501951.1
RECEIVE_FREQ_1 =   2022-12-07T02:32:46.522   2216501948.6
RECEIVE_FREQ_1 =   2022-12-07T02:32:56.544   2216501947.8
RECEIVE_FREQ_1 =   2022-12-07T02:33:06.566   2216501946.8
RECEIVE_FREQ_1 =   2022-12-07T02:33:56.506   2216501943.0
RECEIVE_FREQ_1 =   2022-12-07T02:34:46.531   2216501939.0
RECEIVE_FREQ_1 =   2022-12-07T02:35:06.576   2216501937.2
RECEIVE_FREQ_1 =   2022-12-07T02:35:16.512   2216501936.3
RECEIVE_FREQ_1 =   2022-12-07T02:35:46.579   2216501934.1
RECEIVE_FREQ_1 =   2022-12-07T02:35:56.515   2216501933.2
RECEIVE_FREQ_1 =   2022-12-07T02:36:06.538   2216501932.2
RECEIVE_FREQ_1 =   2022-12-07T02:36:16.560   2216501931.6
RECEIVE_FREQ_1 =   2022-12-07T02:36:26.496   2216501931.0
RECEIVE_FREQ_1 =   2022-12-07T02:36:46.541   2216501929.3
RECEIVE_FREQ_1 =   2022-12-07T02:37:26.544   2216501925.9
RECEIVE_FREQ_1 =   2022-12-07T02:37:36.566   2216501925.1
RECEIVE_FREQ_1 =   2022-12-07T02:37:46.589   2216501924.5
RECEIVE_FREQ_1 =   2022-12-07T02:38:06.547   2216501922.7
RECEIVE_FREQ_1 =   2022-12-07T02:38:16.570   2216501921.9
RECEIVE_FREQ_1 =   2022-12-07T02:38:46.550   2216501919.7
RECEIVE_FREQ_1 =   2022-12-07T02:38:56.573   2216501918.9
RECEIVE_FREQ_1 =   2022-12-07T02:39:56.534   2216501914.1
RECEIVE_FREQ_1 =   2022-12-07T02:41:16.541   2216501907.9
RECEIVE_FREQ_1 =   2022-12-07T02:41:36.499   2216501906.0
RECEIVE_FREQ_1 =   2022-12-07T02:43:36.509   2216501896.0
RECEIVE_FREQ_1 =   2022-12-07T02:43:56.554   2216501894.0
RECEIVE_FREQ_1 =   2022-12-07T02:46:26.544   2216501880.0
RECEIVE_FREQ_1 =   2022-12-07T02:47:06.547   2216501876.5
RECEIVE_FREQ_1 =   2022-12-07T02:47:36.528   2216501873.6
RECEIVE_FREQ_1 =   2022-12-07T02:47:56.573   2216501871.5
RECEIVE_FREQ_1 =   2022-12-07T02:48:16.531   2216501869.9
RECEIVE_FREQ_1 =   2022-12-07T02:48:26.554   2216501868.6
RECEIVE_FREQ_1 =   2022-12-07T02:48:36.576   2216501868.0
RECEIVE_FREQ_1 =   2022-12-07T02:48:46.512   2216501867.2
RECEIVE_FREQ_1 =   2022-12-07T02:48:56.534   2216501866.0
RECEIVE_FREQ_1 =   2022-12-07T02:49:16.579   2216501864.5
RECEIVE_FREQ_1 =   2022-12-07T02:49:36.538   2216501862.5
RECEIVE_FREQ_1 =   2022-12-07T02:49:56.582   2216501860.9
RECEIVE_FREQ_1 =   2022-12-07T02:50:06.518   2216501860.2
RECEIVE_FREQ_1 =   2022-12-07T02:51:06.566   2216501854.0
RECEIVE_FREQ_1 =   2022-12-07T02:51:26.525   2216501852.6
RECEIVE_FREQ_1 =   2022-12-07T02:51:36.547   2216501851.5
RECEIVE_FREQ_1 =   2022-12-07T02:51:46.570   2216501850.6
RECEIVE_FREQ_1 =   2022-12-07T02:51:56.506   2216501849.9
RECEIVE_FREQ_1 =   2022-12-07T02:52:06.528   2216501848.9
RECEIVE_FREQ_1 =   2022-12-07T02:52:16.550   2216501847.9
RECEIVE_FREQ_1 =   2022-12-07T02:52:26.573   2216501846.9
RECEIVE_FREQ_1 =   2022-12-07T02:52:36.595   2216501846.1
RECEIVE_FREQ_1 =   2022-12-07T02:52:46.531   2216501845.1
RECEIVE_FREQ_1 =   2022-12-07T02:52:56.554   2216501844.2
RECEIVE_FREQ_1 =   2022-12-07T02:53:06.576   2216501843.5
RECEIVE_FREQ_1 =   2022-12-07T02:53:16.512   2216501842.4
RECEIVE_FREQ_1 =   2022-12-07T02:53:26.534   2216501841.4
RECEIVE_FREQ_1 =   2022-12-07T02:53:36.557   2216501840.8
RECEIVE_FREQ_1 =   2022-12-07T02:53:46.493   2216501839.4
RECEIVE_FREQ_1 =   2022-12-07T02:53:56.515   2216501839.0
RECEIVE_FREQ_1 =   2022-12-07T02:54:06.538   2216501838.0
RECEIVE_FREQ_1 =   2022-12-07T02:54:16.560   2216501837.2
RECEIVE_FREQ_1 =   2022-12-07T02:54:26.582   2216501836.4
RECEIVE_FREQ_1 =   2022-12-07T02:54:36.518   2216501835.2
RECEIVE_FREQ_1 =   2022-12-07T02:54:46.541   2216501834.3
RECEIVE_FREQ_1 =   2022-12-07T02:55:16.522   2216501831.8
RECEIVE_FREQ_1 =   2022-12-07T02:55:26.544   2216501830.7
RECEIVE_FREQ_1 =   2022-12-07T02:55:36.566   2216501829.8
RECEIVE_FREQ_1 =   2022-12-07T02:55:46.502   2216501828.8
RECEIVE_FREQ_1 =   2022-12-07T02:55:56.525   2216501828.1
RECEIVE_FREQ_1 =   2022-12-07T02:56:06.547   2216501827.0
RECEIVE_FREQ_1 =   2022-12-07T02:56:16.570   2216501826.1
RECEIVE_FREQ_1 =   2022-12-07T02:56:26.506   2216501825.3
RECEIVE_FREQ_1 =   2022-12-07T02:56:36.528   2216501824.1
RECEIVE_FREQ_1 =   2022-12-07T02:56:46.550   2216501823.7
RECEIVE_FREQ_1 =   2022-12-07T02:56:56.573   2216501822.8
RECEIVE_FREQ_1 =   2022-12-07T02:57:06.509   2216501821.6
RECEIVE_FREQ_1 =   2022-12-07T02:57:16.531   2216501820.7
RECEIVE_FREQ_1 =   2022-12-07T02:57:26.554   2216501819.9
RECEIVE_FREQ_1 =   2022-12-07T02:57:36.576   2216501819.1
RECEIVE_FREQ_1 =   2022-12-07T02:57:46.512   2216501818.3
RECEIVE_FREQ_1 =   2022-12-07T02:57:56.534   2216501817.1
RECEIVE_FREQ_1 =   2022-12-07T02:58:06.557   2216501816.4
RECEIVE_FREQ_1 =   2022-12-07T02:58:16.579   2216501815.5
RECEIVE_FREQ_1 =   2022-12-07T02:58:46.560   2216501813.0
RECEIVE_FREQ_1 =   2022-12-07T02:58:56.582   2216501811.9
RECEIVE_FREQ_1 =   2022-12-07T02:59:06.518   2216501810.9
RECEIVE_FREQ_1 =   2022-12-07T02:59:16.541   2216501810.1
RECEIVE_FREQ_1 =   2022-12-07T02:59:26.563   2216501809.2
RECEIVE_FREQ_1 =   2022-12-07T02:59:36.499   2216501808.3
RECEIVE_FREQ_1 =   2022-12-07T02:59:46.522   2216501807.4
RECEIVE_FREQ_1 =   2022-12-07T02:59:56.544   2216501806.2
RECEIVE_FREQ_1 =   2022-12-07T03:00:06.566   2216501805.8
RECEIVE_FREQ_1 =   2022-12-07T03:00:16.502   2216501804.8
RECEIVE_FREQ_1 =   2022-12-07T03:00:26.525   2216501803.8
RECEIVE_FREQ_1 =   2022-12-07T03:00:36.547   2216501803.0
RECEIVE_FREQ_1 =   2022-12-07T03:00:46.570   2216501802.2
RECEIVE_FREQ_1 =   2022-12-07T03:00:56.506   2216501801.3
RECEIVE_FREQ_1 =   2022-12-07T03:01:06.528   2216501800.2
RECEIVE_FREQ_1 =   2022-12-07T03:01:16.550   2216501799.2
RECEIVE_FREQ_1 =   2022-12-07T03:01:26.573   2216501798.6
RECEIVE_FREQ_1 =   2022-12-07T03:01:36.509   2216501797.8
RECEIVE_FREQ_1 =   2022-12-07T03:01:46.531   2216501796.3
RECEIVE_FREQ_1 =   2022-12-07T03:01:56.554   2216501795.7
RECEIVE_FREQ_1 =   2022-12-07T03:02:06.576   2216501794.3
RECEIVE_FREQ_1 =   2022-12-07T03:02:16.512   2216501793.3
RECEIVE_FREQ_1 =   2022-12-07T03:02:26.534   2216501792.5
RECEIVE_FREQ_1 =   2022-12-07T03:02:36.557   2216501791.5
RECEIVE_FREQ_1 =   2022-12-07T03:02:46.579   2216501790.3
RECEIVE_FREQ_1 =   2022-12-07T03:02:56.515   2216501789.4
RECEIVE_FREQ_1 =   2022-12-07T03:03:06.538   2216501788.5
RECEIVE_FREQ_1 =   2022-12-07T03:03:16.560   2216501787.5
RECEIVE_FREQ_1 =   2022-12-07T03:03:26.496   2216501786.4
RECEIVE_FREQ_1 =   2022-12-07T03:03:36.518   2216501785.2
RECEIVE_FREQ_1 =   2022-12-07T03:03:46.541   2216501783.9
RECEIVE_FREQ_1 =   2022-12-07T03:03:56.563   2216501783.2
RECEIVE_FREQ_1 =   2022-12-07T03:04:06.499   2216501782.1
RECEIVE_FREQ_1 =   2022-12-07T03:04:16.522   2216501780.8
RECEIVE_FREQ_1 =   2022-12-07T03:04:26.544   2216501780.0
RECEIVE_FREQ_1 =   2022-12-07T03:04:36.566   2216501779.0
RECEIVE_FREQ_1 =   2022-12-07T03:04:46.502   2216501778.0
RECEIVE_FREQ_1 =   2022-12-07T03:04:56.525   2216501777.0
RECEIVE_FREQ_1 =   2022-12-07T03:05:06.547   2216501776.1
RECEIVE_FREQ_1 =   2022-12-07T03:05:16.570   2216501775.1
RECEIVE_FREQ_1 =   2022-12-07T03:05:36.528   2216501772.9
RECEIVE_FREQ_1 =   2022-12-07T03:05:46.550   2216501771.8
RECEIVE_FREQ_1 =   2022-12-07T03:06:06.509   2216501769.8
RECEIVE_FREQ_1 =   2022-12-07T03:06:26.554   2216501767.9
RECEIVE_FREQ_1 =   2022-12-07T03:06:36.576   2216501767.0
RECEIVE_FREQ_1 =   2022-12-07T03:06:56.534   2216501764.9
RECEIVE_FREQ_1 =   2022-12-07T03:07:06.557   2216501763.5
RECEIVE_FREQ_1 =   2022-12-07T03:08:06.518   2216501757.7
RECEIVE_FREQ_1 =   2022-12-07T03:08:26.563   2216501755.6
RECEIVE_FREQ_1 =   2022-12-07T03:08:36.586   2216501754.4
RECEIVE_FREQ_1 =   2022-12-07T03:08:46.522   2216501753.6
RECEIVE_FREQ_1 =   2022-12-07T03:08:56.544   2216501752.2
RECEIVE_FREQ_1 =   2022-12-07T03:09:06.566   2216501751.4
RECEIVE_FREQ_1 =   2022-12-07T03:09:16.502   2216501750.4
RECEIVE_FREQ_1 =   2022-12-07T03:09:26.525   2216501749.3
RECEIVE_FREQ_1 =   2022-12-07T03:09:36.547   2216501748.5
RECEIVE_FREQ_1 =   2022-12-07T03:09:46.570   2216501747.5
RECEIVE_FREQ_1 =   2022-12-07T03:09:56.506   2216501746.5
RECEIVE_FREQ_1 =   2022-12-07T03:10:06.528   2216501745.5
RECEIVE_FREQ_1 =   2022-12-07T03:10:16.550   2216501744.5
RECEIVE_FREQ_1 =   2022-12-07T03:10:26.573   2216501743.4
RECEIVE_FREQ_1 =   2022-12-07T03:10:36.509   2216501742.3
RECEIVE_FREQ_1 =   2022-12-07T03:10:46.531   2216501741.3
RECEIVE_FREQ_1 =   2022-12-07T03:10:56.554   2216501740.4
RECEIVE_FREQ_1 =   2022-12-07T03:11:06.576   2216501739.5
RECEIVE_FREQ_1 =   2022-12-07T03:11:16.512   2216501738.5
RECEIVE_FREQ_1 =   2022-12-07T03:11:26.534   2216501737.5
RECEIVE_FREQ_1 =   2022-12-07T03:11:36.557   2216501736.4
RECEIVE_FREQ_1 =   2022-12-07T03:11:46.493   2216501735.3
RECEIVE_FREQ_1 =   2022-12-07T03:11:56.515   2216501734.4
RECEIVE_FREQ_1 =   2022-12-07T03:12:06.538   2216501733.2
RECEIVE_FREQ_1 =   2022-12-07T03:12:16.560   2216501732.4
RECEIVE_FREQ_1 =   2022-12-07T03:12:26.496   2216501731.5
RECEIVE_FREQ_1 =   2022-12-07T03:12:36.518   2216501730.5
RECEIVE_FREQ_1 =   2022-12-07T03:12:46.541   2216501729.4
RECEIVE_FREQ_1 =   2022-12-07T03:12:56.563   2216501728.5
RECEIVE_FREQ_1 =   2022-12-07T03:13:06.586   2216501727.4
RECEIVE_FREQ_1 =   2022-12-07T03:13:16.522   2216501726.2
RECEIVE_FREQ_1 =   2022-12-07T03:13:26.544   2216501725.2
RECEIVE_FREQ_1 =   2022-12-07T03:13:36.566   2216501724.6
RECEIVE_FREQ_1 =   2022-12-07T03:13:46.502   2216501723.4
RECEIVE_FREQ_1 =   2022-12-07T03:13:56.525   2216501722.1
RECEIVE_FREQ_1 =   2022-12-07T03:14:06.547   2216501721.3
RECEIVE_FREQ_1 =   2022-12-07T03:14:16.570   2216501720.4
RECEIVE_FREQ_1 =   2022-12-07T03:14:26.506   2216501719.3
RECEIVE_FREQ_1 =   2022-12-07T03:14:36.528   2216501718.3
RECEIVE_FREQ_1 =   2022-12-07T03:14:46.550   2216501717.5
RECEIVE_FREQ_1 =   2022-12-07T03:14:56.573   2216501716.5
RECEIVE_FREQ_1 =   2022-12-07T03:15:06.509   2216501715.4
RECEIVE_FREQ_1 =   2022-12-07T03:15:16.531   2216501714.5
RECEIVE_FREQ_1 =   2022-12-07T03:15:26.554   2216501713.6
RECEIVE_FREQ_1 =   2022-12-07T03:15:36.576   2216501712.3
RECEIVE_FREQ_1 =   2022-12-07T03:15:46.512   2216501711.4
RECEIVE_FREQ_1 =   2022-12-07T03:15:56.534   2216501710.6
RECEIVE_FREQ_1 =   2022-12-07T03:16:06.557   2216501709.4
RECEIVE_FREQ_1 =   2022-12-07T03:16:16.579   2216501708.3
RECEIVE_FREQ_1 =   2022-12-07T03:16:26.515   2216501707.4
RECEIVE_FREQ_1 =   2022-12-07T03:16:36.538   2216501706.7
RECEIVE_FREQ_1 =   2022-12-07T03:16:46.560   2216501705.5
RECEIVE_FREQ_1 =   2022-12-07T03:16:56.496   2216501704.5
RECEIVE_FREQ_1 =   2022-12-07T03:17:06.518   2216501703.5
RECEIVE_FREQ_1 =   2022-12-07T03:17:16.541   2216501702.8
RECEIVE_FREQ_1 =   2022-12-07T03:17:26.563   2216501701.5
RECEIVE_FREQ_1 =   2022-12-07T03:17:36.499   2216501700.6
RECEIVE_FREQ_1 =   2022-12-07T03:17:46.522   2216501699.7
RECEIVE_FREQ_1 =   2022-12-07T03:17:56.544   2216501698.6
RECEIVE_FREQ_1 =   2022-12-07T03:18:06.566   2216501697.8
RECEIVE_FREQ_1 =   2022-12-07T03:18:16.502   2216501696.6
RECEIVE_FREQ_1 =   2022-12-07T03:18:26.525   2216501695.8
RECEIVE_FREQ_1 =   2022-12-07T03:18:36.547   2216501694.8
RECEIVE_FREQ_1 =   2022-12-07T03:18:46.570   2216501693.6
RECEIVE_FREQ_1 =   2022-12-07T03:18:56.592   2216501693.0
RECEIVE_FREQ_1 =   2022-12-07T03:19:06.528   2216501691.5
RECEIVE_FREQ_1 =   2022-12-07T03:19:16.550   2216501690.7
RECEIVE_FREQ_1 =   2022-12-07T03:19:26.573   2216501690.0
RECEIVE_FREQ_1 =   2022-12-07T03:19:36.509   2216501688.7
RECEIVE_FREQ_1 =   2022-12-07T03:19:46.531   2216501687.9
RECEIVE_FREQ_1 =   2022-12-07T03:19:56.554   2216501686.9
RECEIVE_FREQ_1 =   2022-12-07T03:20:06.576   2216501685.8
RECEIVE_FREQ_1 =   2022-12-07T03:20:16.512   2216501684.9
RECEIVE_FREQ_1 =   2022-12-07T03:20:26.534   2216501683.5
RECEIVE_FREQ_1 =   2022-12-07T03:20:36.557   2216501682.4
RECEIVE_FREQ_1 =   2022-12-07T03:20:46.493   2216501681.4
RECEIVE_FREQ_1 =   2022-12-07T03:20:56.515   2216501680.7
RECEIVE_FREQ_1 =   2022-12-07T03:21:06.538   2216501679.1
RECEIVE_FREQ_1 =   2022-12-07T03:21:16.560   2216501678.3
RECEIVE_FREQ_1 =   2022-12-07T03:21:26.582   2216501677.1
RECEIVE_FREQ_1 =   2022-12-07T03:21:36.518   2216501675.9
RECEIVE_FREQ_1 =   2022-12-07T03:21:46.541   2216501674.6
RECEIVE_FREQ_1 =   2022-12-07T03:21:56.563   2216501673.5
RECEIVE_FREQ_1 =   2022-12-07T03:22:06.499   2216501672.5
RECEIVE_FREQ_1 =   2022-12-07T03:22:16.522   2216501671.5
RECEIVE_FREQ_1 =   2022-12-07T03:22:26.544   2216501670.4
RECEIVE_FREQ_1 =   2022-12-07T03:22:36.566   2216501669.0
RECEIVE_FREQ_1 =   2022-12-07T03:22:46.502   2216501668.1
RECEIVE_FREQ_1 =   2022-12-07T03:22:56.525   2216501667.0
RECEIVE_FREQ_1 =   2022-12-07T03:23:06.547   2216501665.8
RECEIVE_FREQ_1 =   2022-12-07T03:23:16.570   2216501664.6
RECEIVE_FREQ_1 =   2022-12-07T03:23:26.506   2216501663.7
RECEIVE_FREQ_1 =   2022-12-07T03:23:36.528   2216501662.6
RECEIVE_FREQ_1 =   2022-12-07T03:23:46.550   2216501661.2
RECEIVE_FREQ_1 =   2022-12-07T03:23:56.573   2216501660.2
RECEIVE_FREQ_1 =   2022-12-07T03:24:06.509   2216501659.1
RECEIVE_FREQ_1 =   2022-12-07T03:24:16.531   2216501658.0
RECEIVE_FREQ_1 =   2022-12-07T03:24:26.554   2216501657.2
RECEIVE_FREQ_1 =   2022-12-07T03:24:36.576   2216501656.0
RECEIVE_FREQ_1 =   2022-12-07T03:24:46.512   2216501654.6
RECEIVE_FREQ_1 =   2022-12-07T03:24:56.534   2216501653.9
RECEIVE_FREQ_1 =   2022-12-07T03:25:06.557   2216501652.7
RECEIVE_FREQ_1 =   2022-12-07T03:25:16.579   2216501651.4
RECEIVE_FREQ_1 =   2022-12-07T03:25:26.515   2216501650.8
RECEIVE_FREQ_1 =   2022-12-07T03:25:36.538   2216501649.5
RECEIVE_FREQ_1 =   2022-12-07T03:25:46.560   2216501648.4
RECEIVE_FREQ_1 =   2022-12-07T03:25:56.582   2216501647.3
RECEIVE_FREQ_1 =   2022-12-07T03:26:06.518   2216501646.7
RECEIVE_FREQ_1 =   2022-12-07T03:26:16.541   2216501645.8
RECEIVE_FREQ_1 =   2022-12-07T03:26:26.563   2216501644.5
RECEIVE_FREQ_1 =   2022-12-07T03:26:36.499   2216501643.5
RECEIVE_FREQ_1 =   2022-12-07T03:26:46.522   2216501642.3
RECEIVE_FREQ_1 =   2022-12-07T03:26:56.544   2216501641.4
RECEIVE_FREQ_1 =   2022-12-07T03:27:06.566   2216501640.3
RECEIVE_FREQ_1 =   2022-12-07T03:27:16.502   2216501639.2
RECEIVE_FREQ_1 =   2022-12-07T03:27:26.525   2216501638.0
RECEIVE_FREQ_1 =   2022-12-07T03:27:36.547   2216501637.1
RECEIVE_FREQ_1 =   2022-12-07T03:27:46.570   2216501636.2
RECEIVE_FREQ_1 =   2022-12-07T03:27:56.506   2216501635.4
RECEIVE_FREQ_1 =   2022-12-07T03:28:06.528   2216501634.0
RECEIVE_FREQ_1 =   2022-12-07T03:28:16.550   2216501632.9
RECEIVE_FREQ_1 =   2022-12-07T03:28:26.573   2216501632.0
RECEIVE_FREQ_1 =   2022-12-07T03:28:36.509   2216501630.7
RECEIVE_FREQ_1 =   2022-12-07T03:28:46.531   2216501629.6
RECEIVE_FREQ_1 =   2022-12-07T03:28:56.554   2216501628.2
RECEIVE_FREQ_1 =   2022-12-07T03:29:06.576   2216501627.8
RECEIVE_FREQ_1 =   2022-12-07T03:29:16.512   2216501626.3
RECEIVE_FREQ_1 =   2022-12-07T03:29:26.534   2216501625.8
RECEIVE_FREQ_1 =   2022-12-07T03:29:36.557   2216501624.5
RECEIVE_FREQ_1 =   2022-12-07T03:29:46.493   2216501623.2
RECEIVE_FREQ_1 =   2022-12-07T03:29:56.515   2216501622.4
RECEIVE_FREQ_1 =   2022-12-07T03:30:06.538   2216501621.0
RECEIVE_FREQ_1 =   2022-12-07T03:30:16.560   2216501620.2
RECEIVE_FREQ_1 =   2022-12-07T03:30:26.582   2216501618.8
RECEIVE_FREQ_1 =   2022-12-07T03:30:36.518   2216501617.9
RECEIVE_FREQ_1 =   2022-12-07T03:30:46.541   2216501616.8
RECEIVE_FREQ_1 =   2022-12-07T03:30:56.563   2216501615.8
RECEIVE_FREQ_1 =   2022-12-07T03:31:06.499   2216501615.0
RECEIVE_FREQ_1 =   2022-12-07T03:31:16.522   2216501613.9
RECEIVE_FREQ_1 =   2022-12-07T03:31:26.544   2216501612.5
RECEIVE_FREQ_1 =   2022-12-07T03:31:36.566   2216501611.6
RECEIVE_FREQ_1 =   2022-12-07T03:31:46.502   2216501610.4
RECEIVE_FREQ_1 =   2022-12-07T03:31:56.525   2216501609.3
RECEIVE_FREQ_1 =   2022-12-07T03:32:06.547   2216501608.3
RECEIVE_FREQ_1 =   2022-12-07T03:32:16.570   2216501607.0
RECEIVE_FREQ_1 =   2022-12-07T03:32:26.506   2216501606.1
RECEIVE_FREQ_1 =   2022-12-07T03:32:36.528   2216501605.0
RECEIVE_FREQ_1 =   2022-12-07T03:32:46.550   2216501603.8
RECEIVE_FREQ_1 =   2022-12-07T03:32:56.573   2216501602.7
RECEIVE_FREQ_1 =   2022-12-07T03:33:06.509   2216501601.6
RECEIVE_FREQ_1 =   2022-12-07T03:33:16.531   2216501600.3
RECEIVE_FREQ_1 =   2022-12-07T03:33:26.554   2216501599.4
RECEIVE_FREQ_1 =   2022-12-07T03:33:36.576   2216501598.3
RECEIVE_FREQ_1 =   2022-12-07T03:33:46.512   2216501597.2
RECEIVE_FREQ_1 =   2022-12-07T03:33:56.534   2216501596.0
RECEIVE_FREQ_1 =   2022-12-07T03:34:06.557   2216501595.1
RECEIVE_FREQ_1 =   2022-12-07T03:34:16.579   2216501594.0
RECEIVE_FREQ_1 =   2022-12-07T03:34:26.515   2216501592.6
RECEIVE_FREQ_1 =   2022-12-07T03:34:36.538   2216501591.5
RECEIVE_FREQ_1 =   2022-12-07T03:34:46.560   2216501590.9
RECEIVE_FREQ_1 =   2022-12-07T03:34:56.496   2216501589.2
RECEIVE_FREQ_1 =   2022-12-07T03:35:06.518   2216501588.2
RECEIVE_FREQ_1 =   2022-12-07T03:35:16.541   2216501587.3
RECEIVE_FREQ_1 =   2022-12-07T03:35:26.563   2216501586.1
RECEIVE_FREQ_1 =   2022-12-07T03:35:36.499   2216501584.8
RECEIVE_FREQ_1 =   2022-12-07T03:35:46.522   2216501584.0
RECEIVE_FREQ_1 =   2022-12-07T03:35:56.544   2216501582.5
RECEIVE_FREQ_1 =   2022-12-07T03:36:06.566   2216501581.4
RECEIVE_FREQ_1 =   2022-12-07T03:36:16.502   2216501580.4
RECEIVE_FREQ_1 =   2022-12-07T03:36:26.525   2216501579.2
RECEIVE_FREQ_1 =   2022-12-07T03:36:36.547   2216501578.2
RECEIVE_FREQ_1 =   2022-12-07T03:36:46.570   2216501577.1
RECEIVE_FREQ_1 =   2022-12-07T03:36:56.506   2216501575.8
RECEIVE_FREQ_1 =   2022-12-07T03:37:06.528   2216501574.8
RECEIVE_FREQ_1 =   2022-12-07T03:37:16.550   2216501573.7
RECEIVE_FREQ_1 =   2022-12-07T03:37:26.573   2216501572.8
RECEIVE_FREQ_1 =   2022-12-07T03:37:36.509   2216501571.4
RECEIVE_FREQ_1 =   2022-12-07T03:37:46.531   2216501570.3
RECEIVE_FREQ_1 =   2022-12-07T03:37:56.554   2216501569.3
RECEIVE_FREQ_1 =   2022-12-07T03:38:06.576   2216501567.8
RECEIVE_FREQ_1 =   2022-12-07T03:38:16.512   2216501567.0
RECEIVE_FREQ_1 =   2022-12-07T03:38:26.534   2216501566.6
RECEIVE_FREQ_1 =   2022-12-07T03:38:36.557   2216501564.8
RECEIVE_FREQ_1 =   2022-12-07T03:38:46.493   2216501563.4
RECEIVE_FREQ_1 =   2022-12-07T03:38:56.515   2216501562.1
RECEIVE_FREQ_1 =   2022-12-07T03:39:06.538   2216501560.8
RECEIVE_FREQ_1 =   2022-12-07T03:39:16.560   2216501559.8
RECEIVE_FREQ_1 =   2022-12-07T03:39:26.582   2216501558.5
RECEIVE_FREQ_1 =   2022-12-07T03:39:36.518   2216501557.3
RECEIVE_FREQ_1 =   2022-12-07T03:39:46.541   2216501556.2
RECEIVE_FREQ_1 =   2022-12-07T03:39:56.563   2216501555.1
RECEIVE_FREQ_1 =   2022-12-07T03:40:06.499   2216501554.1
RECEIVE_FREQ_1 =   2022-12-07T03:40:16.522   2216501552.8
RECEIVE_FREQ_1 =   2022-12-07T03:40:26.544   2216501551.9
RECEIVE_FREQ_1 =   2022-12-07T03:40:36.566   2216501550.4
RECEIVE_FREQ_1 =   2022-12-07T03:40:46.502   2216501549.9
RECEIVE_FREQ_1 =   2022-12-07T03:40:56.525   2216501548.1
RECEIVE_FREQ_1 =   2022-12-07T03:41:06.547   2216501547.0
RECEIVE_FREQ_1 =   2022-12-07T03:41:16.570   2216501545.8
RECEIVE_FREQ_1 =   2022-12-07T03:41:26.506   2216501544.5
RECEIVE_FREQ_1 =   2022-12-07T03:41:36.528   2216501543.7
RECEIVE_FREQ_1 =   2022-12-07T03:41:46.550   2216501542.6
RECEIVE_FREQ_1 =   2022-12-07T03:41:56.573   2216501540.9
RECEIVE_FREQ_1 =   2022-12-07T03:42:06.509   2216501540.2
RECEIVE_FREQ_1 =   2022-12-07T03:42:16.531   2216501539.0
RECEIVE_FREQ_1 =   2022-12-07T03:42:26.554   2216501538.0
RECEIVE_FREQ_1 =   2022-12-07T03:42:36.576   2216501536.1
RECEIVE_FREQ_1 =   2022-12-07T03:42:46.512   2216501535.7
RECEIVE_FREQ_1 =   2022-12-07T03:42:56.534   2216501534.0
RECEIVE_FREQ_1 =   2022-12-07T03:43:06.557   2216501533.0
RECEIVE_FREQ_1 =   2022-12-07T03:43:16.579   2216501532.0
RECEIVE_FREQ_1 =   2022-12-07T03:43:26.515   2216501530.8
RECEIVE_FREQ_1 =   2022-12-07T03:43:36.538   2216501529.3
RECEIVE_FREQ_1 =   2022-12-07T03:43:46.560   2216501528.1
RECEIVE_FREQ_1 =   2022-12-07T03:43:56.496   2216501526.9
RECEIVE_FREQ_1 =   2022-12-07T03:44:06.518   2216501525.7
RECEIVE_FREQ_1 =   2022-12-07T03:44:16.541   2216501524.7
RECEIVE_FREQ_1 =   2022-12-07T03:44:26.563   2216501523.2
RECEIVE_FREQ_1 =   2022-12-07T03:44:36.499   2216501522.2
RECEIVE_FREQ_1 =   2022-12-07T03:44:46.522   2216501521.2
RECEIVE_FREQ_1 =   2022-12-07T03:44:56.544   2216501519.7
RECEIVE_FREQ_1 =   2022-12-07T03:45:06.566   2216501518.4
RECEIVE_FREQ_1 =   2022-12-07T03:45:16.502   2216501517.5
RECEIVE_FREQ_1 =   2022-12-07T03:45:26.525   2216501515.9
RECEIVE_FREQ_1 =   2022-12-07T03:45:36.547   2216501515.1
RECEIVE_FREQ_1 =   2022-12-07T03:45:46.570   2216501513.9
RECEIVE_FREQ_1 =   2022-12-07T03:45:56.506   2216501512.7
RECEIVE_FREQ_1 =   2022-12-07T03:46:06.528   2216501511.7
RECEIVE_FREQ_1 =   2022-12-07T03:46:16.550   2216501510.3
RECEIVE_FREQ_1 =   2022-12-07T03:46:26.573   2216501508.8
RECEIVE_FREQ_1 =   2022-12-07T03:46:36.509   2216501507.7
RECEIVE_FREQ_1 =   2022-12-07T03:46:46.531   2216501506.6
RECEIVE_FREQ_1 =   2022-12-07T03:46:56.554   2216501505.6
RECEIVE_FREQ_1 =   2022-12-07T03:47:06.576   2216501504.0
RECEIVE_FREQ_1 =   2022-12-07T03:47:16.512   2216501503.3
RECEIVE_FREQ_1 =   2022-12-07T03:47:26.534   2216501501.8
RECEIVE_FREQ_1 =   2022-12-07T03:47:36.557   2216501500.2
RECEIVE_FREQ_1 =   2022-12-07T03:47:46.579   2216501499.3
RECEIVE_FREQ_1 =   2022-12-07T03:47:56.515   2216501498.4
RECEIVE_FREQ_1 =   2022-12-07T03:48:06.538   2216501497.3
RECEIVE_FREQ_1 =   2022-12-07T03:48:16.560   2216501496.4
RECEIVE_FREQ_1 =   2022-12-07T03:48:26.582   2216501494.9
RECEIVE_FREQ_1 =   2022-12-07T03:48:36.518   2216501493.7
RECEIVE_FREQ_1 =   2022-12-07T03:48:46.541   2216501493.1
RECEIVE_FREQ_1 =   2022-12-07T03:48:56.563   2216501491.4
RECEIVE_FREQ_1 =   2022-12-07T03:49:16.522   2216501489.6
RECEIVE_FREQ_1 =   2022-12-07T03:49:26.544   2216501488.0
RECEIVE_FREQ_1 =   2022-12-07T03:49:36.566   2216501486.6
RECEIVE_FREQ_1 =   2022-12-07T03:49:46.502   2216501486.0
RECEIVE_FREQ_1 =   2022-12-07T03:49:56.525   2216501484.9
RECEIVE_FREQ_1 =   2022-12-07T03:50:06.547   2216501483.7
RECEIVE_FREQ_1 =   2022-12-07T03:50:16.570   2216501482.6
RECEIVE_FREQ_1 =   2022-12-07T03:50:26.506   2216501481.3
RECEIVE_FREQ_1 =   2022-12-07T03:50:36.528   2216501480.2
RECEIVE_FREQ_1 =   2022-12-07T03:50:46.550   2216501479.1
RECEIVE_FREQ_1 =   2022-12-07T03:50:56.573   2216501477.7
RECEIVE_FREQ_1 =   2022-12-07T03:51:06.509   2216501476.9
RECEIVE_FREQ_1 =   2022-12-07T03:51:16.531   2216501475.6
RECEIVE_FREQ_1 =   2022-12-07T03:51:26.554   2216501474.5
RECEIVE_FREQ_1 =   2022-12-07T03:51:36.576   2216501473.4
RECEIVE_FREQ_1 =   2022-12-07T03:51:46.512   2216501472.2
RECEIVE_FREQ_1 =   2022-12-07T03:51:56.534   2216501471.3
RECEIVE_FREQ_1 =   2022-12-07T03:52:06.557   2216501469.9
RECEIVE_FREQ_1 =   2022-12-07T03:52:16.579   2216501468.5
RECEIVE_FREQ_1 =   2022-12-07T03:52:26.515   2216501467.6
RECEIVE_FREQ_1 =   2022-12-07T03:52:36.538   2216501466.5
RECEIVE_FREQ_1 =   2022-12-07T03:52:46.560   2216501465.5
RECEIVE_FREQ_1 =   2022-12-07T03:52:56.496   2216501464.1
RECEIVE_FREQ_1 =   2022-12-07T03:53:06.518   2216501462.9
RECEIVE_FREQ_1 =   2022-12-07T03:53:16.541   2216501461.8
RECEIVE_FREQ_1 =   2022-12-07T03:53:26.563   2216501460.8
RECEIVE_FREQ_1 =   2022-12-07T03:53:36.499   2216501459.7
RECEIVE_FREQ_1 =   2022-12-07T03:53:46.522   2216501458.4
RECEIVE_FREQ_1 =   2022-12-07T03:53:56.544   2216501457.1
RECEIVE_FREQ_1 =   2022-12-07T03:54:06.566   2216501456.3
RECEIVE_FREQ_1 =   2022-12-07T03:54:16.502   2216501454.5
RECEIVE_FREQ_1 =   2022-12-07T03:54:26.525   2216501453.9
RECEIVE_FREQ_1 =   2022-12-07T03:54:36.547   2216501452.8
RECEIVE_FREQ_1 =   2022-12-07T03:54:46.570   2216501451.2
RECEIVE_FREQ_1 =   2022-12-07T03:54:56.506   2216501450.2
RECEIVE_FREQ_1 =   2022-12-07T03:55:06.528   2216501448.9
RECEIVE_FREQ_1 =   2022-12-07T03:55:16.550   2216501447.6
RECEIVE_FREQ_1 =   2022-12-07T03:55:26.573   2216501446.8
RECEIVE_FREQ_1 =   2022-12-07T03:55:36.509   2216501445.4
RECEIVE_FREQ_1 =   2022-12-07T03:55:46.531   2216501444.6
RECEIVE_FREQ_1 =   2022-12-07T03:55:56.554   2216501442.9
RECEIVE_FREQ_1 =   2022-12-07T03:56:06.576   2216501442.0
RECEIVE_FREQ_1 =   2022-12-07T03:56:16.512   2216501440.7
RECEIVE_FREQ_1 =   2022-12-07T03:56:26.534   2216501439.6
RECEIVE_FREQ_1 =   2022-12-07T03:56:36.557   2216501438.3
RECEIVE_FREQ_1 =   2022-12-07T03:56:46.579   2216501437.3
RECEIVE_FREQ_1 =   2022-12-07T03:56:56.515   2216501436.1
RECEIVE_FREQ_1 =   2022-12-07T03:57:06.538   2216501434.7
RECEIVE_FREQ_1 =   2022-12-07T03:57:16.560   2216501433.5
RECEIVE_FREQ_1 =   2022-12-07T03:57:26.582   2216501432.4
RECEIVE_FREQ_1 =   2022-12-07T03:57:36.518   2216501431.0
RECEIVE_FREQ_1 =   2022-12-07T03:57:46.541   2216501430.1
RECEIVE_FREQ_1 =   2022-12-07T03:57:56.563   2216501428.6
RECEIVE_FREQ_1 =   2022-12-07T03:58:06.499   2216501427.8
RECEIVE_FREQ_1 =   2022-12-07T03:58:16.522   2216501426.8
RECEIVE_FREQ_1 =   2022-12-07T03:58:26.544   2216501425.4
RECEIVE_FREQ_1 =   2022-12-07T03:58:36.566   2216501423.9
RECEIVE_FREQ_1 =   2022-12-07T03:58:46.502   2216501422.9
RECEIVE_FREQ_1 =   2022-12-07T03:58:56.525   2216501421.6
RECEIVE_FREQ_1 =   2022-12-07T03:59:06.547   2216501420.3
RECEIVE_FREQ_1 =   2022-12-07T03:59:16.570   2216501419.3
RECEIVE_FREQ_1 =   2022-12-07T03:59:26.506   2216501417.8
RECEIVE_FREQ_1 =   2022-12-07T03:59:36.528   2216501417.0
RECEIVE_FREQ_1 =   2022-12-07T03:59:46.550   2216501415.6
RECEIVE_FREQ_1 =   2022-12-07T03:59:56.573   2216501414.5
RECEIVE_FREQ_1 =   2022-12-07T04:00:06.509   2216501413.1
RECEIVE_FREQ_1 =   2022-12-07T04:00:16.531   2216501412.1
RECEIVE_FREQ_1 =   2022-12-07T04:00:26.554   2216501410.8
RECEIVE_FREQ_1 =   2022-12-07T04:00:36.576   2216501409.5
RECEIVE_FREQ_1 =   2022-12-07T04:00:46.512   2216501408.3
RECEIVE_FREQ_1 =   2022-12-07T04:00:56.534   2216501407.0
RECEIVE_FREQ_1 =   2022-12-07T04:01:06.557   2216501406.2
RECEIVE_FREQ_1 =   2022-12-07T04:01:16.579   2216501404.8
RECEIVE_FREQ_1 =   2022-12-07T04:01:36.538   2216501402.5
RECEIVE_FREQ_1 =   2022-12-07T04:01:46.560   2216501400.8
RECEIVE_FREQ_1 =   2022-12-07T04:01:56.582   2216501399.8
RECEIVE_FREQ_1 =   2022-12-07T04:02:06.518   2216501398.8
RECEIVE_FREQ_1 =   2022-12-07T04:02:16.541   2216501397.3
RECEIVE_FREQ_1 =   2022-12-07T04:02:26.563   2216501396.2
RECEIVE_FREQ_1 =   2022-12-07T04:02:36.586   2216501395.0
RECEIVE_FREQ_1 =   2022-12-07T04:02:46.522   2216501393.8
RECEIVE_FREQ_1 =   2022-12-07T04:02:56.544   2216501392.4
RECEIVE_FREQ_1 =   2022-12-07T04:03:06.566   2216501391.3
RECEIVE_FREQ_1 =   2022-12-07T04:03:16.589   2216501390.3
RECEIVE_FREQ_1 =   2022-12-07T04:03:26.525   2216501388.6
RECEIVE_FREQ_1 =   2022-12-07T04:03:36.547   2216501387.9
RECEIVE_FREQ_1 =   2022-12-07T04:03:46.570   2216501386.5
RECEIVE_FREQ_1 =   2022-12-07T04:03:56.506   2216501385.3
RECEIVE_FREQ_1 =   2022-12-07T04:04:06.528   2216501384.1
RECEIVE_FREQ_1 =   2022-12-07T04:04:16.550   2216501382.4
RECEIVE_FREQ_1 =   2022-12-07T04:04:26.573   2216501381.3
RECEIVE_FREQ_1 =   2022-12-07T04:04:36.509   2216501380.1
RECEIVE_FREQ_1 =   2022-12-07T04:04:46.531   2216501379.0
RECEIVE_FREQ_1 =   2022-12-07T04:04:56.554   2216501377.3
RECEIVE_FREQ_1 =   2022-12-07T04:05:06.576   2216501376.3
RECEIVE_FREQ_1 =   2022-12-07T04:05:16.512   2216501375.1
RECEIVE_FREQ_1 =   2022-12-07T04:05:26.534   2216501373.8
RECEIVE_FREQ_1 =   2022-12-07T04:05:36.557   2216501372.5
RECEIVE_FREQ_1 =   2022-12-07T04:05:46.579   2216501371.3
RECEIVE_FREQ_1 =   2022-12-07T04:05:56.515   2216501370.0
RECEIVE_FREQ_1 =   2022-12-07T04:06:06.538   2216501368.7
RECEIVE_FREQ_1 =   2022-12-07T04:06:16.560   2216501367.5
RECEIVE_FREQ_1 =   2022-12-07T04:06:26.582   2216501366.4
RECEIVE_FREQ_1 =   2022-12-07T04:06:36.518   2216501365.1
RECEIVE_FREQ_1 =   2022-12-07T04:06:46.541   2216501364.0
RECEIVE_FREQ_1 =   2022-12-07T04:06:56.563   2216501362.7
RECEIVE_FREQ_1 =   2022-12-07T04:07:06.586   2216501361.3
RECEIVE_FREQ_1 =   2022-12-07T04:07:16.522   2216501360.1
RECEIVE_FREQ_1 =   2022-12-07T04:07:26.544   2216501358.8
RECEIVE_FREQ_1 =   2022-12-07T04:07:36.566   2216501357.8
RECEIVE_FREQ_1 =   2022-12-07T04:07:46.502   2216501356.2
RECEIVE_FREQ_1 =   2022-12-07T04:07:56.525   2216501355.0
RECEIVE_FREQ_1 =   2022-12-07T04:08:06.547   2216501353.9
RECEIVE_FREQ_1 =   2022-12-07T04:08:16.570   2216501352.6
RECEIVE_FREQ_1 =   2022-12-07T04:08:26.506   2216501351.4
RECEIVE_FREQ_1 =   2022-12-07T04:08:36.614   2216501350.2
RECEIVE_FREQ_1 =   2022-12-07T04:08:46.550   2216501348.8
RECEIVE_FREQ_1 =   2022-12-07T04:08:56.573   2216501347.2
RECEIVE_FREQ_1 =   2022-12-07T04:09:06.595   2216501346.0
RECEIVE_FREQ_1 =   2022-12-07T04:09:16.531   2216501344.9
RECEIVE_FREQ_1 =   2022-12-07T04:09:26.554   2216501343.5
RECEIVE_FREQ_1 =   2022-12-07T04:09:36.576   2216501342.3
RECEIVE_FREQ_1 =   2022-12-07T04:09:46.512   2216501341.1
RECEIVE_FREQ_1 =   2022-12-07T04:09:56.534   2216501339.9
RECEIVE_FREQ_1 =   2022-12-07T04:10:06.557   2216501338.3
RECEIVE_FREQ_1 =   2022-12-07T04:10:16.579   2216501337.2
RECEIVE_FREQ_1 =   2022-12-07T04:10:26.602   2216501336.3
RECEIVE_FREQ_1 =   2022-12-07T04:10:36.538   2216501334.4
RECEIVE_FREQ_1 =   2022-12-07T04:10:46.560   2216501333.4
RECEIVE_FREQ_1 =   2022-12-07T04:10:56.582   2216501332.2
RECEIVE_FREQ_1 =   2022-12-07T04:11:06.518   2216501330.6
RECEIVE_FREQ_1 =   2022-12-07T04:11:16.541   2216501329.5
RECEIVE_FREQ_1 =   2022-12-07T04:11:26.563   2216501328.2
RECEIVE_FREQ_1 =   2022-12-07T04:11:36.586   2216501327.1
RECEIVE_FREQ_1 =   2022-12-07T04:11:46.522   2216501325.5
RECEIVE_FREQ_1 =   2022-12-07T04:11:56.544   2216501324.4
RECEIVE_FREQ_1 =   2022-12-07T04:12:06.566   2216501323.4
RECEIVE_FREQ_1 =   2022-12-07T04:12:16.589   2216501321.6
RECEIVE_FREQ_1 =   2022-12-07T04:12:26.525   2216501320.6
RECEIVE_FREQ_1 =   2022-12-07T04:12:36.547   2216501319.2
RECEIVE_FREQ_1 =   2022-12-07T04:12:46.570   2216501318.1
RECEIVE_FREQ_1 =   2022-12-07T04:12:56.506   2216501316.4
RECEIVE_FREQ_1 =   2022-12-07T04:13:26.573   2216501312.5
RECEIVE_FREQ_1 =   2022-12-07T04:13:36.509   2216501311.3
RECEIVE_FREQ_1 =   2022-12-07T04:13:56.554   2216501308.6
RECEIVE_FREQ_1 =   2022-12-07T04:14:06.576   2216501307.3
RECEIVE_FREQ_1 =   2022-12-07T04:14:16.512   2216501306.6
RECEIVE_FREQ_1 =   2022-12-07T04:14:26.534   2216501304.8
RECEIVE_FREQ_1 =   2022-12-07T04:14:36.557   2216501303.6
RECEIVE_FREQ_1 =   2022-12-07T04:14:46.579   2216501302.0
RECEIVE_FREQ_1 =   2022-12-07T04:14:56.515   2216501301.0
RECEIVE_FREQ_1 =   2022-12-07T04:15:06.538   2216501299.7
RECEIVE_FREQ_1 =   2022-12-07T04:15:16.560   2216501298.5
RECEIVE_FREQ_1 =   2022-12-07T04:15:26.582   2216501296.9
RECEIVE_FREQ_1 =   2022-12-07T04:15:36.518   2216501295.5
RECEIVE_FREQ_1 =   2022-12-07T04:15:46.541   2216501294.8
RECEIVE_FREQ_1 =   2022-12-07T04:15:56.563   2216501293.0
RECEIVE_FREQ_1 =   2022-12-07T04:16:16.522   2216501290.3
RECEIVE_FREQ_1 =   2022-12-07T04:16:26.544   2216501289.3
RECEIVE_FREQ_1 =   2022-12-07T04:16:36.566   2216501288.6
RECEIVE_FREQ_1 =   2022-12-07T04:16:46.502   2216501286.7
RECEIVE_FREQ_1 =   2022-12-07T04:16:56.525   2216501285.7
RECEIVE_FREQ_1 =   2022-12-07T04:17:06.547   2216501284.9
RECEIVE_FREQ_1 =   2022-12-07T04:17:16.570   2216501283.5
RECEIVE_FREQ_1 =   2022-12-07T04:17:26.592   2216501282.1
RECEIVE_FREQ_1 =   2022-12-07T04:17:36.528   2216501281.2
RECEIVE_FREQ_1 =   2022-12-07T04:17:56.573   2216501278.6
RECEIVE_FREQ_1 =   2022-12-07T04:18:06.509   2216501277.1
RECEIVE_FREQ_1 =   2022-12-07T04:18:16.531   2216501276.1
RECEIVE_FREQ_1 =   2022-12-07T04:18:26.554   2216501274.5
RECEIVE_FREQ_1 =   2022-12-07T04:18:36.576   2216501273.3
RECEIVE_FREQ_1 =   2022-12-07T04:18:46.512   2216501272.7
RECEIVE_FREQ_1 =   2022-12-07T04:18:56.534   2216501270.9
RECEIVE_FREQ_1 =   2022-12-07T04:19:06.557   2216501269.8
RECEIVE_FREQ_1 =   2022-12-07T04:19:16.579   2216501268.4
RECEIVE_FREQ_1 =   2022-12-07T04:19:26.515   2216501267.1
RECEIVE_FREQ_1 =   2022-12-07T04:19:36.538   2216501266.1
RECEIVE_FREQ_1 =   2022-12-07T04:19:46.560   2216501264.8
RECEIVE_FREQ_1 =   2022-12-07T04:19:56.582   2216501263.7
RECEIVE_FREQ_1 =   2022-12-07T04:20:16.541   2216501260.8
RECEIVE_FREQ_1 =   2022-12-07T04:20:26.563   2216501260.0
RECEIVE_FREQ_1 =   2022-12-07T04:20:46.522   2216501257.2
RECEIVE_FREQ_1 =   2022-12-07T04:20:56.544   2216501256.1
RECEIVE_FREQ_1 =   2022-12-07T04:21:06.566   2216501254.5
RECEIVE_FREQ_1 =   2022-12-07T04:21:16.589   2216501253.0
RECEIVE_FREQ_1 =   2022-12-07T04:21:26.525   2216501252.2
RECEIVE_FREQ_1 =   2022-12-07T04:21:36.547   2216501251.3
RECEIVE_FREQ_1 =   2022-12-07T04:21:46.570   2216501249.8
RECEIVE_FREQ_1 =   2022-12-07T04:21:56.592   2216501248.4
RECEIVE_FREQ_1 =   2022-12-07T04:22:06.614   2216501247.3
RECEIVE_FREQ_1 =   2022-12-07T04:22:16.550   2216501245.9
RECEIVE_FREQ_1 =   2022-12-07T04:22:26.573   2216501244.8
RECEIVE_FREQ_1 =   2022-12-07T04:22:36.509   2216501243.6
RECEIVE_FREQ_1 =   2022-12-07T04:22:46.531   2216501242.2
RECEIVE_FREQ_1 =   2022-12-07T04:22:56.554   2216501241.0
RECEIVE_FREQ_1 =   2022-12-07T04:23:06.576   2216501239.8
RECEIVE_FREQ_1 =   2022-12-07T04:23:16.512   2216501238.4
RECEIVE_FREQ_1 =   2022-12-07T04:23:26.534   2216501237.4
RECEIVE_FREQ_1 =   2022-12-07T04:23:36.557   2216501235.9
RECEIVE_FREQ_1 =   2022-12-07T04:23:46.579   2216501234.8
RECEIVE_FREQ_1 =   2022-12-07T04:23:56.515   2216501233.1
RECEIVE_FREQ_1 =   2022-12-07T04:24:06.538   2216501232.5
RECEIVE_FREQ_1 =   2022-12-07T04:24:16.560   2216501230.7
RECEIVE_FREQ_1 =   2022-12-07T04:24:26.582   2216501229.5
RECEIVE_FREQ_1 =   2022-12-07T04:24:46.541   2216501227.1
RECEIVE_FREQ_1 =   2022-12-07T04:24:56.563   2216501225.6
RECEIVE_FREQ_1 =   2022-12-07T04:25:06.586   2216501224.1
RECEIVE_FREQ_1 =   2022-12-07T04:25:16.522   2216501223.0
RECEIVE_FREQ_1 =   2022-12-07T04:25:26.544   2216501221.9
RECEIVE_FREQ_1 =   2022-12-07T04:25:36.566   2216501220.7
RECEIVE_FREQ_1 =   2022-12-07T04:25:46.502   2216501219.4
RECEIVE_FREQ_1 =   2022-12-07T04:25:56.525   2216501218.1
RECEIVE_FREQ_1 =   2022-12-07T04:26:06.547   2216501216.8
RECEIVE_FREQ_1 =   2022-12-07T04:26:16.570   2216501215.5
RECEIVE_FREQ_1 =   2022-12-07T04:26:26.592   2216501214.1
RECEIVE_FREQ_1 =   2022-12-07T04:26:36.528   2216501212.5
RECEIVE_FREQ_1 =   2022-12-07T04:26:46.550   2216501211.6
RECEIVE_FREQ_1 =   2022-12-07T04:26:56.573   2216501210.3
RECEIVE_FREQ_1 =   2022-12-07T04:27:16.531   2216501207.6
RECEIVE_FREQ_1 =   2022-12-07T04:27:26.554   2216501206.6
RECEIVE_FREQ_1 =   2022-12-07T04:27:36.576   2216501205.1
RECEIVE_FREQ_1 =   2022-12-07T04:27:46.512   2216501203.8
RECEIVE_FREQ_1 =   2022-12-07T04:27:56.534   2216501202.5
RECEIVE_FREQ_1 =   2022-12-07T04:28:06.557   2216501201.5
RECEIVE_FREQ_1 =   2022-12-07T04:28:16.579   2216501199.6
RECEIVE_FREQ_1 =   2022-12-07T04:28:26.515   2216501198.7
RECEIVE_FREQ_1 =   2022-12-07T04:28:36.538   2216501197.3
RECEIVE_FREQ_1 =   2022-12-07T04:28:46.560   2216501196.1
RECEIVE_FREQ_1 =   2022-12-07T04:28:56.582   2216501194.8
RECEIVE_FREQ_1 =   2022-12-07T04:29:06.518   2216501193.4
RECEIVE_FREQ_1 =   2022-12-07T04:29:16.541   2216501192.3
RECEIVE_FREQ_1 =   2022-12-07T04:29:26.563   2216501190.5
RECEIVE_FREQ_1 =   2022-12-07T04:29:36.499   2216501189.5
RECEIVE_FREQ_1 =   2022-12-07T04:29:46.522   2216501188.1
RECEIVE_FREQ_1 =   2022-12-07T04:29:56.544   2216501186.9
RECEIVE_FREQ_1 =   2022-12-07T04:30:06.566   2216501185.7
RECEIVE_FREQ_1 =   2022-12-07T04:30:16.502   2216501184.1
RECEIVE_FREQ_1 =   2022-12-07T04:30:26.525   2216501183.3
RECEIVE_FREQ_1 =   2022-12-07T04:30:36.547   2216501181.6
RECEIVE_FREQ_1 =   2022-12-07T04:30:46.570   2216501180.1
RECEIVE_FREQ_1 =   2022-12-07T04:30:56.592   2216501179.2
RECEIVE_FREQ_1 =   2022-12-07T04:31:06.528   2216501177.8
RECEIVE_FREQ_1 =   2022-12-07T04:31:16.550   2216501176.3
RECEIVE_FREQ_1 =   2022-12-07T04:31:26.573   2216501174.9
RECEIVE_FREQ_1 =   2022-12-07T04:31:36.509   2216501173.9
RECEIVE_FREQ_1 =   2022-12-07T04:31:46.531   2216501172.6
RECEIVE_FREQ_1 =   2022-12-07T04:31:56.554   2216501171.1
RECEIVE_FREQ_1 =   2022-12-07T04:32:06.576   2216501169.9
RECEIVE_FREQ_1 =   2022-12-07T04:32:16.512   2216501168.4
RECEIVE_FREQ_1 =   2022-12-07T04:32:26.534   2216501167.1
RECEIVE_FREQ_1 =   2022-12-07T04:32:36.557   2216501166.2
RECEIVE_FREQ_1 =   2022-12-07T04:32:46.579   2216501164.4
RECEIVE_FREQ_1 =   2022-12-07T04:32:56.602   2216501163.3
RECEIVE_FREQ_1 =   2022-12-07T04:33:06.538   2216501162.1
RECEIVE_FREQ_1 =   2022-12-07T04:33:16.560   2216501160.6
RECEIVE_FREQ_1 =   2022-12-07T04:33:26.582   2216501159.5
RECEIVE_FREQ_1 =   2022-12-07T04:33:36.518   2216501158.1
RECEIVE_FREQ_1 =   2022-12-07T04:33:46.541   2216501156.7
RECEIVE_FREQ_1 =   2022-12-07T04:33:56.563   2216501155.1
RECEIVE_FREQ_1 =   2022-12-07T04:34:06.586   2216501154.0
RECEIVE_FREQ_1 =   2022-12-07T04:34:16.522   2216501152.9
RECEIVE_FREQ_1 =   2022-12-07T04:34:26.544   2216501151.5
RECEIVE_FREQ_1 =   2022-12-07T04:34:36.566   2216501150.1
RECEIVE_FREQ_1 =   2022-12-07T04:34:46.589   2216501148.7
RECEIVE_FREQ_1 =   2022-12-07T04:34:56.525   2216501147.3
RECEIVE_FREQ_1 =   2022-12-07T04:35:06.547   2216501146.6
RECEIVE_FREQ_1 =   2022-12-07T04:35:16.570   2216501144.6
RECEIVE_FREQ_1 =   2022-12-07T04:35:26.506   2216501143.6
RECEIVE_FREQ_1 =   2022-12-07T04:35:46.550   2216501140.6
RECEIVE_FREQ_1 =   2022-12-07T04:35:56.573   2216501139.2
RECEIVE_FREQ_1 =   2022-12-07T04:36:06.509   2216501138.2
RECEIVE_FREQ_1 =   2022-12-07T04:36:16.531   2216501136.8
RECEIVE_FREQ_1 =   2022-12-07T04:36:26.554   2216501135.7
RECEIVE_FREQ_1 =   2022-12-07T04:36:36.576   2216501134.0
RECEIVE_FREQ_1 =   2022-12-07T04:36:46.512   2216501132.7
RECEIVE_FREQ_1 =   2022-12-07T04:36:56.534   2216501131.3
RECEIVE_FREQ_1 =   2022-12-07T04:37:06.557   2216501130.1
RECEIVE_FREQ_1 =   2022-12-07T04:37:16.579   2216501128.7
RECEIVE_FREQ_1 =   2022-12-07T04:37:26.515   2216501127.3
RECEIVE_FREQ_1 =   2022-12-07T04:37:36.538   2216501126.9
RECEIVE_FREQ_1 =   2022-12-07T04:37:46.560   2216501124.6
RECEIVE_FREQ_1 =   2022-12-07T04:37:56.582   2216501123.5
RECEIVE_FREQ_1 =   2022-12-07T04:38:06.518   2216501122.3
RECEIVE_FREQ_1 =   2022-12-07T04:38:16.541   2216501120.7
RECEIVE_FREQ_1 =   2022-12-07T04:38:26.563   2216501119.4
RECEIVE_FREQ_1 =   2022-12-07T04:38:36.499   2216501118.0
RECEIVE_FREQ_1 =   2022-12-07T04:38:46.522   2216501116.9
RECEIVE_FREQ_1 =   2022-12-07T04:38:56.544   2216501115.2
RECEIVE_FREQ_1 =   2022-12-07T04:39:06.566   2216501114.2
RECEIVE_FREQ_1 =   2022-12-07T04:39:16.589   2216501112.8
RECEIVE_FREQ_1 =   2022-12-07T04:39:26.525   2216501111.3
RECEIVE_FREQ_1 =   2022-12-07T04:39:36.547   2216501110.3
RECEIVE_FREQ_1 =   2022-12-07T04:40:06.528   2216501105.9
RECEIVE_FREQ_1 =   2022-12-07T04:40:16.550   2216501104.6
RECEIVE_FREQ_1 =   2022-12-07T04:40:26.573   2216501102.9
RECEIVE_FREQ_1 =   2022-12-07T04:40:36.509   2216501102.0
RECEIVE_FREQ_1 =   2022-12-07T04:40:56.554   2216501099.3
RECEIVE_FREQ_1 =   2022-12-07T04:41:16.512   2216501096.5
RECEIVE_FREQ_1 =   2022-12-07T04:41:36.557   2216501093.7
RECEIVE_FREQ_1 =   2022-12-07T04:41:46.579   2216501092.4
RECEIVE_FREQ_1 =   2022-12-07T04:42:46.541   2216501084.4
RECEIVE_FREQ_1 =   2022-12-07T04:42:56.563   2216501082.9
RECEIVE_FREQ_1 =   2022-12-07T04:43:16.522   2216501080.0
RECEIVE_FREQ_1 =   2022-12-07T04:43:36.566   2216501077.4
RECEIVE_FREQ_1 =   2022-12-07T04:43:56.525   2216501074.8
RECEIVE_FREQ_1 =   2022-12-07T04:44:06.547   2216501073.7
RECEIVE_FREQ_1 =   2022-12-07T04:44:16.570   2216501071.6
RECEIVE_FREQ_1 =   2022-12-07T04:44:26.506   2216501070.6
RECEIVE_FREQ_1 =   2022-12-07T04:44:36.528   2216501069.2
RECEIVE_FREQ_1 =   2022-12-07T04:44:46.550   2216501067.7
RECEIVE_FREQ_1 =   2022-12-07T04:44:56.573   2216501066.5
RECEIVE_FREQ_1 =   2022-12-07T04:45:06.509   2216501065.0
RECEIVE_FREQ_1 =   2022-12-07T04:45:16.531   2216501063.7
RECEIVE_FREQ_1 =   2022-12-07T04:45:36.576   2216501061.0
RECEIVE_FREQ_1 =   2022-12-07T04:45:56.534   2216501058.3
RECEIVE_FREQ_1 =   2022-12-07T04:46:06.557   2216501056.3
RECEIVE_FREQ_1 =   2022-12-07T04:46:16.579   2216501055.5
RECEIVE_FREQ_1 =   2022-12-07T04:46:26.515   2216501053.7
RECEIVE_FREQ_1 =   2022-12-07T04:46:36.538   2216501052.8
RECEIVE_FREQ_1 =   2022-12-07T04:46:46.560   2216501051.2
RECEIVE_FREQ_1 =   2022-12-07T04:46:56.496   2216501050.2
RECEIVE_FREQ_1 =   2022-12-07T04:47:06.518   2216501048.1
RECEIVE_FREQ_1 =   2022-12-07T04:47:16.541   2216501047.2
RECEIVE_FREQ_1 =   2022-12-07T04:47:26.563   2216501046.0
RECEIVE_FREQ_1 =   2022-12-07T04:47:56.544   2216501041.6
RECEIVE_FREQ_1 =   2022-12-07T04:48:06.566   2216501040.2
RECEIVE_FREQ_1 =   2022-12-07T04:48:16.589   2216501038.5
RECEIVE_FREQ_1 =   2022-12-07T04:48:26.525   2216501037.3
RECEIVE_FREQ_1 =   2022-12-07T04:48:36.547   2216501036.1
RECEIVE_FREQ_1 =   2022-12-07T04:48:46.570   2216501034.6
RECEIVE_FREQ_1 =   2022-12-07T04:48:56.506   2216501033.4
RECEIVE_FREQ_1 =   2022-12-07T04:49:06.528   2216501031.8
RECEIVE_FREQ_1 =   2022-12-07T04:49:16.550   2216501030.3
RECEIVE_FREQ_1 =   2022-12-07T04:49:26.573   2216501028.9
RECEIVE_FREQ_1 =   2022-12-07T04:49:36.509   2216501027.3
RECEIVE_FREQ_1 =   2022-12-07T04:49:46.531   2216501026.5
RECEIVE_FREQ_1 =   2022-12-07T04:49:56.554   2216501025.1
RECEIVE_FREQ_1 =   2022-12-07T04:50:16.512   2216501022.2
RECEIVE_FREQ_1 =   2022-12-07T04:50:36.557   2216501019.2
RECEIVE_FREQ_1 =   2022-12-07T04:50:46.579   2216501017.9
RECEIVE_FREQ_1 =   2022-12-07T04:50:56.515   2216501016.7
RECEIVE_FREQ_1 =   2022-12-07T04:51:06.538   2216501015.4
RECEIVE_FREQ_1 =   2022-12-07T04:51:16.560   2216501013.8
RECEIVE_FREQ_1 =   2022-12-07T04:51:26.582   2216501012.5
RECEIVE_FREQ_1 =   2022-12-07T04:51:36.518   2216501011.3
RECEIVE_FREQ_1 =   2022-12-07T04:51:46.541   2216501010.1
RECEIVE_FREQ_1 =   2022-12-07T04:51:56.563   2216501008.7
RECEIVE_FREQ_1 =   2022-12-07T04:52:06.586   2216501007.2
RECEIVE_FREQ_1 =   2022-12-07T04:52:36.566   2216501003.1
RECEIVE_FREQ_1 =   2022-12-07T04:52:56.525   2216501000.6
RECEIVE_FREQ_1 =   2022-12-07T04:53:06.547   2216500998.9
RECEIVE_FREQ_1 =   2022-12-07T04:53:16.570   2216500997.9
RECEIVE_FREQ_1 =   2022-12-07T04:53:26.592   2216500996.4
RECEIVE_FREQ_1 =   2022-12-07T04:53:36.528   2216500995.0
RECEIVE_FREQ_1 =   2022-12-07T04:53:46.550   2216500994.0
RECEIVE_FREQ_1 =   2022-12-07T04:53:56.573   2216500992.9
RECEIVE_FREQ_1 =   2022-12-07T04:54:16.531   2216500989.5
RECEIVE_FREQ_1 =   2022-12-07T04:54:46.512   2216500985.8
RECEIVE_FREQ_1 =   2022-12-07T04:54:56.534   2216500984.5
RECEIVE_FREQ_1 =   2022-12-07T04:55:06.557   2216500983.1
RECEIVE_FREQ_1 =   2022-12-07T04:55:16.579   2216500981.7
RECEIVE_FREQ_1 =   2022-12-07T04:55:26.515   2216500980.4
RECEIVE_FREQ_1 =   2022-12-07T04:55:36.538   2216500979.4
RECEIVE_FREQ_1 =   2022-12-07T04:55:46.560   2216500977.7
RECEIVE_FREQ_1 =   2022-12-07T04:56:06.518   2216500974.9
RECEIVE_FREQ_1 =   2022-12-07T04:56:16.541   2216500973.6
RECEIVE_FREQ_1 =   2022-12-07T04:56:26.563   2216500972.2
RECEIVE_FREQ_1 =   2022-12-07T04:56:36.586   2216500970.6
RECEIVE_FREQ_1 =   2022-12-07T04:56:46.522   2216500969.8
RECEIVE_FREQ_1 =   2022-12-07T04:57:16.589   2216500965.4
RECEIVE_FREQ_1 =   2022-12-07T04:57:26.525   2216500963.5
RECEIVE_FREQ_1 =   2022-12-07T04:57:36.547   2216500962.7
RECEIVE_FREQ_1 =   2022-12-07T04:57:46.570   2216500961.5
RECEIVE_FREQ_1 =   2022-12-07T04:58:16.550   2216500957.5
RECEIVE_FREQ_1 =   2022-12-07T04:58:26.573   2216500956.0
RECEIVE_FREQ_1 =   2022-12-07T04:58:36.509   2216500954.4
RECEIVE_FREQ_1 =   2022-12-07T04:58:46.531   2216500953.0
RECEIVE_FREQ_1 =   2022-12-07T04:58:56.554   2216500951.6
RECEIVE_FREQ_1 =   2022-12-07T04:59:06.576   2216500950.3
RECEIVE_FREQ_1 =   2022-12-07T04:59:16.512   2216500949.2
RECEIVE_FREQ_1 =   2022-12-07T04:59:26.534   2216500948.0
RECEIVE_FREQ_1 =   2022-12-07T04:59:36.557   2216500946.4
RECEIVE_FREQ_1 =   2022-12-07T04:59:56.602   2216500943.3
RECEIVE_FREQ_1 =   2022-12-07T05:00:06.538   2216500942.4
RECEIVE_FREQ_1 =   2022-12-07T05:00:16.560   2216500940.5
RECEIVE_FREQ_1 =   2022-12-07T05:00:26.582   2216500939.6
RECEIVE_FREQ_1 =   2022-12-07T05:00:46.541   2216500936.9
RECEIVE_FREQ_1 =   2022-12-07T05:00:56.563   2216500937.1
RECEIVE_FREQ_1 =   2022-12-07T05:01:06.586   2216500933.9
RECEIVE_FREQ_1 =   2022-12-07T05:01:36.566   2216500929.7
RECEIVE_FREQ_1 =   2022-12-07T05:01:56.525   2216500927.2
RECEIVE_FREQ_1 =   2022-12-07T05:02:16.570   2216500924.6
RECEIVE_FREQ_1 =   2022-12-07T05:02:26.592   2216500923.1
RECEIVE_FREQ_1 =   2022-12-07T05:02:46.550   2216500920.2
RECEIVE_FREQ_1 =   2022-12-07T05:02:56.573   2216500918.7
RECEIVE_FREQ_1 =   2022-12-07T05:03:06.595   2216500917.3
RECEIVE_FREQ_1 =   2022-12-07T05:03:16.531   2216500916.2
RECEIVE_FREQ_1 =   2022-12-07T05:03:26.554   2216500914.5
RECEIVE_FREQ_1 =   2022-12-07T05:03:36.576   2216500913.4
RECEIVE_FREQ_1 =   2022-12-07T05:03:46.512   2216500911.9
RECEIVE_FREQ_1 =   2022-12-07T05:03:56.534   2216500910.6
RECEIVE_FREQ_1 =   2022-12-07T05:04:06.557   2216500909.3
RECEIVE_FREQ_1 =   2022-12-07T05:04:16.579   2216500907.4
RECEIVE_FREQ_1 =   2022-12-07T05:04:26.515   2216500906.3
RECEIVE_FREQ_1 =   2022-12-07T05:04:36.538   2216500905.3
RECEIVE_FREQ_1 =   2022-12-07T05:04:46.560   2216500903.6
RECEIVE_FREQ_1 =   2022-12-07T05:04:56.582   2216500901.9
RECEIVE_FREQ_1 =   2022-12-07T05:05:06.518   2216500900.7
RECEIVE_FREQ_1 =   2022-12-07T05:05:16.541   2216500899.8
RECEIVE_FREQ_1 =   2022-12-07T05:05:26.563   2216500898.2
RECEIVE_FREQ_1 =   2022-12-07T05:05:36.499   2216500896.8
RECEIVE_FREQ_1 =   2022-12-07T05:05:46.522   2216500895.2
RECEIVE_FREQ_1 =   2022-12-07T05:05:56.544   2216500893.8
RECEIVE_FREQ_1 =   2022-12-07T05:06:06.566   2216500892.9
RECEIVE_FREQ_1 =   2022-12-07T05:06:16.589   2216500891.3
RECEIVE_FREQ_1 =   2022-12-07T05:06:36.547   2216500888.5
RECEIVE_FREQ_1 =   2022-12-07T05:06:46.570   2216500887.0
RECEIVE_FREQ_1 =   2022-12-07T05:06:56.506   2216500885.6
RECEIVE_FREQ_1 =   2022-12-07T05:07:06.528   2216500884.5
RECEIVE_FREQ_1 =   2022-12-07T05:07:16.550   2216500882.9
RECEIVE_FREQ_1 =   2022-12-07T05:07:26.573   2216500881.7
RECEIVE_FREQ_1 =   2022-12-07T05:07:36.509   2216500880.4
RECEIVE_FREQ_1 =   2022-12-07T05:07:46.531   2216500879.1
RECEIVE_FREQ_1 =   2022-12-07T05:07:56.554   2216500877.5
RECEIVE_FREQ_1 =   2022-12-07T05:08:06.576   2216500876.0
RECEIVE_FREQ_1 =   2022-12-07T05:08:16.512   2216500874.6
RECEIVE_FREQ_1 =   2022-12-07T05:08:26.534   2216500872.9
RECEIVE_FREQ_1 =   2022-12-07T05:08:36.557   2216500871.7
RECEIVE_FREQ_1 =   2022-12-07T05:08:46.579   2216500870.4
RECEIVE_FREQ_1 =   2022-12-07T05:08:56.515   2216500869.1
RECEIVE_FREQ_1 =   2022-12-07T05:09:06.538   2216500867.7
RECEIVE_FREQ_1 =   2022-12-07T05:09:26.582   2216500864.7
RECEIVE_FREQ_1 =   2022-12-07T05:09:36.518   2216500863.5
RECEIVE_FREQ_1 =   2022-12-07T05:09:46.541   2216500861.8
RECEIVE_FREQ_1 =   2022-12-07T05:10:06.586   2216500859.6
RECEIVE_FREQ_1 =   2022-12-07T05:10:16.522   2216500857.9
RECEIVE_FREQ_1 =   2022-12-07T05:10:26.544   2216500857.0
RECEIVE_FREQ_1 =   2022-12-07T05:10:36.566   2216500854.9
RECEIVE_FREQ_1 =   2022-12-07T05:10:46.502   2216500853.6
RECEIVE_FREQ_1 =   2022-12-07T05:10:56.525   2216500851.3
RECEIVE_FREQ_1 =   2022-12-07T05:11:06.547   2216500850.9
RECEIVE_FREQ_1 =   2022-12-07T05:11:16.570   2216500849.6
RECEIVE_FREQ_1 =   2022-12-07T05:11:26.506   2216500848.0
RECEIVE_FREQ_1 =   2022-12-07T05:11:46.550   2216500845.6
RECEIVE_FREQ_1 =   2022-12-07T05:11:56.573   2216500843.8
RECEIVE_FREQ_1 =   2022-12-07T05:12:06.509   2216500842.5
RECEIVE_FREQ_1 =   2022-12-07T05:12:16.531   2216500840.9
RECEIVE_FREQ_1 =   2022-12-07T05:12:26.554   2216500839.9
RECEIVE_FREQ_1 =   2022-12-07T05:12:36.576   2216500838.2
RECEIVE_FREQ_1 =   2022-12-07T05:12:46.512   2216500836.8
RECEIVE_FREQ_1 =   2022-12-07T05:12:56.534   2216500835.7
RECEIVE_FREQ_1 =   2022-12-07T05:13:06.557   2216500833.9
RECEIVE_FREQ_1 =   2022-12-07T05:13:16.579   2216500832.8
RECEIVE_FREQ_1 =   2022-12-07T05:13:26.515   2216500831.4
RECEIVE_FREQ_1 =   2022-12-07T05:13:36.538   2216500829.9
RECEIVE_FREQ_1 =   2022-12-07T05:13:46.560   2216500828.4
RECEIVE_FREQ_1 =   2022-12-07T05:13:56.582   2216500827.1
RECEIVE_FREQ_1 =   2022-12-07T05:14:06.518   2216500825.3
RECEIVE_FREQ_1 =   2022-12-07T05:14:16.541   2216500824.4
RECEIVE_FREQ_1 =   2022-12-07T05:14:26.563   2216500822.7
RECEIVE_FREQ_1 =   2022-12-07T05:14:36.499   2216500821.3
RECEIVE_FREQ_1 =   2022-12-07T05:14:46.522   2216500819.7
RECEIVE_FREQ_1 =   2022-12-07T05:14:56.544   2216500818.8
RECEIVE_FREQ_1 =   2022-12-07T05:15:06.566   2216500816.8
RECEIVE_FREQ_1 =   2022-12-07T05:15:16.589   2216500815.7
RECEIVE_FREQ_1 =   2022-12-07T05:15:26.525   2216500814.5
RECEIVE_FREQ_1 =   2022-12-07T05:15:36.547   2216500812.9
RECEIVE_FREQ_1 =   2022-12-07T05:15:46.570   2216500811.5
RECEIVE_FREQ_1 =   2022-12-07T05:15:56.592   2216500810.7
RECEIVE_FREQ_1 =   2022-12-07T05:16:06.528   2216500808.8
RECEIVE_FREQ_1 =   2022-12-07T05:16:16.550   2216500807.6
RECEIVE_FREQ_1 =   2022-12-07T05:16:26.573   2216500805.9
RECEIVE_FREQ_1 =   2022-12-07T05:16:36.509   2216500804.9
RECEIVE_FREQ_1 =   2022-12-07T05:16:56.554   2216500801.6
RECEIVE_FREQ_1 =   2022-12-07T05:17:06.576   2216500800.6
RECEIVE_FREQ_1 =   2022-12-07T05:17:16.598   2216500799.0
RECEIVE_FREQ_1 =   2022-12-07T05:17:26.534   2216500797.4
RECEIVE_FREQ_1 =   2022-12-07T05:17:36.557   2216500796.1
RECEIVE_FREQ_1 =   2022-12-07T05:17:46.579   2216500794.4
RECEIVE_FREQ_1 =   2022-12-07T05:17:56.515   2216500793.4
RECEIVE_FREQ_1 =   2022-12-07T05:18:06.538   2216500791.4
RECEIVE_FREQ_1 =   2022-12-07T05:18:16.560   2216500790.0
RECEIVE_FREQ_1 =   2022-12-07T05:18:26.582   2216500788.9
RECEIVE_FREQ_1 =   2022-12-07T05:18:36.518   2216500787.7
RECEIVE_FREQ_1 =   2022-12-07T05:18:46.541   2216500786.4
RECEIVE_FREQ_1 =   2022-12-07T05:18:56.563   2216500784.7
RECEIVE_FREQ_1 =   2022-12-07T05:19:16.522   2216500782.2
RECEIVE_FREQ_1 =   2022-12-07T05:19:26.544   2216500780.6
RECEIVE_FREQ_1 =   2022-12-07T05:19:56.525   2216500776.2
RECEIVE_FREQ_1 =   2022-12-07T05:20:56.573   2216500767.5
RECEIVE_FREQ_1 =   2022-12-07T05:21:06.509   2216500766.2
RECEIVE_FREQ_1 =   2022-12-07T05:21:16.531   2216500764.9
RECEIVE_FREQ_1 =   2022-12-07T05:21:26.554   2216500763.1
RECEIVE_FREQ_1 =   2022-12-07T05:21:36.576   2216500762.1
RECEIVE_FREQ_1 =   2022-12-07T05:21:46.512   2216500760.6
RECEIVE_FREQ_1 =   2022-12-07T05:21:56.534   2216500759.0
RECEIVE_FREQ_1 =   2022-12-07T05:22:16.579   2216500756.6
RECEIVE_FREQ_1 =   2022-12-07T05:22:36.538   2216500753.7
RECEIVE_FREQ_1 =   2022-12-07T05:22:46.560   2216500752.2
RECEIVE_FREQ_1 =   2022-12-07T05:23:06.518   2216500749.5
RECEIVE_FREQ_1 =   2022-12-07T05:23:16.541   2216500748.0
RECEIVE_FREQ_1 =   2022-12-07T05:23:26.563   2216500746.6
RECEIVE_FREQ_1 =   2022-12-07T05:23:36.499   2216500745.1
RECEIVE_FREQ_1 =   2022-12-07T05:23:56.544   2216500742.2
RECEIVE_FREQ_1 =   2022-12-07T05:24:06.566   2216500740.9
RECEIVE_FREQ_1 =   2022-12-07T05:24:16.502   2216500739.2
RECEIVE_FREQ_1 =   2022-12-07T05:24:26.525   2216500738.1
RECEIVE_FREQ_1 =   2022-12-07T05:24:36.547   2216500736.6
RECEIVE_FREQ_1 =   2022-12-07T05:24:46.570   2216500735.0
RECEIVE_FREQ_1 =   2022-12-07T05:24:56.592   2216500734.0
RECEIVE_FREQ_1 =   2022-12-07T05:25:06.528   2216500732.3
RECEIVE_FREQ_1 =   2022-12-07T05:25:16.550   2216500730.9
RECEIVE_FREQ_1 =   2022-12-07T05:25:36.509   2216500728.3
RECEIVE_FREQ_1 =   2022-12-07T05:25:46.531   2216500726.8
RECEIVE_FREQ_1 =   2022-12-07T05:25:56.554   2216500725.1
RECEIVE_FREQ_1 =   2022-12-07T05:26:06.576   2216500723.6
RECEIVE_FREQ_1 =   2022-12-07T05:26:16.512   2216500722.0
RECEIVE_FREQ_1 =   2022-12-07T05:26:26.534   2216500720.9
RECEIVE_FREQ_1 =   2022-12-07T05:26:36.557   2216500719.2
RECEIVE_FREQ_1 =   2022-12-07T05:26:46.579   2216500717.8
RECEIVE_FREQ_1 =   2022-12-07T05:26:56.515   2216500716.7
RECEIVE_FREQ_1 =   2022-12-07T05:27:06.538   2216500715.1
RECEIVE_FREQ_1 =   2022-12-07T05:27:26.582   2216500712.6
RECEIVE_FREQ_1 =   2022-12-07T05:27:46.541   2216500709.4
RECEIVE_FREQ_1 =   2022-12-07T05:27:56.563   2216500708.0
RECEIVE_FREQ_1 =   2022-12-07T05:28:06.586   2216500707.0
RECEIVE_FREQ_1 =   2022-12-07T05:28:36.566   2216500702.1
RECEIVE_FREQ_1 =   2022-12-07T05:28:46.502   2216500700.9
RECEIVE_FREQ_1 =   2022-12-07T05:28:56.525   2216500699.5
RECEIVE_FREQ_1 =   2022-12-07T05:29:06.547   2216500698.4
RECEIVE_FREQ_1 =   2022-12-07T05:29:16.570   2216500696.7
RECEIVE_FREQ_1 =   2022-12-07T05:29:36.528   2216500693.9
RECEIVE_FREQ_1 =   2022-12-07T05:29:56.573   2216500691.1
RECEIVE_FREQ_1 =   2022-12-07T05:30:06.509   2216500689.7
RECEIVE_FREQ_1 =   2022-12-07T05:30:16.531   2216500688.4
RECEIVE_FREQ_1 =   2022-12-07T05:30:26.554   2216500686.7
RECEIVE_FREQ_1 =   2022-12-07T05:30:36.576   2216500685.3
RECEIVE_FREQ_1 =   2022-12-07T05:30:46.512   2216500684.0
RECEIVE_FREQ_1 =   2022-12-07T05:30:56.534   2216500682.3
RECEIVE_FREQ_1 =   2022-12-07T05:31:06.557   2216500681.1
RECEIVE_FREQ_1 =   2022-12-07T05:31:16.493   2216500679.4
RECEIVE_FREQ_1 =   2022-12-07T05:31:26.515   2216500678.2
RECEIVE_FREQ_1 =   2022-12-07T05:31:36.538   2216500677.0
RECEIVE_FREQ_1 =   2022-12-07T05:31:46.560   2216500675.4
RECEIVE_FREQ_1 =   2022-12-07T05:31:56.582   2216500673.5
RECEIVE_FREQ_1 =   2022-12-07T05:32:06.518   2216500672.8
RECEIVE_FREQ_1 =   2022-12-07T05:32:16.541   2216500670.9
RECEIVE_FREQ_1 =   2022-12-07T05:32:26.563   2216500669.6
RECEIVE_FREQ_1 =   2022-12-07T05:32:36.499   2216500668.0
RECEIVE_FREQ_1 =   2022-12-07T05:32:46.522   2216500666.8
RECEIVE_FREQ_1 =   2022-12-07T05:33:06.566   2216500664.1
RECEIVE_FREQ_1 =   2022-12-07T05:33:16.502   2216500661.9
RECEIVE_FREQ_1 =   2022-12-07T05:33:36.547   2216500659.1
RECEIVE_FREQ_1 =   2022-12-07T05:33:46.570   2216500658.0
RECEIVE_FREQ_1 =   2022-12-07T05:33:56.592   2216500656.9
RECEIVE_FREQ_1 =   2022-12-07T05:34:06.528   2216500655.3
RECEIVE_FREQ_1 =   2022-12-07T05:34:26.573   2216500652.3
RECEIVE_FREQ_1 =   2022-12-07T05:34:36.509   2216500651.3
RECEIVE_FREQ_1 =   2022-12-07T05:34:46.531   2216500649.3
RECEIVE_FREQ_1 =   2022-12-07T05:35:06.576   2216500646.5
RECEIVE_FREQ_1 =   2022-12-07T05:35:16.512   2216500645.5
RECEIVE_FREQ_1 =   2022-12-07T05:35:26.534   2216500643.7
RECEIVE_FREQ_1 =   2022-12-07T05:35:36.557   2216500642.3
RECEIVE_FREQ_1 =   2022-12-07T05:35:46.579   2216500641.2
RECEIVE_FREQ_1 =   2022-12-07T05:35:56.515   2216500639.7
RECEIVE_FREQ_1 =   2022-12-07T05:36:06.538   2216500638.3
RECEIVE_FREQ_1 =   2022-12-07T05:36:16.560   2216500636.6
RECEIVE_FREQ_1 =   2022-12-07T05:36:26.496   2216500635.3
RECEIVE_FREQ_1 =   2022-12-07T05:36:36.518   2216500633.8
RECEIVE_FREQ_1 =   2022-12-07T05:36:46.541   2216500632.2
RECEIVE_FREQ_1 =   2022-12-07T05:37:06.586   2216500629.4
RECEIVE_FREQ_1 =   2022-12-07T05:37:16.522   2216500628.3
RECEIVE_FREQ_1 =   2022-12-07T05:37:26.544   2216500626.4
RECEIVE_FREQ_1 =   2022-12-07T05:37:36.566   2216500625.5
RECEIVE_FREQ_1 =   2022-12-07T05:37:46.502   2216500624.0
RECEIVE_FREQ_1 =   2022-12-07T05:37:56.525   2216500622.3
RECEIVE_FREQ_1 =   2022-12-07T05:38:06.547   2216500620.9
RECEIVE_FREQ_1 =   2022-12-07T05:38:16.570   2216500619.8
RECEIVE_FREQ_1 =   2022-12-07T05:38:26.506   2216500617.9
