data/tdm/2022-12-09Z_2022-156A.tdm

CCSDS_TDM_VERS = 2.0
COMMENT TDM ARTEMIS 1 Doppler data by Scott Tilley for 2022-12-09 UTC
COMMENT Signal not demodulated, to low of SNR, centre carrier integrated in 10s by 0.1Hz bin and extracted for peak value.
CREATION_DATE = 2022-12-09Z
ORIGINATOR = SCOTT TILLEY

META_START
COMMENT 
COMMENT 
SYSTEM TIME = UTC
PARTICIPANT_1 = COSPAR 8049
PARTICIPANT_2 = 2022-156A
MODE = SEQUENTIAL
PATH = 2,1
INTEGRATION_INTERVAL = 10
INTEGRATION_REF = MIDDLE
FREQ_OFFSET = 0
TRANSMIT_DELAY_1 = 0
RECEIVE_DELAY_1 = 0
DATA_QUALITY = RAW
META_STOP

DATA_START
RECEIVE_FREQ_1 =   2022-12-10T01:53:21.062   2216508356.345
RECEIVE_FREQ_1 =   2022-12-10T01:53:41.107   2216508355.445
RECEIVE_FREQ_1 =   2022-12-10T01:53:51.043   2216508354.945
RECEIVE_FREQ_1 =   2022-12-10T01:54:11.088   2216508353.845
RECEIVE_FREQ_1 =   2022-12-10T01:54:21.110   2216508353.345
RECEIVE_FREQ_1 =   2022-12-10T01:54:31.133   2216508352.945
RECEIVE_FREQ_1 =   2022-12-10T01:54:41.069   2216508352.045
RECEIVE_FREQ_1 =   2022-12-10T01:55:01.114   2216508351.245
RECEIVE_FREQ_1 =   2022-12-10T01:55:11.050   2216508350.745
RECEIVE_FREQ_1 =   2022-12-10T01:55:21.072   2216508350.245
RECEIVE_FREQ_1 =   2022-12-10T01:55:41.117   2216508349.345
RECEIVE_FREQ_1 =   2022-12-10T01:55:51.139   2216508348.745
RECEIVE_FREQ_1 =   2022-12-10T01:56:31.056   2216508347.645
RECEIVE_FREQ_1 =   2022-12-10T01:57:41.040   2216508344.445
RECEIVE_FREQ_1 =   2022-12-10T01:58:11.107   2216508343.545
RECEIVE_FREQ_1 =   2022-12-10T01:59:01.046   2216508341.245
RECEIVE_FREQ_1 =   2022-12-10T01:59:11.069   2216508340.745
RECEIVE_FREQ_1 =   2022-12-10T01:59:21.091   2216508340.145
RECEIVE_FREQ_1 =   2022-12-10T01:59:31.114   2216508339.645
RECEIVE_FREQ_1 =   2022-12-10T01:59:41.050   2216508339.445
RECEIVE_FREQ_1 =   2022-12-10T01:59:51.072   2216508339.045
RECEIVE_FREQ_1 =   2022-12-10T02:00:01.094   2216508338.445
RECEIVE_FREQ_1 =   2022-12-10T02:00:21.053   2216508337.645
RECEIVE_FREQ_1 =   2022-12-10T02:00:31.075   2216508337.045
RECEIVE_FREQ_1 =   2022-12-10T02:00:41.098   2216508336.545
RECEIVE_FREQ_1 =   2022-12-10T02:00:51.034   2216508336.145
RECEIVE_FREQ_1 =   2022-12-10T02:01:01.056   2216508335.445
RECEIVE_FREQ_1 =   2022-12-10T02:01:11.078   2216508335.145
RECEIVE_FREQ_1 =   2022-12-10T02:01:21.101   2216508334.745
RECEIVE_FREQ_1 =   2022-12-10T02:01:31.037   2216508334.545
RECEIVE_FREQ_1 =   2022-12-10T02:01:41.059   2216508334.045
RECEIVE_FREQ_1 =   2022-12-10T02:01:51.082   2216508333.445
RECEIVE_FREQ_1 =   2022-12-10T02:04:51.053   2216508324.745
RECEIVE_FREQ_1 =   2022-12-10T02:05:01.075   2216508324.345
RECEIVE_FREQ_1 =   2022-12-10T02:05:11.098   2216508323.945
RECEIVE_FREQ_1 =   2022-12-10T02:05:21.120   2216508323.245
RECEIVE_FREQ_1 =   2022-12-10T02:05:31.056   2216508322.745
RECEIVE_FREQ_1 =   2022-12-10T02:05:51.101   2216508321.845
RECEIVE_FREQ_1 =   2022-12-10T02:06:01.037   2216508321.345
RECEIVE_FREQ_1 =   2022-12-10T02:06:11.059   2216508320.845
RECEIVE_FREQ_1 =   2022-12-10T02:06:21.082   2216508320.445
RECEIVE_FREQ_1 =   2022-12-10T02:06:31.104   2216508319.645
RECEIVE_FREQ_1 =   2022-12-10T02:06:41.040   2216508319.045
RECEIVE_FREQ_1 =   2022-12-10T02:06:51.062   2216508318.745
RECEIVE_FREQ_1 =   2022-12-10T02:07:01.085   2216508318.145
RECEIVE_FREQ_1 =   2022-12-10T02:07:11.107   2216508317.545
RECEIVE_FREQ_1 =   2022-12-10T02:07:21.043   2216508316.845
RECEIVE_FREQ_1 =   2022-12-10T02:07:41.088   2216508315.745
RECEIVE_FREQ_1 =   2022-12-10T02:07:51.110   2216508315.445
RECEIVE_FREQ_1 =   2022-12-10T02:08:01.046   2216508314.945
RECEIVE_FREQ_1 =   2022-12-10T02:09:01.094   2216508311.645
RECEIVE_FREQ_1 =   2022-12-10T02:09:31.075   2216508309.945
RECEIVE_FREQ_1 =   2022-12-10T02:10:01.056   2216508308.145
RECEIVE_FREQ_1 =   2022-12-10T02:10:11.078   2216508307.745
RECEIVE_FREQ_1 =   2022-12-10T02:10:21.101   2216508306.945
RECEIVE_FREQ_1 =   2022-12-10T02:10:41.059   2216508306.045
RECEIVE_FREQ_1 =   2022-12-10T02:10:51.082   2216508305.145
RECEIVE_FREQ_1 =   2022-12-10T02:11:01.104   2216508304.745
RECEIVE_FREQ_1 =   2022-12-10T02:11:11.040   2216508304.245
RECEIVE_FREQ_1 =   2022-12-10T02:11:21.062   2216508303.645
RECEIVE_FREQ_1 =   2022-12-10T02:11:31.085   2216508302.845
RECEIVE_FREQ_1 =   2022-12-10T02:11:41.107   2216508302.245
RECEIVE_FREQ_1 =   2022-12-10T02:11:51.043   2216508301.745
RECEIVE_FREQ_1 =   2022-12-10T02:12:01.066   2216508301.245
RECEIVE_FREQ_1 =   2022-12-10T02:12:31.046   2216508299.445
RECEIVE_FREQ_1 =   2022-12-10T02:13:11.050   2216508296.845
RECEIVE_FREQ_1 =   2022-12-10T02:13:21.072   2216508296.245
RECEIVE_FREQ_1 =   2022-12-10T02:15:31.104   2216508288.145
RECEIVE_FREQ_1 =   2022-12-10T02:15:51.062   2216508287.145
RECEIVE_FREQ_1 =   2022-12-10T02:16:01.085   2216508286.445
RECEIVE_FREQ_1 =   2022-12-10T02:16:11.107   2216508285.845
RECEIVE_FREQ_1 =   2022-12-10T02:16:31.066   2216508285.045
RECEIVE_FREQ_1 =   2022-12-10T02:16:51.110   2216508283.545
RECEIVE_FREQ_1 =   2022-12-10T02:17:31.027   2216508281.145
RECEIVE_FREQ_1 =   2022-12-10T02:17:41.050   2216508281.045
RECEIVE_FREQ_1 =   2022-12-10T02:17:51.072   2216508280.745
RECEIVE_FREQ_1 =   2022-12-10T02:18:01.094   2216508280.045
RECEIVE_FREQ_1 =   2022-12-10T02:18:11.030   2216508279.545
RECEIVE_FREQ_1 =   2022-12-10T02:18:41.098   2216508278.245
RECEIVE_FREQ_1 =   2022-12-10T02:18:51.034   2216508277.745
RECEIVE_FREQ_1 =   2022-12-10T02:19:01.056   2216508277.145
RECEIVE_FREQ_1 =   2022-12-10T02:19:11.078   2216508276.445
RECEIVE_FREQ_1 =   2022-12-10T02:19:31.037   2216508275.545
RECEIVE_FREQ_1 =   2022-12-10T02:19:41.059   2216508274.945
RECEIVE_FREQ_1 =   2022-12-10T02:20:01.104   2216508273.845
RECEIVE_FREQ_1 =   2022-12-10T02:20:11.040   2216508273.345
RECEIVE_FREQ_1 =   2022-12-10T02:20:21.062   2216508272.645
RECEIVE_FREQ_1 =   2022-12-10T02:20:31.085   2216508272.245
RECEIVE_FREQ_1 =   2022-12-10T02:20:41.107   2216508271.545
RECEIVE_FREQ_1 =   2022-12-10T02:20:51.043   2216508271.145
RECEIVE_FREQ_1 =   2022-12-10T02:21:01.066   2216508270.245
RECEIVE_FREQ_1 =   2022-12-10T02:21:11.088   2216508269.645
RECEIVE_FREQ_1 =   2022-12-10T02:21:41.069   2216508268.045
RECEIVE_FREQ_1 =   2022-12-10T02:21:51.091   2216508267.645
RECEIVE_FREQ_1 =   2022-12-10T02:22:01.114   2216508266.945
RECEIVE_FREQ_1 =   2022-12-10T02:22:11.050   2216508266.345
RECEIVE_FREQ_1 =   2022-12-10T02:22:51.053   2216508263.945
RECEIVE_FREQ_1 =   2022-12-10T02:23:01.075   2216508263.645
RECEIVE_FREQ_1 =   2022-12-10T02:23:21.034   2216508262.245
RECEIVE_FREQ_1 =   2022-12-10T02:23:41.078   2216508261.045
RECEIVE_FREQ_1 =   2022-12-10T02:24:11.059   2216508259.445
RECEIVE_FREQ_1 =   2022-12-10T02:24:21.082   2216508258.745
RECEIVE_FREQ_1 =   2022-12-10T02:24:31.104   2216508258.045
RECEIVE_FREQ_1 =   2022-12-10T02:24:41.040   2216508257.845
RECEIVE_FREQ_1 =   2022-12-10T02:25:11.107   2216508255.345
RECEIVE_FREQ_1 =   2022-12-10T02:25:51.110   2216508253.245
RECEIVE_FREQ_1 =   2022-12-10T02:26:01.046   2216508251.945
RECEIVE_FREQ_1 =   2022-12-10T02:26:11.069   2216508251.645
RECEIVE_FREQ_1 =   2022-12-10T02:26:31.114   2216508250.545
RECEIVE_FREQ_1 =   2022-12-10T02:26:51.072   2216508249.245
RECEIVE_FREQ_1 =   2022-12-10T02:27:21.053   2216508247.245
RECEIVE_FREQ_1 =   2022-12-10T02:27:51.034   2216508245.545
RECEIVE_FREQ_1 =   2022-12-10T02:28:31.037   2216508242.845
RECEIVE_FREQ_1 =   2022-12-10T02:28:41.059   2216508242.145
RECEIVE_FREQ_1 =   2022-12-10T02:29:11.040   2216508240.345
RECEIVE_FREQ_1 =   2022-12-10T02:30:01.066   2216508237.045
RECEIVE_FREQ_1 =   2022-12-10T02:30:21.024   2216508235.545
RECEIVE_FREQ_1 =   2022-12-10T02:30:31.046   2216508234.745
RECEIVE_FREQ_1 =   2022-12-10T02:30:51.091   2216508233.545
RECEIVE_FREQ_1 =   2022-12-10T02:31:21.072   2216508231.445
RECEIVE_FREQ_1 =   2022-12-10T02:31:31.094   2216508230.745
RECEIVE_FREQ_1 =   2022-12-10T02:31:41.117   2216508230.045
RECEIVE_FREQ_1 =   2022-12-10T02:31:51.053   2216508229.245
RECEIVE_FREQ_1 =   2022-12-10T02:32:01.075   2216508228.445
RECEIVE_FREQ_1 =   2022-12-10T02:32:11.098   2216508227.745
RECEIVE_FREQ_1 =   2022-12-10T02:32:21.034   2216508227.145
RECEIVE_FREQ_1 =   2022-12-10T02:32:31.056   2216508226.545
RECEIVE_FREQ_1 =   2022-12-10T02:32:41.078   2216508225.845
RECEIVE_FREQ_1 =   2022-12-10T02:32:51.101   2216508225.045
RECEIVE_FREQ_1 =   2022-12-10T02:33:01.037   2216508224.345
RECEIVE_FREQ_1 =   2022-12-10T02:33:11.059   2216508223.645
RECEIVE_FREQ_1 =   2022-12-10T02:33:21.082   2216508222.945
RECEIVE_FREQ_1 =   2022-12-10T02:33:31.104   2216508222.345
RECEIVE_FREQ_1 =   2022-12-10T02:33:41.040   2216508221.545
RECEIVE_FREQ_1 =   2022-12-10T02:33:51.062   2216508220.445
RECEIVE_FREQ_1 =   2022-12-10T02:34:01.085   2216508220.145
RECEIVE_FREQ_1 =   2022-12-10T02:34:11.107   2216508219.445
RECEIVE_FREQ_1 =   2022-12-10T02:34:21.043   2216508218.545
RECEIVE_FREQ_1 =   2022-12-10T02:34:31.066   2216508217.745
RECEIVE_FREQ_1 =   2022-12-10T02:34:41.088   2216508217.345
RECEIVE_FREQ_1 =   2022-12-10T02:34:51.110   2216508216.245
RECEIVE_FREQ_1 =   2022-12-10T02:35:01.046   2216508215.445
RECEIVE_FREQ_1 =   2022-12-10T02:35:11.069   2216508214.845
RECEIVE_FREQ_1 =   2022-12-10T02:35:21.091   2216508214.245
RECEIVE_FREQ_1 =   2022-12-10T02:35:31.114   2216508213.645
RECEIVE_FREQ_1 =   2022-12-10T02:35:41.050   2216508212.445
RECEIVE_FREQ_1 =   2022-12-10T02:35:51.072   2216508211.845
RECEIVE_FREQ_1 =   2022-12-10T02:36:01.094   2216508211.245
RECEIVE_FREQ_1 =   2022-12-10T02:36:11.030   2216508210.245
RECEIVE_FREQ_1 =   2022-12-10T02:36:21.053   2216508209.645
RECEIVE_FREQ_1 =   2022-12-10T02:36:31.075   2216508208.845
RECEIVE_FREQ_1 =   2022-12-10T02:36:41.098   2216508208.245
RECEIVE_FREQ_1 =   2022-12-10T02:36:51.120   2216508207.645
RECEIVE_FREQ_1 =   2022-12-10T02:37:01.056   2216508206.845
RECEIVE_FREQ_1 =   2022-12-10T02:37:11.078   2216508206.345
RECEIVE_FREQ_1 =   2022-12-10T02:37:21.101   2216508205.545
RECEIVE_FREQ_1 =   2022-12-10T02:37:31.037   2216508204.945
RECEIVE_FREQ_1 =   2022-12-10T02:37:41.059   2216508204.445
RECEIVE_FREQ_1 =   2022-12-10T02:37:51.082   2216508203.545
RECEIVE_FREQ_1 =   2022-12-10T02:38:01.104   2216508203.5
RECEIVE_FREQ_1 =   2022-12-10T02:38:11.126   2216508202.345
RECEIVE_FREQ_1 =   2022-12-10T02:38:21.062   2216508201.745
RECEIVE_FREQ_1 =   2022-12-10T02:38:31.085   2216508201.345
RECEIVE_FREQ_1 =   2022-12-10T02:38:41.107   2216508200.545
RECEIVE_FREQ_1 =   2022-12-10T02:38:51.043   2216508199.645
RECEIVE_FREQ_1 =   2022-12-10T02:39:01.066   2216508199.345
RECEIVE_FREQ_1 =   2022-12-10T02:39:11.088   2216508198.445
RECEIVE_FREQ_1 =   2022-12-10T02:39:21.110   2216508197.845
RECEIVE_FREQ_1 =   2022-12-10T02:39:31.046   2216508197.545
RECEIVE_FREQ_1 =   2022-12-10T02:39:41.069   2216508196.645
RECEIVE_FREQ_1 =   2022-12-10T02:39:51.091   2216508196.245
RECEIVE_FREQ_1 =   2022-12-10T02:40:01.027   2216508195.445
RECEIVE_FREQ_1 =   2022-12-10T02:40:11.050   2216508194.645
RECEIVE_FREQ_1 =   2022-12-10T02:40:31.094   2216508193.545
RECEIVE_FREQ_1 =   2022-12-10T02:40:41.117   2216508192.445
RECEIVE_FREQ_1 =   2022-12-10T02:40:51.053   2216508192.145
RECEIVE_FREQ_1 =   2022-12-10T02:41:01.075   2216508191.3
RECEIVE_FREQ_1 =   2022-12-10T02:41:11.098   2216508190.645
RECEIVE_FREQ_1 =   2022-12-10T02:41:21.034   2216508189.945
RECEIVE_FREQ_1 =   2022-12-10T02:41:31.056   2216508189.245
RECEIVE_FREQ_1 =   2022-12-10T02:41:41.078   2216508188.645
RECEIVE_FREQ_1 =   2022-12-10T02:41:51.101   2216508187.945
RECEIVE_FREQ_1 =   2022-12-10T02:42:01.037   2216508187.345
RECEIVE_FREQ_1 =   2022-12-10T02:42:11.059   2216508186.645
RECEIVE_FREQ_1 =   2022-12-10T02:42:21.082   2216508185.845
RECEIVE_FREQ_1 =   2022-12-10T02:42:31.104   2216508185.145
RECEIVE_FREQ_1 =   2022-12-10T02:42:41.040   2216508184.645
RECEIVE_FREQ_1 =   2022-12-10T02:42:51.062   2216508184.045
RECEIVE_FREQ_1 =   2022-12-10T02:43:11.107   2216508182.545
RECEIVE_FREQ_1 =   2022-12-10T02:43:21.043   2216508181.545
RECEIVE_FREQ_1 =   2022-12-10T02:43:31.066   2216508181.045
RECEIVE_FREQ_1 =   2022-12-10T02:43:41.088   2216508180.245
RECEIVE_FREQ_1 =   2022-12-10T02:43:51.110   2216508179.945
RECEIVE_FREQ_1 =   2022-12-10T02:44:11.069   2216508178.245
RECEIVE_FREQ_1 =   2022-12-10T02:44:21.091   2216508177.645
RECEIVE_FREQ_1 =   2022-12-10T02:44:31.114   2216508176.845
RECEIVE_FREQ_1 =   2022-12-10T02:45:31.075   2216508172.445
RECEIVE_FREQ_1 =   2022-12-10T02:45:51.120   2216508171.045
RECEIVE_FREQ_1 =   2022-12-10T02:52:21.043   2216508141.445
RECEIVE_FREQ_1 =   2022-12-10T02:52:31.066   2216508140.545
RECEIVE_FREQ_1 =   2022-12-10T02:52:41.088   2216508139.945
RECEIVE_FREQ_1 =   2022-12-10T02:52:51.110   2216508139.3
RECEIVE_FREQ_1 =   2022-12-10T02:53:01.046   2216508138.6
RECEIVE_FREQ_1 =   2022-12-10T02:53:11.069   2216508137.745
RECEIVE_FREQ_1 =   2022-12-10T02:53:21.091   2216508136.745
RECEIVE_FREQ_1 =   2022-12-10T02:53:31.027   2216508135.945
RECEIVE_FREQ_1 =   2022-12-10T02:53:41.050   2216508135.2
RECEIVE_FREQ_1 =   2022-12-10T02:53:51.072   2216508134.3
RECEIVE_FREQ_1 =   2022-12-10T02:54:01.094   2216508133.645
RECEIVE_FREQ_1 =   2022-12-10T02:54:11.030   2216508132.645
RECEIVE_FREQ_1 =   2022-12-10T02:54:21.053   2216508131.745
RECEIVE_FREQ_1 =   2022-12-10T02:54:31.075   2216508131.045
RECEIVE_FREQ_1 =   2022-12-10T02:54:41.098   2216508130.245
RECEIVE_FREQ_1 =   2022-12-10T02:54:51.120   2216508129.245
RECEIVE_FREQ_1 =   2022-12-10T02:55:01.056   2216508128.645
RECEIVE_FREQ_1 =   2022-12-10T02:55:11.078   2216508127.845
RECEIVE_FREQ_1 =   2022-12-10T02:55:21.101   2216508126.945
RECEIVE_FREQ_1 =   2022-12-10T02:55:31.037   2216508125.945
RECEIVE_FREQ_1 =   2022-12-10T02:55:41.059   2216508125.445
RECEIVE_FREQ_1 =   2022-12-10T02:55:51.082   2216508124.9
RECEIVE_FREQ_1 =   2022-12-10T02:56:01.104   2216508123.445
RECEIVE_FREQ_1 =   2022-12-10T02:56:11.040   2216508122.845
RECEIVE_FREQ_1 =   2022-12-10T02:56:21.062   2216508121.9
RECEIVE_FREQ_1 =   2022-12-10T02:56:31.085   2216508121.145
RECEIVE_FREQ_1 =   2022-12-10T02:56:41.107   2216508120.145
RECEIVE_FREQ_1 =   2022-12-10T02:56:51.043   2216508119.345
RECEIVE_FREQ_1 =   2022-12-10T02:57:01.066   2216508118.745
RECEIVE_FREQ_1 =   2022-12-10T02:57:11.088   2216508117.645
RECEIVE_FREQ_1 =   2022-12-10T02:57:21.110   2216508116.845
RECEIVE_FREQ_1 =   2022-12-10T02:57:31.046   2216508116.145
RECEIVE_FREQ_1 =   2022-12-10T02:57:41.069   2216508115.345
RECEIVE_FREQ_1 =   2022-12-10T02:57:51.091   2216508114.045
RECEIVE_FREQ_1 =   2022-12-10T02:58:01.114   2216508113.545
RECEIVE_FREQ_1 =   2022-12-10T02:58:11.050   2216508112.645
RECEIVE_FREQ_1 =   2022-12-10T02:58:21.072   2216508111.745
RECEIVE_FREQ_1 =   2022-12-10T02:58:31.094   2216508110.945
RECEIVE_FREQ_1 =   2022-12-10T02:58:41.030   2216508110.045
RECEIVE_FREQ_1 =   2022-12-10T02:58:51.053   2216508109.145
RECEIVE_FREQ_1 =   2022-12-10T02:59:01.075   2216508108.145
RECEIVE_FREQ_1 =   2022-12-10T02:59:11.098   2216508107.545
RECEIVE_FREQ_1 =   2022-12-10T02:59:21.120   2216508106.945
RECEIVE_FREQ_1 =   2022-12-10T02:59:31.056   2216508106.145
RECEIVE_FREQ_1 =   2022-12-10T02:59:41.078   2216508105.245
RECEIVE_FREQ_1 =   2022-12-10T02:59:51.101   2216508104.545
RECEIVE_FREQ_1 =   2022-12-10T03:00:01.037   2216508103.845
RECEIVE_FREQ_1 =   2022-12-10T03:00:11.059   2216508102.945
RECEIVE_FREQ_1 =   2022-12-10T03:00:21.082   2216508102.245
RECEIVE_FREQ_1 =   2022-12-10T03:00:31.104   2216508101.445
RECEIVE_FREQ_1 =   2022-12-10T03:00:41.040   2216508100.745
RECEIVE_FREQ_1 =   2022-12-10T03:00:51.062   2216508100.045
RECEIVE_FREQ_1 =   2022-12-10T03:01:01.085   2216508099.445
RECEIVE_FREQ_1 =   2022-12-10T03:01:11.107   2216508098.445
RECEIVE_FREQ_1 =   2022-12-10T03:01:21.043   2216508097.745
RECEIVE_FREQ_1 =   2022-12-10T03:01:31.066   2216508096.945
RECEIVE_FREQ_1 =   2022-12-10T03:01:41.088   2216508096.445
RECEIVE_FREQ_1 =   2022-12-10T03:01:51.110   2216508095.345
RECEIVE_FREQ_1 =   2022-12-10T03:02:01.046   2216508094.345
RECEIVE_FREQ_1 =   2022-12-10T03:02:11.069   2216508094.145
RECEIVE_FREQ_1 =   2022-12-10T03:02:21.091   2216508093.045
RECEIVE_FREQ_1 =   2022-12-10T03:02:31.114   2216508092.645
RECEIVE_FREQ_1 =   2022-12-10T03:02:41.050   2216508091.645
RECEIVE_FREQ_1 =   2022-12-10T03:02:51.072   2216508090.845
RECEIVE_FREQ_1 =   2022-12-10T03:03:01.094   2216508089.845
RECEIVE_FREQ_1 =   2022-12-10T03:03:11.030   2216508089.145
RECEIVE_FREQ_1 =   2022-12-10T03:03:21.053   2216508088.345
RECEIVE_FREQ_1 =   2022-12-10T03:03:31.075   2216508087.545
RECEIVE_FREQ_1 =   2022-12-10T03:03:41.098   2216508086.945
RECEIVE_FREQ_1 =   2022-12-10T03:03:51.120   2216508085.945
RECEIVE_FREQ_1 =   2022-12-10T03:04:01.056   2216508085.245
RECEIVE_FREQ_1 =   2022-12-10T03:04:11.078   2216508084.445
RECEIVE_FREQ_1 =   2022-12-10T03:04:21.101   2216508083.445
RECEIVE_FREQ_1 =   2022-12-10T03:04:31.123   2216508082.945
RECEIVE_FREQ_1 =   2022-12-10T03:04:41.059   2216508082.245
RECEIVE_FREQ_1 =   2022-12-10T03:04:51.082   2216508081.045
RECEIVE_FREQ_1 =   2022-12-10T03:05:01.104   2216508080.645
RECEIVE_FREQ_1 =   2022-12-10T03:05:11.040   2216508079.6
RECEIVE_FREQ_1 =   2022-12-10T03:05:21.062   2216508078.945
RECEIVE_FREQ_1 =   2022-12-10T03:05:31.085   2216508078.145
RECEIVE_FREQ_1 =   2022-12-10T03:05:41.107   2216508077.245
RECEIVE_FREQ_1 =   2022-12-10T03:05:51.043   2216508076.345
RECEIVE_FREQ_1 =   2022-12-10T03:06:01.066   2216508075.945
RECEIVE_FREQ_1 =   2022-12-10T03:06:11.088   2216508074.945
RECEIVE_FREQ_1 =   2022-12-10T03:06:21.110   2216508074.1
RECEIVE_FREQ_1 =   2022-12-10T03:06:31.046   2216508073.145
RECEIVE_FREQ_1 =   2022-12-10T03:06:41.069   2216508072.445
RECEIVE_FREQ_1 =   2022-12-10T03:06:51.091   2216508071.745
RECEIVE_FREQ_1 =   2022-12-10T03:07:01.114   2216508070.845
RECEIVE_FREQ_1 =   2022-12-10T03:07:11.050   2216508069.945
RECEIVE_FREQ_1 =   2022-12-10T03:07:21.072   2216508069.245
RECEIVE_FREQ_1 =   2022-12-10T03:07:31.094   2216508068.245
RECEIVE_FREQ_1 =   2022-12-10T03:07:41.117   2216508067.545
RECEIVE_FREQ_1 =   2022-12-10T03:07:51.053   2216508066.645
RECEIVE_FREQ_1 =   2022-12-10T03:08:01.075   2216508066.145
RECEIVE_FREQ_1 =   2022-12-10T03:08:11.098   2216508064.745
RECEIVE_FREQ_1 =   2022-12-10T03:08:21.120   2216508064.4
RECEIVE_FREQ_1 =   2022-12-10T03:08:31.056   2216508063.245
RECEIVE_FREQ_1 =   2022-12-10T03:08:41.078   2216508062.545
RECEIVE_FREQ_1 =   2022-12-10T03:08:51.101   2216508061.845
RECEIVE_FREQ_1 =   2022-12-10T03:09:01.123   2216508060.745
RECEIVE_FREQ_1 =   2022-12-10T03:09:11.059   2216508059.9
RECEIVE_FREQ_1 =   2022-12-10T03:09:21.082   2216508059.3
RECEIVE_FREQ_1 =   2022-12-10T03:09:31.104   2216508058.6
RECEIVE_FREQ_1 =   2022-12-10T03:09:41.040   2216508057.345
RECEIVE_FREQ_1 =   2022-12-10T03:09:51.062   2216508056.645
RECEIVE_FREQ_1 =   2022-12-10T03:10:01.085   2216508055.745
RECEIVE_FREQ_1 =   2022-12-10T03:10:11.107   2216508054.845
RECEIVE_FREQ_1 =   2022-12-10T03:10:21.043   2216508054.145
RECEIVE_FREQ_1 =   2022-12-10T03:10:31.066   2216508053.145
RECEIVE_FREQ_1 =   2022-12-10T03:10:41.088   2216508052.345
RECEIVE_FREQ_1 =   2022-12-10T03:10:51.110   2216508051.645
RECEIVE_FREQ_1 =   2022-12-10T03:11:01.046   2216508050.545
RECEIVE_FREQ_1 =   2022-12-10T03:11:11.069   2216508049.845
RECEIVE_FREQ_1 =   2022-12-10T03:11:21.091   2216508049.045
RECEIVE_FREQ_1 =   2022-12-10T03:11:31.114   2216508048.045
RECEIVE_FREQ_1 =   2022-12-10T03:11:41.050   2216508047.245
RECEIVE_FREQ_1 =   2022-12-10T03:11:51.072   2216508046.445
RECEIVE_FREQ_1 =   2022-12-10T03:12:01.094   2216508045.345
RECEIVE_FREQ_1 =   2022-12-10T03:12:11.030   2216508044.345
RECEIVE_FREQ_1 =   2022-12-10T03:12:21.053   2216508043.545
RECEIVE_FREQ_1 =   2022-12-10T03:12:31.075   2216508042.845
RECEIVE_FREQ_1 =   2022-12-10T03:12:41.098   2216508041.745
RECEIVE_FREQ_1 =   2022-12-10T03:12:51.120   2216508041.245
RECEIVE_FREQ_1 =   2022-12-10T03:13:01.056   2216508040.245
RECEIVE_FREQ_1 =   2022-12-10T03:13:11.078   2216508039.145
RECEIVE_FREQ_1 =   2022-12-10T03:13:21.101   2216508038.5
RECEIVE_FREQ_1 =   2022-12-10T03:13:31.123   2216508037.7
RECEIVE_FREQ_1 =   2022-12-10T03:13:41.059   2216508036.845
RECEIVE_FREQ_1 =   2022-12-10T03:13:51.082   2216508035.845
RECEIVE_FREQ_1 =   2022-12-10T03:14:01.104   2216508034.845
RECEIVE_FREQ_1 =   2022-12-10T03:14:11.040   2216508034.3
RECEIVE_FREQ_1 =   2022-12-10T03:14:21.062   2216508032.945
RECEIVE_FREQ_1 =   2022-12-10T03:14:31.085   2216508031.845
RECEIVE_FREQ_1 =   2022-12-10T03:14:41.107   2216508031.345
RECEIVE_FREQ_1 =   2022-12-10T03:14:51.043   2216508030.4
RECEIVE_FREQ_1 =   2022-12-10T03:15:01.066   2216508029.645
RECEIVE_FREQ_1 =   2022-12-10T03:15:11.088   2216508028.345
RECEIVE_FREQ_1 =   2022-12-10T03:15:21.110   2216508027.745
RECEIVE_FREQ_1 =   2022-12-10T03:15:31.046   2216508026.845
RECEIVE_FREQ_1 =   2022-12-10T03:15:41.069   2216508026.3
RECEIVE_FREQ_1 =   2022-12-10T03:15:51.091   2216508025.145
RECEIVE_FREQ_1 =   2022-12-10T03:16:01.114   2216508024.245
RECEIVE_FREQ_1 =   2022-12-10T03:16:11.050   2216508023.445
RECEIVE_FREQ_1 =   2022-12-10T03:16:21.072   2216508022.545
RECEIVE_FREQ_1 =   2022-12-10T03:16:31.094   2216508021.3
RECEIVE_FREQ_1 =   2022-12-10T03:16:41.117   2216508020.645
RECEIVE_FREQ_1 =   2022-12-10T03:16:51.053   2216508019.645
RECEIVE_FREQ_1 =   2022-12-10T03:17:01.075   2216508018.545
RECEIVE_FREQ_1 =   2022-12-10T03:17:11.098   2216508017.845
RECEIVE_FREQ_1 =   2022-12-10T03:17:21.120   2216508016.945
RECEIVE_FREQ_1 =   2022-12-10T03:17:31.056   2216508015.945
RECEIVE_FREQ_1 =   2022-12-10T03:17:41.078   2216508014.945
RECEIVE_FREQ_1 =   2022-12-10T03:17:51.101   2216508013.945
RECEIVE_FREQ_1 =   2022-12-10T03:18:01.123   2216508012.945
RECEIVE_FREQ_1 =   2022-12-10T03:18:11.059   2216508012.445
RECEIVE_FREQ_1 =   2022-12-10T03:18:21.082   2216508011.245
RECEIVE_FREQ_1 =   2022-12-10T03:18:31.104   2216508010.145
RECEIVE_FREQ_1 =   2022-12-10T03:18:41.040   2216508009.545
RECEIVE_FREQ_1 =   2022-12-10T03:18:51.062   2216508008.445
RECEIVE_FREQ_1 =   2022-12-10T03:19:01.085   2216508007.445
RECEIVE_FREQ_1 =   2022-12-10T03:19:11.107   2216508006.8
RECEIVE_FREQ_1 =   2022-12-10T03:19:21.130   2216508005.745
RECEIVE_FREQ_1 =   2022-12-10T03:19:31.066   2216508004.745
RECEIVE_FREQ_1 =   2022-12-10T03:19:41.088   2216508003.845
RECEIVE_FREQ_1 =   2022-12-10T03:19:51.110   2216508003.045
RECEIVE_FREQ_1 =   2022-12-10T03:20:01.046   2216508001.845
RECEIVE_FREQ_1 =   2022-12-10T03:20:11.069   2216508001.045
RECEIVE_FREQ_1 =   2022-12-10T03:20:21.091   2216508000.145
RECEIVE_FREQ_1 =   2022-12-10T03:20:31.114   2216507999.145
RECEIVE_FREQ_1 =   2022-12-10T03:20:41.050   2216507998.145
RECEIVE_FREQ_1 =   2022-12-10T03:20:51.072   2216507997.145
RECEIVE_FREQ_1 =   2022-12-10T03:21:01.094   2216507996.245
RECEIVE_FREQ_1 =   2022-12-10T03:21:11.030   2216507995.545
RECEIVE_FREQ_1 =   2022-12-10T03:21:21.053   2216507994.345
RECEIVE_FREQ_1 =   2022-12-10T03:21:31.075   2216507993.245
RECEIVE_FREQ_1 =   2022-12-10T03:21:41.098   2216507992.7
RECEIVE_FREQ_1 =   2022-12-10T03:21:51.120   2216507991.745
RECEIVE_FREQ_1 =   2022-12-10T03:22:01.056   2216507990.8
RECEIVE_FREQ_1 =   2022-12-10T03:22:11.078   2216507989.545
RECEIVE_FREQ_1 =   2022-12-10T03:22:21.101   2216507988.545
RECEIVE_FREQ_1 =   2022-12-10T03:22:31.037   2216507987.445
RECEIVE_FREQ_1 =   2022-12-10T03:22:41.059   2216507986.545
RECEIVE_FREQ_1 =   2022-12-10T03:22:51.082   2216507985.745
RECEIVE_FREQ_1 =   2022-12-10T03:23:01.104   2216507984.745
RECEIVE_FREQ_1 =   2022-12-10T03:23:11.040   2216507984.045
RECEIVE_FREQ_1 =   2022-12-10T03:23:21.062   2216507983.145
RECEIVE_FREQ_1 =   2022-12-10T03:23:31.085   2216507982.345
RECEIVE_FREQ_1 =   2022-12-10T03:23:41.107   2216507981.445
RECEIVE_FREQ_1 =   2022-12-10T03:23:51.043   2216507980.445
RECEIVE_FREQ_1 =   2022-12-10T03:24:01.066   2216507979.845
RECEIVE_FREQ_1 =   2022-12-10T03:24:11.088   2216507978.645
RECEIVE_FREQ_1 =   2022-12-10T03:24:21.110   2216507977.945
RECEIVE_FREQ_1 =   2022-12-10T03:24:31.046   2216507977.045
RECEIVE_FREQ_1 =   2022-12-10T03:24:41.069   2216507976.0
RECEIVE_FREQ_1 =   2022-12-10T03:24:51.091   2216507975.545
RECEIVE_FREQ_1 =   2022-12-10T03:25:01.027   2216507974.545
RECEIVE_FREQ_1 =   2022-12-10T03:25:11.050   2216507973.345
RECEIVE_FREQ_1 =   2022-12-10T03:25:21.072   2216507972.545
RECEIVE_FREQ_1 =   2022-12-10T03:25:31.094   2216507971.845
RECEIVE_FREQ_1 =   2022-12-10T03:25:41.117   2216507970.745
RECEIVE_FREQ_1 =   2022-12-10T03:25:51.053   2216507970.145
RECEIVE_FREQ_1 =   2022-12-10T03:26:01.075   2216507968.945
RECEIVE_FREQ_1 =   2022-12-10T03:26:11.098   2216507968.345
RECEIVE_FREQ_1 =   2022-12-10T03:26:21.120   2216507967.445
RECEIVE_FREQ_1 =   2022-12-10T03:26:31.056   2216507966.445
RECEIVE_FREQ_1 =   2022-12-10T03:26:41.078   2216507965.345
RECEIVE_FREQ_1 =   2022-12-10T03:26:51.101   2216507964.845
RECEIVE_FREQ_1 =   2022-12-10T03:27:01.037   2216507963.945
RECEIVE_FREQ_1 =   2022-12-10T03:27:11.059   2216507963.045
RECEIVE_FREQ_1 =   2022-12-10T03:27:21.082   2216507962.2
RECEIVE_FREQ_1 =   2022-12-10T03:27:31.104   2216507961.445
RECEIVE_FREQ_1 =   2022-12-10T03:27:41.040   2216507960.245
RECEIVE_FREQ_1 =   2022-12-10T03:27:51.062   2216507959.145
RECEIVE_FREQ_1 =   2022-12-10T03:28:01.085   2216507958.645
RECEIVE_FREQ_1 =   2022-12-10T03:28:11.107   2216507957.745
RECEIVE_FREQ_1 =   2022-12-10T03:28:21.043   2216507956.745
RECEIVE_FREQ_1 =   2022-12-10T03:28:31.066   2216507955.845
RECEIVE_FREQ_1 =   2022-12-10T03:28:41.088   2216507954.845
RECEIVE_FREQ_1 =   2022-12-10T03:28:51.110   2216507954.045
RECEIVE_FREQ_1 =   2022-12-10T03:29:01.133   2216507953.245
RECEIVE_FREQ_1 =   2022-12-10T03:29:11.069   2216507952.245
RECEIVE_FREQ_1 =   2022-12-10T03:29:21.091   2216507951.245
RECEIVE_FREQ_1 =   2022-12-10T03:29:31.114   2216507950.545
RECEIVE_FREQ_1 =   2022-12-10T03:29:41.050   2216507949.445
RECEIVE_FREQ_1 =   2022-12-10T03:29:51.072   2216507948.145
RECEIVE_FREQ_1 =   2022-12-10T03:30:01.094   2216507947.745
RECEIVE_FREQ_1 =   2022-12-10T03:30:11.030   2216507947.0
RECEIVE_FREQ_1 =   2022-12-10T03:30:21.053   2216507945.845
RECEIVE_FREQ_1 =   2022-12-10T03:30:31.075   2216507944.945
RECEIVE_FREQ_1 =   2022-12-10T03:30:41.098   2216507944.1
RECEIVE_FREQ_1 =   2022-12-10T03:30:51.120   2216507943.045
RECEIVE_FREQ_1 =   2022-12-10T03:31:01.056   2216507942.045
RECEIVE_FREQ_1 =   2022-12-10T03:31:11.078   2216507941.245
RECEIVE_FREQ_1 =   2022-12-10T03:31:21.101   2216507940.445
RECEIVE_FREQ_1 =   2022-12-10T03:31:31.037   2216507939.545
RECEIVE_FREQ_1 =   2022-12-10T03:31:41.059   2216507938.245
RECEIVE_FREQ_1 =   2022-12-10T03:31:51.082   2216507937.445
RECEIVE_FREQ_1 =   2022-12-10T03:32:01.104   2216507936.145
RECEIVE_FREQ_1 =   2022-12-10T03:32:11.040   2216507935.545
RECEIVE_FREQ_1 =   2022-12-10T03:32:21.062   2216507934.645
RECEIVE_FREQ_1 =   2022-12-10T03:32:31.085   2216507933.745
RECEIVE_FREQ_1 =   2022-12-10T03:32:41.107   2216507932.545
RECEIVE_FREQ_1 =   2022-12-10T03:32:51.043   2216507931.945
RECEIVE_FREQ_1 =   2022-12-10T03:33:01.066   2216507930.8
RECEIVE_FREQ_1 =   2022-12-10T03:33:11.088   2216507929.745
RECEIVE_FREQ_1 =   2022-12-10T03:33:21.110   2216507929.145
RECEIVE_FREQ_1 =   2022-12-10T03:33:31.046   2216507927.945
RECEIVE_FREQ_1 =   2022-12-10T03:33:41.069   2216507927.145
RECEIVE_FREQ_1 =   2022-12-10T03:33:51.091   2216507926.145
RECEIVE_FREQ_1 =   2022-12-10T03:34:01.027   2216507925.245
RECEIVE_FREQ_1 =   2022-12-10T03:34:11.050   2216507924.345
RECEIVE_FREQ_1 =   2022-12-10T03:34:21.072   2216507923.445
RECEIVE_FREQ_1 =   2022-12-10T03:34:31.094   2216507922.345
RECEIVE_FREQ_1 =   2022-12-10T03:34:41.117   2216507921.445
RECEIVE_FREQ_1 =   2022-12-10T03:34:51.053   2216507920.445
RECEIVE_FREQ_1 =   2022-12-10T03:35:01.075   2216507919.645
RECEIVE_FREQ_1 =   2022-12-10T03:35:11.098   2216507918.545
RECEIVE_FREQ_1 =   2022-12-10T03:35:21.120   2216507917.445
RECEIVE_FREQ_1 =   2022-12-10T03:35:31.056   2216507916.645
RECEIVE_FREQ_1 =   2022-12-10T03:35:41.078   2216507915.745
RECEIVE_FREQ_1 =   2022-12-10T03:35:51.101   2216507914.845
RECEIVE_FREQ_1 =   2022-12-10T03:36:01.037   2216507913.645
RECEIVE_FREQ_1 =   2022-12-10T03:36:11.059   2216507912.845
RECEIVE_FREQ_1 =   2022-12-10T03:36:21.082   2216507911.845
RECEIVE_FREQ_1 =   2022-12-10T03:36:31.104   2216507910.645
RECEIVE_FREQ_1 =   2022-12-10T03:36:41.040   2216507909.845
RECEIVE_FREQ_1 =   2022-12-10T03:36:51.062   2216507909.045
RECEIVE_FREQ_1 =   2022-12-10T03:37:01.085   2216507907.845
RECEIVE_FREQ_1 =   2022-12-10T03:37:11.107   2216507906.745
RECEIVE_FREQ_1 =   2022-12-10T03:37:21.043   2216507905.645
RECEIVE_FREQ_1 =   2022-12-10T03:37:31.066   2216507905.045
RECEIVE_FREQ_1 =   2022-12-10T03:37:41.088   2216507904.2
RECEIVE_FREQ_1 =   2022-12-10T03:37:51.110   2216507903.345
RECEIVE_FREQ_1 =   2022-12-10T03:38:01.046   2216507901.945
RECEIVE_FREQ_1 =   2022-12-10T03:38:11.069   2216507900.9
RECEIVE_FREQ_1 =   2022-12-10T03:38:21.091   2216507900.4
RECEIVE_FREQ_1 =   2022-12-10T03:38:31.114   2216507898.745
RECEIVE_FREQ_1 =   2022-12-10T03:38:41.136   2216507897.845
RECEIVE_FREQ_1 =   2022-12-10T03:38:51.072   2216507897.045
RECEIVE_FREQ_1 =   2022-12-10T03:39:01.094   2216507896.045
RECEIVE_FREQ_1 =   2022-12-10T03:39:11.117   2216507895.445
RECEIVE_FREQ_1 =   2022-12-10T03:39:21.053   2216507893.945
RECEIVE_FREQ_1 =   2022-12-10T03:39:31.075   2216507893.345
RECEIVE_FREQ_1 =   2022-12-10T03:39:41.098   2216507892.145
RECEIVE_FREQ_1 =   2022-12-10T03:39:51.120   2216507891.245
RECEIVE_FREQ_1 =   2022-12-10T03:40:01.056   2216507890.445
RECEIVE_FREQ_1 =   2022-12-10T03:40:11.078   2216507889.2
RECEIVE_FREQ_1 =   2022-12-10T03:40:21.101   2216507887.945
RECEIVE_FREQ_1 =   2022-12-10T03:40:31.123   2216507887.245
RECEIVE_FREQ_1 =   2022-12-10T03:40:41.059   2216507886.145
RECEIVE_FREQ_1 =   2022-12-10T03:40:51.082   2216507885.245
RECEIVE_FREQ_1 =   2022-12-10T03:41:01.104   2216507884.345
RECEIVE_FREQ_1 =   2022-12-10T03:41:11.040   2216507883.345
RECEIVE_FREQ_1 =   2022-12-10T03:41:21.062   2216507882.145
RECEIVE_FREQ_1 =   2022-12-10T03:41:31.085   2216507881.245
RECEIVE_FREQ_1 =   2022-12-10T03:41:41.107   2216507880.445
RECEIVE_FREQ_1 =   2022-12-10T03:41:51.043   2216507879.4
RECEIVE_FREQ_1 =   2022-12-10T03:42:01.066   2216507878.545
RECEIVE_FREQ_1 =   2022-12-10T03:42:11.088   2216507877.245
RECEIVE_FREQ_1 =   2022-12-10T03:42:21.110   2216507876.145
RECEIVE_FREQ_1 =   2022-12-10T03:42:31.046   2216507875.245
RECEIVE_FREQ_1 =   2022-12-10T03:42:41.069   2216507874.245
RECEIVE_FREQ_1 =   2022-12-10T03:42:51.091   2216507873.4
RECEIVE_FREQ_1 =   2022-12-10T03:43:01.114   2216507872.4
RECEIVE_FREQ_1 =   2022-12-10T03:43:11.050   2216507871.4
RECEIVE_FREQ_1 =   2022-12-10T03:43:21.072   2216507870.045
RECEIVE_FREQ_1 =   2022-12-10T03:43:31.094   2216507869.0
RECEIVE_FREQ_1 =   2022-12-10T03:43:41.030   2216507868.045
RECEIVE_FREQ_1 =   2022-12-10T03:43:51.053   2216507867.2
RECEIVE_FREQ_1 =   2022-12-10T03:44:01.075   2216507865.945
RECEIVE_FREQ_1 =   2022-12-10T03:44:11.098   2216507865.045
RECEIVE_FREQ_1 =   2022-12-10T03:44:21.034   2216507863.545
RECEIVE_FREQ_1 =   2022-12-10T03:44:31.056   2216507862.645
RECEIVE_FREQ_1 =   2022-12-10T03:44:41.078   2216507861.745
RECEIVE_FREQ_1 =   2022-12-10T03:44:51.101   2216507860.645
RECEIVE_FREQ_1 =   2022-12-10T03:45:01.123   2216507859.545
RECEIVE_FREQ_1 =   2022-12-10T03:45:11.059   2216507858.745
RECEIVE_FREQ_1 =   2022-12-10T03:45:21.082   2216507857.545
RECEIVE_FREQ_1 =   2022-12-10T03:45:31.104   2216507856.545
RECEIVE_FREQ_1 =   2022-12-10T03:45:41.040   2216507855.645
RECEIVE_FREQ_1 =   2022-12-10T03:45:51.062   2216507854.445
RECEIVE_FREQ_1 =   2022-12-10T03:46:01.085   2216507853.445
RECEIVE_FREQ_1 =   2022-12-10T03:46:11.107   2216507852.245
RECEIVE_FREQ_1 =   2022-12-10T03:46:21.043   2216507851.545
RECEIVE_FREQ_1 =   2022-12-10T03:46:31.066   2216507850.245
RECEIVE_FREQ_1 =   2022-12-10T03:46:41.088   2216507849.345
RECEIVE_FREQ_1 =   2022-12-10T03:46:51.110   2216507848.245
RECEIVE_FREQ_1 =   2022-12-10T03:47:01.046   2216507847.245
RECEIVE_FREQ_1 =   2022-12-10T03:47:11.069   2216507846.345
RECEIVE_FREQ_1 =   2022-12-10T03:47:21.091   2216507845.345
RECEIVE_FREQ_1 =   2022-12-10T03:47:31.114   2216507843.945
RECEIVE_FREQ_1 =   2022-12-10T03:47:41.050   2216507842.845
RECEIVE_FREQ_1 =   2022-12-10T03:47:51.072   2216507842.045
RECEIVE_FREQ_1 =   2022-12-10T03:48:01.094   2216507840.745
RECEIVE_FREQ_1 =   2022-12-10T03:48:11.117   2216507839.945
RECEIVE_FREQ_1 =   2022-12-10T03:48:21.053   2216507839.045
RECEIVE_FREQ_1 =   2022-12-10T03:48:31.075   2216507837.745
RECEIVE_FREQ_1 =   2022-12-10T03:48:41.098   2216507836.545
RECEIVE_FREQ_1 =   2022-12-10T03:48:51.120   2216507835.545
RECEIVE_FREQ_1 =   2022-12-10T03:49:01.056   2216507834.645
RECEIVE_FREQ_1 =   2022-12-10T03:49:11.078   2216507833.545
RECEIVE_FREQ_1 =   2022-12-10T03:49:21.101   2216507832.645
RECEIVE_FREQ_1 =   2022-12-10T03:49:31.123   2216507831.445
RECEIVE_FREQ_1 =   2022-12-10T03:49:41.059   2216507830.445
RECEIVE_FREQ_1 =   2022-12-10T03:49:51.082   2216507829.5
RECEIVE_FREQ_1 =   2022-12-10T03:50:01.104   2216507828.645
RECEIVE_FREQ_1 =   2022-12-10T03:50:11.040   2216507827.745
RECEIVE_FREQ_1 =   2022-12-10T03:50:21.062   2216507826.645
RECEIVE_FREQ_1 =   2022-12-10T03:50:31.085   2216507825.845
RECEIVE_FREQ_1 =   2022-12-10T03:50:41.107   2216507824.645
RECEIVE_FREQ_1 =   2022-12-10T03:50:51.043   2216507823.745
RECEIVE_FREQ_1 =   2022-12-10T03:51:01.066   2216507822.845
RECEIVE_FREQ_1 =   2022-12-10T03:51:11.088   2216507821.745
RECEIVE_FREQ_1 =   2022-12-10T03:51:21.110   2216507820.945
RECEIVE_FREQ_1 =   2022-12-10T03:51:31.046   2216507819.845
RECEIVE_FREQ_1 =   2022-12-10T03:51:41.069   2216507818.645
RECEIVE_FREQ_1 =   2022-12-10T03:51:51.091   2216507818.1
RECEIVE_FREQ_1 =   2022-12-10T03:52:01.114   2216507816.845
RECEIVE_FREQ_1 =   2022-12-10T03:52:11.136   2216507815.845
RECEIVE_FREQ_1 =   2022-12-10T03:52:21.072   2216507815.245
RECEIVE_FREQ_1 =   2022-12-10T03:52:31.094   2216507813.945
RECEIVE_FREQ_1 =   2022-12-10T03:52:41.117   2216507812.945
RECEIVE_FREQ_1 =   2022-12-10T03:52:51.053   2216507811.945
RECEIVE_FREQ_1 =   2022-12-10T03:53:01.075   2216507811.045
RECEIVE_FREQ_1 =   2022-12-10T03:53:11.098   2216507809.745
RECEIVE_FREQ_1 =   2022-12-10T03:53:21.120   2216507808.945
RECEIVE_FREQ_1 =   2022-12-10T03:53:31.056   2216507808.3
RECEIVE_FREQ_1 =   2022-12-10T03:53:41.078   2216507806.745
RECEIVE_FREQ_1 =   2022-12-10T03:53:51.101   2216507806.045
RECEIVE_FREQ_1 =   2022-12-10T03:54:01.123   2216507804.845
RECEIVE_FREQ_1 =   2022-12-10T03:54:11.146   2216507803.845
RECEIVE_FREQ_1 =   2022-12-10T03:54:21.082   2216507802.8
RECEIVE_FREQ_1 =   2022-12-10T03:54:31.104   2216507801.845
RECEIVE_FREQ_1 =   2022-12-10T03:54:41.126   2216507801.345
RECEIVE_FREQ_1 =   2022-12-10T03:54:51.062   2216507799.945
RECEIVE_FREQ_1 =   2022-12-10T03:55:01.085   2216507798.945
RECEIVE_FREQ_1 =   2022-12-10T03:55:11.107   2216507797.845
RECEIVE_FREQ_1 =   2022-12-10T03:55:21.043   2216507796.745
RECEIVE_FREQ_1 =   2022-12-10T03:55:31.066   2216507796.045
RECEIVE_FREQ_1 =   2022-12-10T03:55:41.088   2216507794.945
RECEIVE_FREQ_1 =   2022-12-10T03:55:51.110   2216507794.245
RECEIVE_FREQ_1 =   2022-12-10T03:56:01.046   2216507792.9
RECEIVE_FREQ_1 =   2022-12-10T03:56:11.069   2216507791.945
RECEIVE_FREQ_1 =   2022-12-10T03:56:21.091   2216507790.845
RECEIVE_FREQ_1 =   2022-12-10T03:56:31.114   2216507789.845
RECEIVE_FREQ_1 =   2022-12-10T03:56:41.050   2216507788.945
RECEIVE_FREQ_1 =   2022-12-10T03:56:51.072   2216507787.745
RECEIVE_FREQ_1 =   2022-12-10T03:57:01.094   2216507786.745
RECEIVE_FREQ_1 =   2022-12-10T03:57:11.117   2216507785.945
RECEIVE_FREQ_1 =   2022-12-10T03:57:21.053   2216507785.1
RECEIVE_FREQ_1 =   2022-12-10T03:57:31.075   2216507783.545
RECEIVE_FREQ_1 =   2022-12-10T03:57:41.098   2216507782.9
RECEIVE_FREQ_1 =   2022-12-10T03:57:51.034   2216507781.545
RECEIVE_FREQ_1 =   2022-12-10T03:58:01.056   2216507780.945
RECEIVE_FREQ_1 =   2022-12-10T03:58:11.078   2216507779.645
RECEIVE_FREQ_1 =   2022-12-10T03:58:21.101   2216507778.845
RECEIVE_FREQ_1 =   2022-12-10T03:58:31.037   2216507777.545
RECEIVE_FREQ_1 =   2022-12-10T03:58:41.059   2216507776.745
RECEIVE_FREQ_1 =   2022-12-10T03:58:51.082   2216507775.9
RECEIVE_FREQ_1 =   2022-12-10T03:59:01.104   2216507774.5
RECEIVE_FREQ_1 =   2022-12-10T03:59:11.040   2216507773.545
RECEIVE_FREQ_1 =   2022-12-10T03:59:21.062   2216507772.445
RECEIVE_FREQ_1 =   2022-12-10T03:59:31.085   2216507771.545
RECEIVE_FREQ_1 =   2022-12-10T03:59:41.107   2216507770.545
RECEIVE_FREQ_1 =   2022-12-10T03:59:51.043   2216507769.4
RECEIVE_FREQ_1 =   2022-12-10T04:00:01.066   2216507768.445
RECEIVE_FREQ_1 =   2022-12-10T04:00:11.088   2216507767.7
RECEIVE_FREQ_1 =   2022-12-10T04:00:21.024   2216507766.345
RECEIVE_FREQ_1 =   2022-12-10T04:00:31.046   2216507765.045
RECEIVE_FREQ_1 =   2022-12-10T04:00:41.069   2216507764.4
RECEIVE_FREQ_1 =   2022-12-10T04:00:51.091   2216507763.245
RECEIVE_FREQ_1 =   2022-12-10T04:01:01.027   2216507762.2
RECEIVE_FREQ_1 =   2022-12-10T04:01:11.050   2216507761.1
RECEIVE_FREQ_1 =   2022-12-10T04:01:21.072   2216507760.045
RECEIVE_FREQ_1 =   2022-12-10T04:01:31.094   2216507758.845
RECEIVE_FREQ_1 =   2022-12-10T04:01:41.117   2216507757.745
RECEIVE_FREQ_1 =   2022-12-10T04:01:51.053   2216507756.9
RECEIVE_FREQ_1 =   2022-12-10T04:02:01.075   2216507755.645
RECEIVE_FREQ_1 =   2022-12-10T04:02:11.098   2216507754.745
RECEIVE_FREQ_1 =   2022-12-10T04:02:21.034   2216507753.545
RECEIVE_FREQ_1 =   2022-12-10T04:02:31.056   2216507752.545
RECEIVE_FREQ_1 =   2022-12-10T04:02:41.078   2216507751.7
RECEIVE_FREQ_1 =   2022-12-10T04:02:51.101   2216507750.545
RECEIVE_FREQ_1 =   2022-12-10T04:03:01.037   2216507749.445
RECEIVE_FREQ_1 =   2022-12-10T04:03:11.059   2216507748.545
RECEIVE_FREQ_1 =   2022-12-10T04:03:21.082   2216507747.245
RECEIVE_FREQ_1 =   2022-12-10T04:03:31.104   2216507746.445
RECEIVE_FREQ_1 =   2022-12-10T04:03:41.040   2216507745.245
RECEIVE_FREQ_1 =   2022-12-10T04:03:51.062   2216507744.1
RECEIVE_FREQ_1 =   2022-12-10T04:04:01.085   2216507743.1
RECEIVE_FREQ_1 =   2022-12-10T04:04:11.107   2216507741.845
RECEIVE_FREQ_1 =   2022-12-10T04:04:21.043   2216507741.3
RECEIVE_FREQ_1 =   2022-12-10T04:04:31.066   2216507739.9
RECEIVE_FREQ_1 =   2022-12-10T04:04:41.088   2216507738.645
RECEIVE_FREQ_1 =   2022-12-10T04:04:51.024   2216507738.045
RECEIVE_FREQ_1 =   2022-12-10T04:05:01.046   2216507736.645
RECEIVE_FREQ_1 =   2022-12-10T04:05:11.069   2216507736.0
RECEIVE_FREQ_1 =   2022-12-10T04:05:21.091   2216507734.245
RECEIVE_FREQ_1 =   2022-12-10T04:05:31.114   2216507733.645
RECEIVE_FREQ_1 =   2022-12-10T04:05:41.050   2216507732.545
RECEIVE_FREQ_1 =   2022-12-10T04:05:51.072   2216507731.245
RECEIVE_FREQ_1 =   2022-12-10T04:06:01.094   2216507730.4
RECEIVE_FREQ_1 =   2022-12-10T04:06:11.030   2216507729.245
RECEIVE_FREQ_1 =   2022-12-10T04:06:21.053   2216507728.145
RECEIVE_FREQ_1 =   2022-12-10T04:06:31.075   2216507726.945
RECEIVE_FREQ_1 =   2022-12-10T04:06:41.098   2216507726.1
RECEIVE_FREQ_1 =   2022-12-10T04:06:51.034   2216507724.8
RECEIVE_FREQ_1 =   2022-12-10T04:07:01.056   2216507723.845
RECEIVE_FREQ_1 =   2022-12-10T04:07:11.078   2216507722.745
RECEIVE_FREQ_1 =   2022-12-10T04:07:21.101   2216507721.645
RECEIVE_FREQ_1 =   2022-12-10T04:07:31.123   2216507720.445
RECEIVE_FREQ_1 =   2022-12-10T04:07:41.059   2216507719.345
RECEIVE_FREQ_1 =   2022-12-10T04:07:51.082   2216507718.445
RECEIVE_FREQ_1 =   2022-12-10T04:08:01.104   2216507717.345
RECEIVE_FREQ_1 =   2022-12-10T04:08:11.040   2216507715.9
RECEIVE_FREQ_1 =   2022-12-10T04:08:21.062   2216507715.045
RECEIVE_FREQ_1 =   2022-12-10T04:08:31.085   2216507714.045
RECEIVE_FREQ_1 =   2022-12-10T04:08:41.107   2216507712.845
RECEIVE_FREQ_1 =   2022-12-10T04:08:51.043   2216507711.645
RECEIVE_FREQ_1 =   2022-12-10T04:09:01.066   2216507710.945
RECEIVE_FREQ_1 =   2022-12-10T04:09:11.088   2216507709.545
RECEIVE_FREQ_1 =   2022-12-10T04:09:21.024   2216507708.345
RECEIVE_FREQ_1 =   2022-12-10T04:09:31.046   2216507707.645
RECEIVE_FREQ_1 =   2022-12-10T04:09:41.069   2216507706.345
RECEIVE_FREQ_1 =   2022-12-10T04:09:51.091   2216507705.4
RECEIVE_FREQ_1 =   2022-12-10T04:10:01.027   2216507704.145
RECEIVE_FREQ_1 =   2022-12-10T04:10:11.050   2216507703.045
RECEIVE_FREQ_1 =   2022-12-10T04:10:21.072   2216507701.945
RECEIVE_FREQ_1 =   2022-12-10T04:10:31.094   2216507700.845
RECEIVE_FREQ_1 =   2022-12-10T04:10:41.117   2216507699.745
RECEIVE_FREQ_1 =   2022-12-10T04:10:51.053   2216507698.545
RECEIVE_FREQ_1 =   2022-12-10T04:11:01.075   2216507697.745
RECEIVE_FREQ_1 =   2022-12-10T04:11:11.098   2216507696.745
RECEIVE_FREQ_1 =   2022-12-10T04:11:21.034   2216507695.445
RECEIVE_FREQ_1 =   2022-12-10T04:11:31.056   2216507694.145
RECEIVE_FREQ_1 =   2022-12-10T04:11:41.078   2216507693.045
RECEIVE_FREQ_1 =   2022-12-10T04:11:51.101   2216507691.745
RECEIVE_FREQ_1 =   2022-12-10T04:12:01.037   2216507690.945
RECEIVE_FREQ_1 =   2022-12-10T04:12:11.059   2216507689.845
RECEIVE_FREQ_1 =   2022-12-10T04:12:21.082   2216507688.745
RECEIVE_FREQ_1 =   2022-12-10T04:12:31.104   2216507687.745
RECEIVE_FREQ_1 =   2022-12-10T04:12:41.040   2216507686.345
RECEIVE_FREQ_1 =   2022-12-10T04:12:51.062   2216507685.345
RECEIVE_FREQ_1 =   2022-12-10T04:13:01.085   2216507684.145
RECEIVE_FREQ_1 =   2022-12-10T04:13:11.107   2216507683.345
RECEIVE_FREQ_1 =   2022-12-10T04:13:21.043   2216507682.045
RECEIVE_FREQ_1 =   2022-12-10T04:13:31.066   2216507680.945
RECEIVE_FREQ_1 =   2022-12-10T04:13:41.088   2216507679.845
RECEIVE_FREQ_1 =   2022-12-10T04:13:51.024   2216507678.945
RECEIVE_FREQ_1 =   2022-12-10T04:14:01.046   2216507677.645
RECEIVE_FREQ_1 =   2022-12-10T04:14:11.069   2216507676.245
RECEIVE_FREQ_1 =   2022-12-10T04:14:21.091   2216507675.345
RECEIVE_FREQ_1 =   2022-12-10T04:14:31.114   2216507674.045
RECEIVE_FREQ_1 =   2022-12-10T04:14:41.050   2216507672.945
RECEIVE_FREQ_1 =   2022-12-10T04:14:51.072   2216507672.045
RECEIVE_FREQ_1 =   2022-12-10T04:15:01.094   2216507670.845
RECEIVE_FREQ_1 =   2022-12-10T04:15:11.117   2216507669.545
RECEIVE_FREQ_1 =   2022-12-10T04:15:21.053   2216507668.545
RECEIVE_FREQ_1 =   2022-12-10T04:15:31.075   2216507667.045
RECEIVE_FREQ_1 =   2022-12-10T04:15:41.098   2216507666.045
RECEIVE_FREQ_1 =   2022-12-10T04:15:51.034   2216507665.345
RECEIVE_FREQ_1 =   2022-12-10T04:16:01.056   2216507664.045
RECEIVE_FREQ_1 =   2022-12-10T04:16:11.078   2216507663.245
RECEIVE_FREQ_1 =   2022-12-10T04:16:21.101   2216507661.745
RECEIVE_FREQ_1 =   2022-12-10T04:16:41.059   2216507659.645
RECEIVE_FREQ_1 =   2022-12-10T04:16:51.082   2216507658.245
RECEIVE_FREQ_1 =   2022-12-10T04:17:01.104   2216507656.845
RECEIVE_FREQ_1 =   2022-12-10T04:17:21.062   2216507655.345
RECEIVE_FREQ_1 =   2022-12-10T04:17:41.021   2216507652.845
RECEIVE_FREQ_1 =   2022-12-10T04:17:51.043   2216507651.445
RECEIVE_FREQ_1 =   2022-12-10T04:18:21.110   2216507648.345
RECEIVE_FREQ_1 =   2022-12-10T04:18:41.069   2216507645.745
RECEIVE_FREQ_1 =   2022-12-10T04:19:01.027   2216507643.545
RECEIVE_FREQ_1 =   2022-12-10T04:19:21.072   2216507640.845
RECEIVE_FREQ_1 =   2022-12-10T04:19:31.094   2216507640.245
RECEIVE_FREQ_1 =   2022-12-10T04:19:41.030   2216507638.845
RECEIVE_FREQ_1 =   2022-12-10T04:19:51.053   2216507637.845
RECEIVE_FREQ_1 =   2022-12-10T04:20:01.075   2216507636.645
RECEIVE_FREQ_1 =   2022-12-10T04:20:11.098   2216507635.445
RECEIVE_FREQ_1 =   2022-12-10T04:20:21.034   2216507634.445
RECEIVE_FREQ_1 =   2022-12-10T04:20:31.056   2216507633.245
RECEIVE_FREQ_1 =   2022-12-10T04:20:41.078   2216507632.645
RECEIVE_FREQ_1 =   2022-12-10T04:20:51.101   2216507631.345
RECEIVE_FREQ_1 =   2022-12-10T04:21:01.123   2216507630.345
RECEIVE_FREQ_1 =   2022-12-10T04:21:11.059   2216507629.045
RECEIVE_FREQ_1 =   2022-12-10T04:21:21.082   2216507627.845
RECEIVE_FREQ_1 =   2022-12-10T04:21:31.104   2216507626.945
RECEIVE_FREQ_1 =   2022-12-10T04:21:41.040   2216507625.745
RECEIVE_FREQ_1 =   2022-12-10T04:21:51.062   2216507624.645
RECEIVE_FREQ_1 =   2022-12-10T04:22:01.085   2216507623.645
RECEIVE_FREQ_1 =   2022-12-10T04:22:11.107   2216507622.645
RECEIVE_FREQ_1 =   2022-12-10T04:22:21.043   2216507621.445
RECEIVE_FREQ_1 =   2022-12-10T04:22:31.066   2216507620.245
RECEIVE_FREQ_1 =   2022-12-10T04:22:41.088   2216507619.345
RECEIVE_FREQ_1 =   2022-12-10T04:22:51.110   2216507618.045
RECEIVE_FREQ_1 =   2022-12-10T04:23:01.046   2216507617.245
RECEIVE_FREQ_1 =   2022-12-10T04:23:11.069   2216507615.745
RECEIVE_FREQ_1 =   2022-12-10T04:23:21.091   2216507615.145
RECEIVE_FREQ_1 =   2022-12-10T04:23:31.114   2216507614.045
RECEIVE_FREQ_1 =   2022-12-10T04:23:41.050   2216507612.9
RECEIVE_FREQ_1 =   2022-12-10T04:23:51.072   2216507611.645
RECEIVE_FREQ_1 =   2022-12-10T04:24:01.094   2216507610.445
RECEIVE_FREQ_1 =   2022-12-10T04:24:11.117   2216507609.645
RECEIVE_FREQ_1 =   2022-12-10T04:24:21.053   2216507608.445
RECEIVE_FREQ_1 =   2022-12-10T04:24:31.075   2216507607.4
RECEIVE_FREQ_1 =   2022-12-10T04:24:41.098   2216507606.245
RECEIVE_FREQ_1 =   2022-12-10T04:24:51.034   2216507605.245
RECEIVE_FREQ_1 =   2022-12-10T04:25:01.056   2216507603.945
RECEIVE_FREQ_1 =   2022-12-10T04:25:11.078   2216507603.145
RECEIVE_FREQ_1 =   2022-12-10T04:25:21.101   2216507602.045
RECEIVE_FREQ_1 =   2022-12-10T04:25:31.037   2216507600.645
RECEIVE_FREQ_1 =   2022-12-10T04:25:41.059   2216507599.445
RECEIVE_FREQ_1 =   2022-12-10T04:25:51.082   2216507598.645
RECEIVE_FREQ_1 =   2022-12-10T04:26:01.104   2216507597.245
RECEIVE_FREQ_1 =   2022-12-10T04:26:11.040   2216507596.445
RECEIVE_FREQ_1 =   2022-12-10T04:26:21.062   2216507595.245
RECEIVE_FREQ_1 =   2022-12-10T04:26:31.085   2216507594.245
RECEIVE_FREQ_1 =   2022-12-10T04:26:41.107   2216507592.945
RECEIVE_FREQ_1 =   2022-12-10T04:26:51.043   2216507592.4
RECEIVE_FREQ_1 =   2022-12-10T04:27:01.066   2216507590.745
RECEIVE_FREQ_1 =   2022-12-10T04:27:11.088   2216507589.645
RECEIVE_FREQ_1 =   2022-12-10T04:27:21.110   2216507588.745
RECEIVE_FREQ_1 =   2022-12-10T04:27:31.046   2216507587.845
RECEIVE_FREQ_1 =   2022-12-10T04:27:41.069   2216507586.445
RECEIVE_FREQ_1 =   2022-12-10T04:27:51.091   2216507585.645
RECEIVE_FREQ_1 =   2022-12-10T04:28:01.114   2216507584.245
RECEIVE_FREQ_1 =   2022-12-10T04:28:11.050   2216507583.345
RECEIVE_FREQ_1 =   2022-12-10T04:28:21.072   2216507581.745
RECEIVE_FREQ_1 =   2022-12-10T04:28:31.094   2216507580.845
RECEIVE_FREQ_1 =   2022-12-10T04:28:41.117   2216507580.045
RECEIVE_FREQ_1 =   2022-12-10T04:28:51.053   2216507578.345
RECEIVE_FREQ_1 =   2022-12-10T04:29:01.075   2216507577.645
RECEIVE_FREQ_1 =   2022-12-10T04:29:11.098   2216507576.545
RECEIVE_FREQ_1 =   2022-12-10T04:29:21.034   2216507575.245
RECEIVE_FREQ_1 =   2022-12-10T04:29:31.056   2216507574.345
RECEIVE_FREQ_1 =   2022-12-10T04:29:41.078   2216507573.345
RECEIVE_FREQ_1 =   2022-12-10T04:29:51.101   2216507571.745
RECEIVE_FREQ_1 =   2022-12-10T04:30:01.037   2216507571.045
RECEIVE_FREQ_1 =   2022-12-10T04:30:11.059   2216507570.045
RECEIVE_FREQ_1 =   2022-12-10T04:30:21.082   2216507568.845
RECEIVE_FREQ_1 =   2022-12-10T04:30:31.104   2216507567.945
RECEIVE_FREQ_1 =   2022-12-10T04:30:41.040   2216507566.645
RECEIVE_FREQ_1 =   2022-12-10T04:30:51.062   2216507565.345
RECEIVE_FREQ_1 =   2022-12-10T04:31:01.085   2216507564.345
RECEIVE_FREQ_1 =   2022-12-10T04:31:11.107   2216507563.145
RECEIVE_FREQ_1 =   2022-12-10T04:31:21.043   2216507561.945
RECEIVE_FREQ_1 =   2022-12-10T04:31:31.066   2216507560.945
RECEIVE_FREQ_1 =   2022-12-10T04:31:41.088   2216507559.8
RECEIVE_FREQ_1 =   2022-12-10T04:31:51.110   2216507558.745
RECEIVE_FREQ_1 =   2022-12-10T04:32:01.046   2216507557.645
RECEIVE_FREQ_1 =   2022-12-10T04:32:11.069   2216507556.7
RECEIVE_FREQ_1 =   2022-12-10T04:32:21.091   2216507555.545
RECEIVE_FREQ_1 =   2022-12-10T04:32:31.114   2216507554.045
RECEIVE_FREQ_1 =   2022-12-10T04:32:41.050   2216507552.945
RECEIVE_FREQ_1 =   2022-12-10T04:32:51.072   2216507552.045
RECEIVE_FREQ_1 =   2022-12-10T04:33:01.094   2216507550.545
RECEIVE_FREQ_1 =   2022-12-10T04:33:11.030   2216507549.545
RECEIVE_FREQ_1 =   2022-12-10T04:33:21.053   2216507548.445
RECEIVE_FREQ_1 =   2022-12-10T04:33:31.075   2216507547.445
RECEIVE_FREQ_1 =   2022-12-10T04:33:41.098   2216507546.345
RECEIVE_FREQ_1 =   2022-12-10T04:33:51.034   2216507545.245
RECEIVE_FREQ_1 =   2022-12-10T04:34:01.056   2216507543.745
RECEIVE_FREQ_1 =   2022-12-10T04:34:11.078   2216507543.045
RECEIVE_FREQ_1 =   2022-12-10T04:34:21.101   2216507541.345
RECEIVE_FREQ_1 =   2022-12-10T04:34:31.123   2216507540.645
RECEIVE_FREQ_1 =   2022-12-10T04:34:41.059   2216507539.245
RECEIVE_FREQ_1 =   2022-12-10T04:34:51.082   2216507538.3
RECEIVE_FREQ_1 =   2022-12-10T04:35:01.104   2216507537.145
RECEIVE_FREQ_1 =   2022-12-10T04:35:11.040   2216507536.2
RECEIVE_FREQ_1 =   2022-12-10T04:35:21.062   2216507534.645
RECEIVE_FREQ_1 =   2022-12-10T04:35:31.085   2216507533.645
RECEIVE_FREQ_1 =   2022-12-10T04:35:41.107   2216507532.545
RECEIVE_FREQ_1 =   2022-12-10T04:35:51.043   2216507531.445
RECEIVE_FREQ_1 =   2022-12-10T04:36:01.066   2216507530.345
RECEIVE_FREQ_1 =   2022-12-10T04:36:11.088   2216507529.4
RECEIVE_FREQ_1 =   2022-12-10T04:36:21.110   2216507528.3
RECEIVE_FREQ_1 =   2022-12-10T04:36:31.046   2216507526.8
RECEIVE_FREQ_1 =   2022-12-10T04:36:41.069   2216507526.0
RECEIVE_FREQ_1 =   2022-12-10T04:36:51.091   2216507524.845
RECEIVE_FREQ_1 =   2022-12-10T04:37:01.027   2216507523.5
RECEIVE_FREQ_1 =   2022-12-10T04:37:11.050   2216507522.145
RECEIVE_FREQ_1 =   2022-12-10T04:37:21.072   2216507521.245
RECEIVE_FREQ_1 =   2022-12-10T04:37:31.094   2216507520.045
RECEIVE_FREQ_1 =   2022-12-10T04:37:41.030   2216507518.545
RECEIVE_FREQ_1 =   2022-12-10T04:37:51.053   2216507517.645
RECEIVE_FREQ_1 =   2022-12-10T04:38:01.075   2216507516.745
RECEIVE_FREQ_1 =   2022-12-10T04:38:11.098   2216507515.345
RECEIVE_FREQ_1 =   2022-12-10T04:38:21.034   2216507514.145
RECEIVE_FREQ_1 =   2022-12-10T04:38:31.056   2216507513.345
RECEIVE_FREQ_1 =   2022-12-10T04:38:41.078   2216507511.945
RECEIVE_FREQ_1 =   2022-12-10T04:38:51.101   2216507510.745
RECEIVE_FREQ_1 =   2022-12-10T04:39:01.037   2216507509.445
RECEIVE_FREQ_1 =   2022-12-10T04:39:11.059   2216507508.445
RECEIVE_FREQ_1 =   2022-12-10T04:39:21.082   2216507507.545
RECEIVE_FREQ_1 =   2022-12-10T04:39:31.104   2216507506.045
RECEIVE_FREQ_1 =   2022-12-10T04:39:41.040   2216507504.745
RECEIVE_FREQ_1 =   2022-12-10T04:39:51.062   2216507503.945
RECEIVE_FREQ_1 =   2022-12-10T04:40:01.085   2216507502.6
RECEIVE_FREQ_1 =   2022-12-10T04:40:11.107   2216507501.9
RECEIVE_FREQ_1 =   2022-12-10T04:40:21.043   2216507500.145
RECEIVE_FREQ_1 =   2022-12-10T04:40:31.066   2216507499.445
RECEIVE_FREQ_1 =   2022-12-10T04:40:41.088   2216507498.3
RECEIVE_FREQ_1 =   2022-12-10T04:40:51.110   2216507496.745
RECEIVE_FREQ_1 =   2022-12-10T04:41:01.046   2216507495.745
RECEIVE_FREQ_1 =   2022-12-10T04:41:11.069   2216507494.7
RECEIVE_FREQ_1 =   2022-12-10T04:41:21.091   2216507493.045
RECEIVE_FREQ_1 =   2022-12-10T04:41:31.114   2216507492.445
RECEIVE_FREQ_1 =   2022-12-10T04:41:41.050   2216507491.6
RECEIVE_FREQ_1 =   2022-12-10T04:41:51.072   2216507489.745
RECEIVE_FREQ_1 =   2022-12-10T04:42:01.094   2216507489.2
RECEIVE_FREQ_1 =   2022-12-10T04:42:11.030   2216507487.6
RECEIVE_FREQ_1 =   2022-12-10T04:42:21.053   2216507486.4
RECEIVE_FREQ_1 =   2022-12-10T04:42:31.075   2216507485.3
RECEIVE_FREQ_1 =   2022-12-10T04:42:41.098   2216507484.5
RECEIVE_FREQ_1 =   2022-12-10T04:42:51.034   2216507483.2
RECEIVE_FREQ_1 =   2022-12-10T04:43:01.056   2216507482.045
RECEIVE_FREQ_1 =   2022-12-10T04:43:11.078   2216507480.345
RECEIVE_FREQ_1 =   2022-12-10T04:43:21.101   2216507479.445
RECEIVE_FREQ_1 =   2022-12-10T04:43:31.037   2216507478.345
RECEIVE_FREQ_1 =   2022-12-10T04:43:41.059   2216507477.445
RECEIVE_FREQ_1 =   2022-12-10T04:43:51.082   2216507475.945
RECEIVE_FREQ_1 =   2022-12-10T04:44:01.104   2216507474.9
RECEIVE_FREQ_1 =   2022-12-10T04:44:11.040   2216507473.7
RECEIVE_FREQ_1 =   2022-12-10T04:44:21.062   2216507472.345
RECEIVE_FREQ_1 =   2022-12-10T04:44:31.085   2216507471.5
RECEIVE_FREQ_1 =   2022-12-10T04:44:41.107   2216507470.4
RECEIVE_FREQ_1 =   2022-12-10T04:44:51.043   2216507468.9
RECEIVE_FREQ_1 =   2022-12-10T04:45:01.066   2216507468.045
RECEIVE_FREQ_1 =   2022-12-10T04:45:11.088   2216507466.9
RECEIVE_FREQ_1 =   2022-12-10T04:45:21.110   2216507465.4
RECEIVE_FREQ_1 =   2022-12-10T04:45:31.046   2216507464.345
RECEIVE_FREQ_1 =   2022-12-10T04:45:41.069   2216507463.045
RECEIVE_FREQ_1 =   2022-12-10T04:45:51.091   2216507462.0
RECEIVE_FREQ_1 =   2022-12-10T04:46:01.114   2216507460.545
RECEIVE_FREQ_1 =   2022-12-10T04:46:11.050   2216507459.6
RECEIVE_FREQ_1 =   2022-12-10T04:46:21.072   2216507458.5
RECEIVE_FREQ_1 =   2022-12-10T04:46:31.094   2216507457.1
RECEIVE_FREQ_1 =   2022-12-10T04:46:41.030   2216507455.945
RECEIVE_FREQ_1 =   2022-12-10T04:46:51.053   2216507455.0
RECEIVE_FREQ_1 =   2022-12-10T04:47:01.075   2216507453.345
RECEIVE_FREQ_1 =   2022-12-10T04:47:11.098   2216507452.345
RECEIVE_FREQ_1 =   2022-12-10T04:47:21.034   2216507451.045
RECEIVE_FREQ_1 =   2022-12-10T04:47:31.056   2216507449.9
RECEIVE_FREQ_1 =   2022-12-10T04:47:41.078   2216507448.9
RECEIVE_FREQ_1 =   2022-12-10T04:47:51.101   2216507447.945
RECEIVE_FREQ_1 =   2022-12-10T04:48:01.037   2216507446.8
RECEIVE_FREQ_1 =   2022-12-10T04:48:11.059   2216507445.6
RECEIVE_FREQ_1 =   2022-12-10T04:48:21.082   2216507444.145
RECEIVE_FREQ_1 =   2022-12-10T04:48:31.104   2216507442.845
RECEIVE_FREQ_1 =   2022-12-10T04:48:41.040   2216507441.8
RECEIVE_FREQ_1 =   2022-12-10T04:48:51.062   2216507440.745
RECEIVE_FREQ_1 =   2022-12-10T04:49:01.085   2216507439.6
RECEIVE_FREQ_1 =   2022-12-10T04:49:11.107   2216507438.145
RECEIVE_FREQ_1 =   2022-12-10T04:49:21.043   2216507437.345
RECEIVE_FREQ_1 =   2022-12-10T04:49:31.066   2216507436.0
RECEIVE_FREQ_1 =   2022-12-10T04:49:41.088   2216507434.6
RECEIVE_FREQ_1 =   2022-12-10T04:49:51.024   2216507433.5
RECEIVE_FREQ_1 =   2022-12-10T04:50:01.046   2216507432.4
RECEIVE_FREQ_1 =   2022-12-10T04:50:11.069   2216507431.1
RECEIVE_FREQ_1 =   2022-12-10T04:50:21.091   2216507429.945
RECEIVE_FREQ_1 =   2022-12-10T04:50:31.114   2216507428.845
RECEIVE_FREQ_1 =   2022-12-10T04:50:41.050   2216507427.8
RECEIVE_FREQ_1 =   2022-12-10T04:50:51.072   2216507426.2
RECEIVE_FREQ_1 =   2022-12-10T04:51:01.094   2216507424.8
RECEIVE_FREQ_1 =   2022-12-10T04:51:11.030   2216507423.845
RECEIVE_FREQ_1 =   2022-12-10T04:51:21.053   2216507422.8
RECEIVE_FREQ_1 =   2022-12-10T04:51:31.075   2216507421.5
RECEIVE_FREQ_1 =   2022-12-10T04:51:41.098   2216507420.3
RECEIVE_FREQ_1 =   2022-12-10T04:51:51.034   2216507419.5
RECEIVE_FREQ_1 =   2022-12-10T04:52:01.056   2216507418.2
RECEIVE_FREQ_1 =   2022-12-10T04:52:11.078   2216507416.7
RECEIVE_FREQ_1 =   2022-12-10T04:52:21.101   2216507415.445
RECEIVE_FREQ_1 =   2022-12-10T04:52:31.037   2216507414.245
RECEIVE_FREQ_1 =   2022-12-10T04:52:41.059   2216507413.2
RECEIVE_FREQ_1 =   2022-12-10T04:52:51.082   2216507411.645
RECEIVE_FREQ_1 =   2022-12-10T04:53:01.104   2216507410.745
RECEIVE_FREQ_1 =   2022-12-10T04:53:11.040   2216507409.445
RECEIVE_FREQ_1 =   2022-12-10T04:53:21.062   2216507408.045
RECEIVE_FREQ_1 =   2022-12-10T04:53:31.085   2216507407.245
RECEIVE_FREQ_1 =   2022-12-10T04:53:41.107   2216507406.3
RECEIVE_FREQ_1 =   2022-12-10T04:53:51.043   2216507404.645
RECEIVE_FREQ_1 =   2022-12-10T04:54:01.066   2216507403.445
RECEIVE_FREQ_1 =   2022-12-10T04:54:11.088   2216507402.245
RECEIVE_FREQ_1 =   2022-12-10T04:54:21.110   2216507401.045
RECEIVE_FREQ_1 =   2022-12-10T04:54:31.046   2216507399.845
RECEIVE_FREQ_1 =   2022-12-10T04:54:41.069   2216507398.945
RECEIVE_FREQ_1 =   2022-12-10T04:54:51.091   2216507397.445
RECEIVE_FREQ_1 =   2022-12-10T04:55:01.114   2216507396.345
RECEIVE_FREQ_1 =   2022-12-10T04:55:11.050   2216507395.345
RECEIVE_FREQ_1 =   2022-12-10T04:55:21.072   2216507393.745
RECEIVE_FREQ_1 =   2022-12-10T04:55:31.094   2216507392.445
RECEIVE_FREQ_1 =   2022-12-10T04:55:41.030   2216507391.345
RECEIVE_FREQ_1 =   2022-12-10T04:55:51.053   2216507390.545
RECEIVE_FREQ_1 =   2022-12-10T04:56:01.075   2216507388.845
RECEIVE_FREQ_1 =   2022-12-10T04:56:11.098   2216507387.945
RECEIVE_FREQ_1 =   2022-12-10T04:56:21.034   2216507386.745
RECEIVE_FREQ_1 =   2022-12-10T04:56:31.056   2216507385.445
RECEIVE_FREQ_1 =   2022-12-10T04:56:41.078   2216507384.245
RECEIVE_FREQ_1 =   2022-12-10T04:56:51.101   2216507383.345
RECEIVE_FREQ_1 =   2022-12-10T04:57:01.037   2216507381.845
RECEIVE_FREQ_1 =   2022-12-10T04:57:11.059   2216507380.645
RECEIVE_FREQ_1 =   2022-12-10T04:57:21.082   2216507379.545
RECEIVE_FREQ_1 =   2022-12-10T04:57:31.104   2216507378.245
RECEIVE_FREQ_1 =   2022-12-10T04:57:41.040   2216507376.945
RECEIVE_FREQ_1 =   2022-12-10T04:57:51.062   2216507376.045
RECEIVE_FREQ_1 =   2022-12-10T04:58:01.085   2216507374.745
RECEIVE_FREQ_1 =   2022-12-10T04:58:11.107   2216507373.445
RECEIVE_FREQ_1 =   2022-12-10T04:58:21.043   2216507371.945
RECEIVE_FREQ_1 =   2022-12-10T04:58:31.066   2216507370.845
RECEIVE_FREQ_1 =   2022-12-10T04:58:41.088   2216507369.545
RECEIVE_FREQ_1 =   2022-12-10T04:58:51.110   2216507368.145
RECEIVE_FREQ_1 =   2022-12-10T04:59:01.046   2216507367.345
RECEIVE_FREQ_1 =   2022-12-10T04:59:11.069   2216507366.145
RECEIVE_FREQ_1 =   2022-12-10T04:59:21.091   2216507364.945
RECEIVE_FREQ_1 =   2022-12-10T04:59:31.114   2216507363.745
RECEIVE_FREQ_1 =   2022-12-10T04:59:41.050   2216507362.245
RECEIVE_FREQ_1 =   2022-12-10T04:59:51.072   2216507361.245
RECEIVE_FREQ_1 =   2022-12-10T05:00:01.094   2216507359.945
RECEIVE_FREQ_1 =   2022-12-10T05:00:11.030   2216507358.845
RECEIVE_FREQ_1 =   2022-12-10T05:00:21.053   2216507357.645
RECEIVE_FREQ_1 =   2022-12-10T05:00:31.075   2216507356.445
RECEIVE_FREQ_1 =   2022-12-10T05:00:41.098   2216507355.145
RECEIVE_FREQ_1 =   2022-12-10T05:00:51.034   2216507354.045
RECEIVE_FREQ_1 =   2022-12-10T05:01:01.056   2216507352.545
RECEIVE_FREQ_1 =   2022-12-10T05:01:11.078   2216507351.545
RECEIVE_FREQ_1 =   2022-12-10T05:01:21.101   2216507350.245
RECEIVE_FREQ_1 =   2022-12-10T05:01:31.037   2216507349.245
RECEIVE_FREQ_1 =   2022-12-10T05:01:41.059   2216507348.145
RECEIVE_FREQ_1 =   2022-12-10T05:01:51.082   2216507346.5
RECEIVE_FREQ_1 =   2022-12-10T05:02:01.104   2216507345.445
RECEIVE_FREQ_1 =   2022-12-10T05:02:11.040   2216507344.545
RECEIVE_FREQ_1 =   2022-12-10T05:02:21.062   2216507343.045
RECEIVE_FREQ_1 =   2022-12-10T05:02:31.085   2216507341.845
RECEIVE_FREQ_1 =   2022-12-10T05:02:41.107   2216507340.545
RECEIVE_FREQ_1 =   2022-12-10T05:02:51.043   2216507339.345
RECEIVE_FREQ_1 =   2022-12-10T05:03:01.066   2216507337.945
RECEIVE_FREQ_1 =   2022-12-10T05:03:11.088   2216507336.945
RECEIVE_FREQ_1 =   2022-12-10T05:03:21.110   2216507335.745
RECEIVE_FREQ_1 =   2022-12-10T05:03:31.046   2216507334.645
RECEIVE_FREQ_1 =   2022-12-10T05:03:41.069   2216507333.745
RECEIVE_FREQ_1 =   2022-12-10T05:03:51.091   2216507332.545
RECEIVE_FREQ_1 =   2022-12-10T05:04:01.114   2216507331.145
RECEIVE_FREQ_1 =   2022-12-10T05:04:11.050   2216507329.845
RECEIVE_FREQ_1 =   2022-12-10T05:04:21.072   2216507328.445
RECEIVE_FREQ_1 =   2022-12-10T05:04:31.094   2216507327.3
RECEIVE_FREQ_1 =   2022-12-10T05:04:41.117   2216507326.045
RECEIVE_FREQ_1 =   2022-12-10T05:04:51.053   2216507324.945
RECEIVE_FREQ_1 =   2022-12-10T05:05:01.075   2216507323.545
RECEIVE_FREQ_1 =   2022-12-10T05:05:11.098   2216507322.445
RECEIVE_FREQ_1 =   2022-12-10T05:05:21.034   2216507321.345
RECEIVE_FREQ_1 =   2022-12-10T05:05:31.056   2216507320.345
RECEIVE_FREQ_1 =   2022-12-10T05:05:41.078   2216507319.145
RECEIVE_FREQ_1 =   2022-12-10T05:05:51.101   2216507317.645
RECEIVE_FREQ_1 =   2022-12-10T05:06:01.123   2216507316.345
RECEIVE_FREQ_1 =   2022-12-10T05:06:11.059   2216507315.645
