data/tdm/2022-11-25Z_2022-156A.tdm

CCSDS_TDM_VERS = 2.0
COMMENT TDM ARTEMIS 1 Doppler data by Scott Tilley for 2022-11-25 UTC
COMMENT Signal not demodulated, to low of SNR, centre carrier integrated in 10s by 0.1Hz bin and extracted for peak value.
CREATION_DATE = 2022-11-25Z
ORIGINATOR = SCOTT TILLEY

META_START
COMMENT 
COMMENT 
SYSTEM TIME = UTC
PARTICIPANT_1 = COSPAR 8049
PARTICIPANT_2 = 2022-156A
MODE = SEQUENTIAL
PATH = 2,1
INTEGRATION_INTERVAL = 10
INTEGRATION_REF = MIDDLE
FREQ_OFFSET = 0
TRANSMIT_DELAY_1 = 0
RECEIVE_DELAY_1 = 0
DATA_QUALITY = RAW
META_STOP

DATA_START
RECEIVE_FREQ_1 =   2022-11-25T20:08:42.691   2216498642.8
RECEIVE_FREQ_1 =   2022-11-25T20:08:53.232   2216498641.9
RECEIVE_FREQ_1 =   2022-11-25T20:09:03.686   2216498641.3
RECEIVE_FREQ_1 =   2022-11-25T20:09:24.768   2216498639.4
RECEIVE_FREQ_1 =   2022-11-25T20:09:35.309   2216498638.5
RECEIVE_FREQ_1 =   2022-11-25T20:09:45.763   2216498637.1
RECEIVE_FREQ_1 =   2022-11-25T20:09:56.304   2216498636.1
RECEIVE_FREQ_1 =   2022-11-25T20:10:06.845   2216498635.1
RECEIVE_FREQ_1 =   2022-11-25T20:10:17.299   2216498634.5
RECEIVE_FREQ_1 =   2022-11-25T20:10:27.754   2216498633.2
RECEIVE_FREQ_1 =   2022-11-25T20:10:38.294   2216498632.5
RECEIVE_FREQ_1 =   2022-11-25T20:10:48.749   2216498631.6
RECEIVE_FREQ_1 =   2022-11-25T20:10:59.203   2216498630.4
RECEIVE_FREQ_1 =   2022-11-25T20:11:09.658   2216498629.5
RECEIVE_FREQ_1 =   2022-11-25T20:11:20.198   2216498628.6
RECEIVE_FREQ_1 =   2022-11-25T20:11:30.653   2216498627.2
RECEIVE_FREQ_1 =   2022-11-25T20:11:41.194   2216498626.3
RECEIVE_FREQ_1 =   2022-11-25T20:12:02.189   2216498624.6
RECEIVE_FREQ_1 =   2022-11-25T20:12:12.643   2216498623.1
RECEIVE_FREQ_1 =   2022-11-25T20:12:23.184   2216498622.0
RECEIVE_FREQ_1 =   2022-11-25T20:12:44.093   2216498620.6
RECEIVE_FREQ_1 =   2022-11-25T20:12:54.634   2216498619.5
RECEIVE_FREQ_1 =   2022-11-25T20:13:05.088   2216498618.1
RECEIVE_FREQ_1 =   2022-11-25T20:13:15.629   2216498617.2
RECEIVE_FREQ_1 =   2022-11-25T20:13:26.083   2216498616.3
RECEIVE_FREQ_1 =   2022-11-25T20:13:36.538   2216498615.3
RECEIVE_FREQ_1 =   2022-11-25T20:13:47.078   2216498614.2
RECEIVE_FREQ_1 =   2022-11-25T20:13:57.533   2216498613.3
RECEIVE_FREQ_1 =   2022-11-25T20:14:07.987   2216498611.8
RECEIVE_FREQ_1 =   2022-11-25T20:14:18.528   2216498610.9
RECEIVE_FREQ_1 =   2022-11-25T20:14:28.982   2216498609.9
RECEIVE_FREQ_1 =   2022-11-25T20:14:39.523   2216498609.0
RECEIVE_FREQ_1 =   2022-11-25T20:14:49.978   2216498608.0
RECEIVE_FREQ_1 =   2022-11-25T20:15:10.973   2216498606.0
RECEIVE_FREQ_1 =   2022-11-25T20:15:21.514   2216498604.9
RECEIVE_FREQ_1 =   2022-11-25T20:15:31.968   2216498604.0
RECEIVE_FREQ_1 =   2022-11-25T20:15:42.509   2216498603.0
RECEIVE_FREQ_1 =   2022-11-25T20:15:52.963   2216498601.9
RECEIVE_FREQ_1 =   2022-11-25T20:16:03.418   2216498600.6
RECEIVE_FREQ_1 =   2022-11-25T20:16:13.958   2216498599.9
RECEIVE_FREQ_1 =   2022-11-25T20:16:24.413   2216498598.6
RECEIVE_FREQ_1 =   2022-11-25T20:16:34.867   2216498597.9
RECEIVE_FREQ_1 =   2022-11-25T20:16:45.408   2216498596.7
RECEIVE_FREQ_1 =   2022-11-25T20:16:55.862   2216498595.4
RECEIVE_FREQ_1 =   2022-11-25T20:17:06.403   2216498594.7
RECEIVE_FREQ_1 =   2022-11-25T20:17:16.858   2216498593.3
RECEIVE_FREQ_1 =   2022-11-25T20:17:27.398   2216498592.3
RECEIVE_FREQ_1 =   2022-11-25T20:17:37.853   2216498591.2
RECEIVE_FREQ_1 =   2022-11-25T20:17:48.307   2216498590.3
RECEIVE_FREQ_1 =   2022-11-25T20:17:58.848   2216498589.2
RECEIVE_FREQ_1 =   2022-11-25T20:18:09.302   2216498588.0
RECEIVE_FREQ_1 =   2022-11-25T20:18:19.843   2216498587.2
RECEIVE_FREQ_1 =   2022-11-25T20:18:30.384   2216498586.2
RECEIVE_FREQ_1 =   2022-11-25T20:18:40.925   2216498585.1
RECEIVE_FREQ_1 =   2022-11-25T20:18:51.466   2216498584.1
RECEIVE_FREQ_1 =   2022-11-25T20:19:02.006   2216498582.9
RECEIVE_FREQ_1 =   2022-11-25T20:19:12.547   2216498581.8
RECEIVE_FREQ_1 =   2022-11-25T20:19:23.088   2216498580.7
RECEIVE_FREQ_1 =   2022-11-25T20:19:33.629   2216498579.6
RECEIVE_FREQ_1 =   2022-11-25T20:19:44.170   2216498578.9
RECEIVE_FREQ_1 =   2022-11-25T20:19:54.624   2216498577.7
RECEIVE_FREQ_1 =   2022-11-25T20:20:05.251   2216498576.6
RECEIVE_FREQ_1 =   2022-11-25T20:20:15.792   2216498575.4
RECEIVE_FREQ_1 =   2022-11-25T20:20:26.333   2216498574.1
RECEIVE_FREQ_1 =   2022-11-25T20:20:36.874   2216498573.1
RECEIVE_FREQ_1 =   2022-11-25T20:20:47.414   2216498571.9
RECEIVE_FREQ_1 =   2022-11-25T20:20:57.955   2216498570.8
RECEIVE_FREQ_1 =   2022-11-25T20:21:08.410   2216498570.0
RECEIVE_FREQ_1 =   2022-11-25T20:21:18.950   2216498568.7
RECEIVE_FREQ_1 =   2022-11-25T20:21:29.491   2216498567.5
RECEIVE_FREQ_1 =   2022-11-25T20:21:40.032   2216498566.8
RECEIVE_FREQ_1 =   2022-11-25T20:21:50.573   2216498565.7
RECEIVE_FREQ_1 =   2022-11-25T20:22:01.114   2216498564.6
RECEIVE_FREQ_1 =   2022-11-25T20:22:11.654   2216498563.427
RECEIVE_FREQ_1 =   2022-11-25T20:22:22.195   2216498562.3
RECEIVE_FREQ_1 =   2022-11-25T20:22:32.736   2216498561.3
RECEIVE_FREQ_1 =   2022-11-25T20:22:43.190   2216498559.9
RECEIVE_FREQ_1 =   2022-11-25T20:22:53.731   2216498559.0
RECEIVE_FREQ_1 =   2022-11-25T20:23:04.272   2216498558.0
RECEIVE_FREQ_1 =   2022-11-25T20:23:14.813   2216498556.8
RECEIVE_FREQ_1 =   2022-11-25T20:23:25.354   2216498555.8
RECEIVE_FREQ_1 =   2022-11-25T20:23:35.894   2216498554.8
RECEIVE_FREQ_1 =   2022-11-25T20:23:46.435   2216498553.6
RECEIVE_FREQ_1 =   2022-11-25T20:23:57.062   2216498552.6
RECEIVE_FREQ_1 =   2022-11-25T20:24:07.862   2216498551.4
RECEIVE_FREQ_1 =   2022-11-25T20:24:18.403   2216498550.4
RECEIVE_FREQ_1 =   2022-11-25T20:24:29.030   2216498548.9
RECEIVE_FREQ_1 =   2022-11-25T20:24:39.658   2216498547.8
RECEIVE_FREQ_1 =   2022-11-25T20:24:50.198   2216498546.9
RECEIVE_FREQ_1 =   2022-11-25T20:25:00.739   2216498545.8
RECEIVE_FREQ_1 =   2022-11-25T20:25:11.280   2216498544.7
RECEIVE_FREQ_1 =   2022-11-25T20:25:21.821   2216498543.6
RECEIVE_FREQ_1 =   2022-11-25T20:25:32.362   2216498542.3
RECEIVE_FREQ_1 =   2022-11-25T20:25:42.989   2216498541.527
RECEIVE_FREQ_1 =   2022-11-25T20:25:53.530   2216498540.0
RECEIVE_FREQ_1 =   2022-11-25T20:26:04.070   2216498539.1
RECEIVE_FREQ_1 =   2022-11-25T20:26:14.611   2216498537.9
RECEIVE_FREQ_1 =   2022-11-25T20:26:25.152   2216498536.727
RECEIVE_FREQ_1 =   2022-11-25T20:26:35.693   2216498535.5
RECEIVE_FREQ_1 =   2022-11-25T20:26:46.234   2216498534.6
RECEIVE_FREQ_1 =   2022-11-25T20:26:56.688   2216498533.327
RECEIVE_FREQ_1 =   2022-11-25T20:27:07.229   2216498532.1
RECEIVE_FREQ_1 =   2022-11-25T20:27:17.770   2216498531.2
RECEIVE_FREQ_1 =   2022-11-25T20:27:28.310   2216498529.8
RECEIVE_FREQ_1 =   2022-11-25T20:27:38.851   2216498529.0
RECEIVE_FREQ_1 =   2022-11-25T20:27:49.392   2216498527.5
RECEIVE_FREQ_1 =   2022-11-25T20:28:00.019   2216498526.5
RECEIVE_FREQ_1 =   2022-11-25T20:28:10.560   2216498525.7
RECEIVE_FREQ_1 =   2022-11-25T20:28:21.101   2216498524.3
RECEIVE_FREQ_1 =   2022-11-25T20:28:31.642   2216498523.2
RECEIVE_FREQ_1 =   2022-11-25T20:28:42.269   2216498521.8
RECEIVE_FREQ_1 =   2022-11-25T20:28:52.810   2216498520.7
RECEIVE_FREQ_1 =   2022-11-25T20:29:03.350   2216498519.7
RECEIVE_FREQ_1 =   2022-11-25T20:29:13.805   2216498518.4
RECEIVE_FREQ_1 =   2022-11-25T20:29:24.346   2216498517.2
RECEIVE_FREQ_1 =   2022-11-25T20:29:34.886   2216498516.0
RECEIVE_FREQ_1 =   2022-11-25T20:29:45.427   2216498515.0
RECEIVE_FREQ_1 =   2022-11-25T20:29:56.054   2216498513.9
RECEIVE_FREQ_1 =   2022-11-25T20:30:06.595   2216498512.9
RECEIVE_FREQ_1 =   2022-11-25T20:30:17.050   2216498511.6
RECEIVE_FREQ_1 =   2022-11-25T20:30:27.590   2216498510.7
RECEIVE_FREQ_1 =   2022-11-25T20:30:38.131   2216498509.2
RECEIVE_FREQ_1 =   2022-11-25T20:30:48.758   2216498508.2
RECEIVE_FREQ_1 =   2022-11-25T20:30:59.299   2216498506.9
RECEIVE_FREQ_1 =   2022-11-25T20:31:09.926   2216498506.0
RECEIVE_FREQ_1 =   2022-11-25T20:31:20.554   2216498504.5
RECEIVE_FREQ_1 =   2022-11-25T20:31:31.094   2216498503.527
RECEIVE_FREQ_1 =   2022-11-25T20:31:41.635   2216498502.2
RECEIVE_FREQ_1 =   2022-11-25T20:31:52.176   2216498501.1
RECEIVE_FREQ_1 =   2022-11-25T20:32:02.803   2216498499.7
RECEIVE_FREQ_1 =   2022-11-25T20:32:13.344   2216498498.7
RECEIVE_FREQ_1 =   2022-11-25T20:32:23.971   2216498497.4
RECEIVE_FREQ_1 =   2022-11-25T20:32:34.512   2216498496.4
RECEIVE_FREQ_1 =   2022-11-25T20:32:45.053   2216498495.427
RECEIVE_FREQ_1 =   2022-11-25T20:32:55.594   2216498493.827
RECEIVE_FREQ_1 =   2022-11-25T20:33:06.134   2216498493.0
RECEIVE_FREQ_1 =   2022-11-25T20:33:16.589   2216498491.427
RECEIVE_FREQ_1 =   2022-11-25T20:33:27.130   2216498490.8
RECEIVE_FREQ_1 =   2022-11-25T20:33:37.670   2216498489.3
RECEIVE_FREQ_1 =   2022-11-25T20:33:48.211   2216498488.6
RECEIVE_FREQ_1 =   2022-11-25T20:33:58.752   2216498487.3
RECEIVE_FREQ_1 =   2022-11-25T20:34:09.293   2216498486.4
RECEIVE_FREQ_1 =   2022-11-25T20:34:19.834   2216498485.1
RECEIVE_FREQ_1 =   2022-11-25T20:34:30.461   2216498484.4
RECEIVE_FREQ_1 =   2022-11-25T20:34:41.088   2216498483.0
RECEIVE_FREQ_1 =   2022-11-25T20:34:51.715   2216498482.1
RECEIVE_FREQ_1 =   2022-11-25T20:35:02.256   2216498480.7
RECEIVE_FREQ_1 =   2022-11-25T20:35:12.970   2216498479.7
RECEIVE_FREQ_1 =   2022-11-25T20:35:23.597   2216498478.6
RECEIVE_FREQ_1 =   2022-11-25T20:35:34.138   2216498477.4
RECEIVE_FREQ_1 =   2022-11-25T20:35:44.765   2216498476.5
RECEIVE_FREQ_1 =   2022-11-25T20:35:55.392   2216498475.7
RECEIVE_FREQ_1 =   2022-11-25T20:36:06.019   2216498474.5
RECEIVE_FREQ_1 =   2022-11-25T20:36:16.646   2216498473.1
RECEIVE_FREQ_1 =   2022-11-25T20:36:27.274   2216498472.3
RECEIVE_FREQ_1 =   2022-11-25T20:36:37.901   2216498471.0
RECEIVE_FREQ_1 =   2022-11-25T20:36:48.442   2216498469.8
RECEIVE_FREQ_1 =   2022-11-25T20:36:58.982   2216498468.7
RECEIVE_FREQ_1 =   2022-11-25T20:37:09.523   2216498467.6
RECEIVE_FREQ_1 =   2022-11-25T20:37:20.150   2216498466.7
RECEIVE_FREQ_1 =   2022-11-25T20:37:30.691   2216498465.5
RECEIVE_FREQ_1 =   2022-11-25T20:37:41.405   2216498464.3
RECEIVE_FREQ_1 =   2022-11-25T20:37:52.118   2216498463.4
RECEIVE_FREQ_1 =   2022-11-25T20:38:02.746   2216498462.1
RECEIVE_FREQ_1 =   2022-11-25T20:38:13.373   2216498461.2
RECEIVE_FREQ_1 =   2022-11-25T20:38:24.000   2216498459.9
RECEIVE_FREQ_1 =   2022-11-25T20:38:34.627   2216498458.6
RECEIVE_FREQ_1 =   2022-11-25T20:38:45.168   2216498457.6
RECEIVE_FREQ_1 =   2022-11-25T20:38:55.709   2216498456.6
RECEIVE_FREQ_1 =   2022-11-25T20:39:06.250   2216498455.5
RECEIVE_FREQ_1 =   2022-11-25T20:39:16.790   2216498454.3
RECEIVE_FREQ_1 =   2022-11-25T20:39:27.331   2216498453.5
RECEIVE_FREQ_1 =   2022-11-25T20:39:37.786   2216498452.2
RECEIVE_FREQ_1 =   2022-11-25T20:39:48.326   2216498451.0
RECEIVE_FREQ_1 =   2022-11-25T20:39:58.867   2216498449.6
RECEIVE_FREQ_1 =   2022-11-25T20:40:09.408   2216498448.9
RECEIVE_FREQ_1 =   2022-11-25T20:40:19.949   2216498447.6
RECEIVE_FREQ_1 =   2022-11-25T20:40:30.490   2216498446.5
RECEIVE_FREQ_1 =   2022-11-25T20:40:41.030   2216498445.0
RECEIVE_FREQ_1 =   2022-11-25T20:40:51.571   2216498444.3
RECEIVE_FREQ_1 =   2022-11-25T20:41:02.112   2216498443.0
RECEIVE_FREQ_1 =   2022-11-25T20:41:12.566   2216498441.9
RECEIVE_FREQ_1 =   2022-11-25T20:41:23.107   2216498440.9
RECEIVE_FREQ_1 =   2022-11-25T20:41:33.648   2216498439.7
RECEIVE_FREQ_1 =   2022-11-25T20:41:44.189   2216498438.7
RECEIVE_FREQ_1 =   2022-11-25T20:41:54.816   2216498437.6
RECEIVE_FREQ_1 =   2022-11-25T20:42:47.434   2216498432.527
RECEIVE_FREQ_1 =   2022-11-25T20:43:08.515   2216498429.327
RECEIVE_FREQ_1 =   2022-11-25T20:43:40.051   2216498426.327
RECEIVE_FREQ_1 =   2022-11-25T20:44:53.923   2216498418.627
RECEIVE_FREQ_1 =   2022-11-25T20:45:56.995   2216498411.627
RECEIVE_FREQ_1 =   2022-11-25T22:00:02.707   2216497243.627
RECEIVE_FREQ_1 =   2022-11-25T22:00:13.248   2216497237.427
RECEIVE_FREQ_1 =   2022-11-25T22:00:23.789   2216497233.527
RECEIVE_FREQ_1 =   2022-11-25T22:00:34.243   2216497226.527
RECEIVE_FREQ_1 =   2022-11-25T22:00:44.698   2216497224.827
RECEIVE_FREQ_1 =   2022-11-25T22:01:05.693   2216497221.127
RECEIVE_FREQ_1 =   2022-11-25T22:01:16.234   2216497221.927
RECEIVE_FREQ_1 =   2022-11-25T22:01:37.229   2216497226.227
RECEIVE_FREQ_1 =   2022-11-25T22:01:47.683   2216497228.727
RECEIVE_FREQ_1 =   2022-11-25T22:01:58.224   2216497232.627
RECEIVE_FREQ_1 =   2022-11-25T22:02:08.765   2216497231.527
RECEIVE_FREQ_1 =   2022-11-25T22:02:19.219   2216497229.727
RECEIVE_FREQ_1 =   2022-11-25T22:02:29.760   2216497228.527
RECEIVE_FREQ_1 =   2022-11-25T22:02:40.301   2216497227.127
RECEIVE_FREQ_1 =   2022-11-25T22:02:50.755   2216497225.827
RECEIVE_FREQ_1 =   2022-11-25T22:03:01.296   2216497224.327
RECEIVE_FREQ_1 =   2022-11-25T22:03:11.750   2216497222.627
RECEIVE_FREQ_1 =   2022-11-25T22:03:22.291   2216497221.327
RECEIVE_FREQ_1 =   2022-11-25T22:03:32.746   2216497219.927
RECEIVE_FREQ_1 =   2022-11-25T22:03:43.200   2216497218.527
RECEIVE_FREQ_1 =   2022-11-25T22:03:53.741   2216497216.927
RECEIVE_FREQ_1 =   2022-11-25T22:04:04.195   2216497215.327
RECEIVE_FREQ_1 =   2022-11-25T22:04:14.736   2216497214.3
RECEIVE_FREQ_1 =   2022-11-25T22:04:25.190   2216497212.927
RECEIVE_FREQ_1 =   2022-11-25T22:04:35.731   2216497211.127
RECEIVE_FREQ_1 =   2022-11-25T22:04:46.186   2216497210.127
RECEIVE_FREQ_1 =   2022-11-25T22:04:56.640   2216497208.327
RECEIVE_FREQ_1 =   2022-11-25T22:05:07.181   2216497206.827
RECEIVE_FREQ_1 =   2022-11-25T22:05:17.635   2216497205.927
RECEIVE_FREQ_1 =   2022-11-25T22:05:28.090   2216497204.027
RECEIVE_FREQ_1 =   2022-11-25T22:05:38.630   2216497203.327
RECEIVE_FREQ_1 =   2022-11-25T22:05:49.085   2216497202.727
RECEIVE_FREQ_1 =   2022-11-25T22:05:59.539   2216497202.427
RECEIVE_FREQ_1 =   2022-11-25T22:06:10.080   2216497201.027
RECEIVE_FREQ_1 =   2022-11-25T22:06:20.621   2216497199.627
RECEIVE_FREQ_1 =   2022-11-25T22:06:31.075   2216497197.927
RECEIVE_FREQ_1 =   2022-11-25T22:06:41.616   2216497196.727
RECEIVE_FREQ_1 =   2022-11-25T22:06:52.070   2216497195.527
RECEIVE_FREQ_1 =   2022-11-25T22:07:02.525   2216497194.027
RECEIVE_FREQ_1 =   2022-11-25T22:07:12.979   2216497192.2
RECEIVE_FREQ_1 =   2022-11-25T22:07:23.520   2216497191.227
RECEIVE_FREQ_1 =   2022-11-25T22:07:33.974   2216497189.727
RECEIVE_FREQ_1 =   2022-11-25T22:07:44.429   2216497190.3
RECEIVE_FREQ_1 =   2022-11-25T22:07:54.883   2216497187.227
RECEIVE_FREQ_1 =   2022-11-25T22:08:05.338   2216497185.427
RECEIVE_FREQ_1 =   2022-11-25T22:08:26.333   2216497183.327
RECEIVE_FREQ_1 =   2022-11-25T22:08:36.787   2216497180.227
RECEIVE_FREQ_1 =   2022-11-25T22:24:10.339   2216497060.6
RECEIVE_FREQ_1 =   2022-11-25T22:24:20.880   2216497059.3
RECEIVE_FREQ_1 =   2022-11-25T22:24:31.421   2216497058.1
RECEIVE_FREQ_1 =   2022-11-25T22:24:41.962   2216497056.8
RECEIVE_FREQ_1 =   2022-11-25T22:24:52.416   2216497055.2
RECEIVE_FREQ_1 =   2022-11-25T22:25:02.957   2216497054.0
RECEIVE_FREQ_1 =   2022-11-25T22:25:13.411   2216497052.3
RECEIVE_FREQ_1 =   2022-11-25T22:25:23.866   2216497051.4
RECEIVE_FREQ_1 =   2022-11-25T22:25:34.406   2216497049.5
RECEIVE_FREQ_1 =   2022-11-25T22:25:44.861   2216497048.6
RECEIVE_FREQ_1 =   2022-11-25T22:25:55.402   2216497047.0
RECEIVE_FREQ_1 =   2022-11-25T22:26:05.856   2216497045.7
RECEIVE_FREQ_1 =   2022-11-25T22:26:16.310   2216497044.4
RECEIVE_FREQ_1 =   2022-11-25T22:26:26.851   2216497043.0
RECEIVE_FREQ_1 =   2022-11-25T22:26:37.306   2216497041.5
RECEIVE_FREQ_1 =   2022-11-25T22:26:47.760   2216497040.4
RECEIVE_FREQ_1 =   2022-11-25T22:26:58.301   2216497039.1
RECEIVE_FREQ_1 =   2022-11-25T22:27:08.755   2216497037.6
RECEIVE_FREQ_1 =   2022-11-25T22:27:19.210   2216497036.2
RECEIVE_FREQ_1 =   2022-11-25T22:27:29.664   2216497034.9
RECEIVE_FREQ_1 =   2022-11-25T22:27:40.205   2216497033.5
RECEIVE_FREQ_1 =   2022-11-25T22:27:50.659   2216497032.2
RECEIVE_FREQ_1 =   2022-11-25T22:28:01.286   2216497030.9
RECEIVE_FREQ_1 =   2022-11-25T22:28:11.827   2216497029.0
RECEIVE_FREQ_1 =   2022-11-25T22:28:22.282   2216497027.9
RECEIVE_FREQ_1 =   2022-11-25T22:28:32.909   2216497026.6
RECEIVE_FREQ_1 =   2022-11-25T22:28:43.363   2216497025.3
RECEIVE_FREQ_1 =   2022-11-25T22:28:53.904   2216497023.8
RECEIVE_FREQ_1 =   2022-11-25T22:29:04.445   2216497022.7
RECEIVE_FREQ_1 =   2022-11-25T22:29:14.986   2216497021.4
RECEIVE_FREQ_1 =   2022-11-25T22:29:25.526   2216497019.8
RECEIVE_FREQ_1 =   2022-11-25T22:29:36.067   2216497018.7
RECEIVE_FREQ_1 =   2022-11-25T22:29:46.608   2216497017.1
RECEIVE_FREQ_1 =   2022-11-25T22:29:57.149   2216497015.9
RECEIVE_FREQ_1 =   2022-11-25T22:30:07.690   2216497014.5
RECEIVE_FREQ_1 =   2022-11-25T22:30:18.230   2216497013.1
RECEIVE_FREQ_1 =   2022-11-25T22:30:28.771   2216497011.7
RECEIVE_FREQ_1 =   2022-11-25T22:30:39.312   2216497010.3
RECEIVE_FREQ_1 =   2022-11-25T22:30:49.853   2216497008.8
RECEIVE_FREQ_1 =   2022-11-25T22:31:00.394   2216497007.5
RECEIVE_FREQ_1 =   2022-11-25T22:31:10.934   2216497006.5
RECEIVE_FREQ_1 =   2022-11-25T22:31:21.475   2216497005.1
RECEIVE_FREQ_1 =   2022-11-25T22:31:32.016   2216497003.3
RECEIVE_FREQ_1 =   2022-11-25T22:31:42.557   2216497002.1
RECEIVE_FREQ_1 =   2022-11-25T22:31:53.098   2216497000.4
RECEIVE_FREQ_1 =   2022-11-25T22:32:03.638   2216496999.3
RECEIVE_FREQ_1 =   2022-11-25T22:32:14.179   2216496998.1
RECEIVE_FREQ_1 =   2022-11-25T22:32:24.720   2216496996.6
RECEIVE_FREQ_1 =   2022-11-25T22:32:35.261   2216496995.2
RECEIVE_FREQ_1 =   2022-11-25T22:32:45.802   2216496994.1
RECEIVE_FREQ_1 =   2022-11-25T22:32:56.342   2216496992.7
RECEIVE_FREQ_1 =   2022-11-25T22:33:06.883   2216496990.9
RECEIVE_FREQ_1 =   2022-11-25T22:33:17.424   2216496989.6
RECEIVE_FREQ_1 =   2022-11-25T22:33:27.965   2216496988.2
RECEIVE_FREQ_1 =   2022-11-25T22:33:38.506   2216496987.0
RECEIVE_FREQ_1 =   2022-11-25T22:33:49.046   2216496985.4
RECEIVE_FREQ_1 =   2022-11-25T22:33:59.501   2216496984.2
RECEIVE_FREQ_1 =   2022-11-25T22:34:10.042   2216496982.9
RECEIVE_FREQ_1 =   2022-11-25T22:34:20.582   2216496981.7
RECEIVE_FREQ_1 =   2022-11-25T22:34:31.123   2216496980.0
RECEIVE_FREQ_1 =   2022-11-25T22:34:41.664   2216496979.1
RECEIVE_FREQ_1 =   2022-11-25T22:34:52.291   2216496977.5
RECEIVE_FREQ_1 =   2022-11-25T22:35:02.832   2216496976.0
RECEIVE_FREQ_1 =   2022-11-25T22:35:13.373   2216496974.7
RECEIVE_FREQ_1 =   2022-11-25T22:35:23.914   2216496973.1
RECEIVE_FREQ_1 =   2022-11-25T22:35:34.454   2216496972.1
RECEIVE_FREQ_1 =   2022-11-25T22:35:44.995   2216496970.6
RECEIVE_FREQ_1 =   2022-11-25T22:35:55.536   2216496969.4
RECEIVE_FREQ_1 =   2022-11-25T22:36:06.077   2216496968.2
RECEIVE_FREQ_1 =   2022-11-25T22:36:16.618   2216496966.5
RECEIVE_FREQ_1 =   2022-11-25T22:36:27.245   2216496965.0
RECEIVE_FREQ_1 =   2022-11-25T22:36:37.786   2216496963.7
RECEIVE_FREQ_1 =   2022-11-25T22:36:48.326   2216496962.4
RECEIVE_FREQ_1 =   2022-11-25T22:36:58.867   2216496961.2
RECEIVE_FREQ_1 =   2022-11-25T22:37:09.408   2216496959.5
RECEIVE_FREQ_1 =   2022-11-25T22:37:19.862   2216496958.1
RECEIVE_FREQ_1 =   2022-11-25T22:37:30.403   2216496956.727
RECEIVE_FREQ_1 =   2022-11-25T22:37:40.944   2216496955.6
RECEIVE_FREQ_1 =   2022-11-25T22:37:51.571   2216496954.0
RECEIVE_FREQ_1 =   2022-11-25T22:38:02.112   2216496952.5
RECEIVE_FREQ_1 =   2022-11-25T22:38:12.653   2216496951.5
RECEIVE_FREQ_1 =   2022-11-25T22:38:23.194   2216496949.8
RECEIVE_FREQ_1 =   2022-11-25T22:38:33.734   2216496948.9
RECEIVE_FREQ_1 =   2022-11-25T22:38:44.275   2216496947.1
RECEIVE_FREQ_1 =   2022-11-25T22:38:54.816   2216496945.8
RECEIVE_FREQ_1 =   2022-11-25T22:39:05.357   2216496944.7
RECEIVE_FREQ_1 =   2022-11-25T22:39:15.984   2216496943.1
RECEIVE_FREQ_1 =   2022-11-25T22:39:26.438   2216496941.5
RECEIVE_FREQ_1 =   2022-11-25T22:39:36.979   2216496940.3
RECEIVE_FREQ_1 =   2022-11-25T22:39:47.520   2216496938.927
RECEIVE_FREQ_1 =   2022-11-25T22:39:58.061   2216496937.9
RECEIVE_FREQ_1 =   2022-11-25T22:40:08.602   2216496936.4
RECEIVE_FREQ_1 =   2022-11-25T22:40:19.142   2216496934.7
RECEIVE_FREQ_1 =   2022-11-25T22:40:29.683   2216496933.7
RECEIVE_FREQ_1 =   2022-11-25T22:40:40.138   2216496932.3
RECEIVE_FREQ_1 =   2022-11-25T22:40:50.765   2216496930.6
RECEIVE_FREQ_1 =   2022-11-25T22:41:01.306   2216496929.4
RECEIVE_FREQ_1 =   2022-11-25T22:41:11.846   2216496927.9
RECEIVE_FREQ_1 =   2022-11-25T22:41:22.474   2216496926.6
RECEIVE_FREQ_1 =   2022-11-25T22:41:33.014   2216496925.5
RECEIVE_FREQ_1 =   2022-11-25T22:41:43.555   2216496924.1
RECEIVE_FREQ_1 =   2022-11-25T22:41:54.010   2216496922.5
RECEIVE_FREQ_1 =   2022-11-25T22:42:04.550   2216496921.0
RECEIVE_FREQ_1 =   2022-11-25T22:42:15.091   2216496919.9
RECEIVE_FREQ_1 =   2022-11-25T22:42:25.632   2216496918.1
RECEIVE_FREQ_1 =   2022-11-25T22:42:36.173   2216496917.0
RECEIVE_FREQ_1 =   2022-11-25T22:42:46.627   2216496915.6
RECEIVE_FREQ_1 =   2022-11-25T22:42:57.168   2216496914.127
RECEIVE_FREQ_1 =   2022-11-25T22:43:07.709   2216496912.9
RECEIVE_FREQ_1 =   2022-11-25T22:43:18.163   2216496911.4
RECEIVE_FREQ_1 =   2022-11-25T22:43:28.704   2216496910.3
RECEIVE_FREQ_1 =   2022-11-25T22:43:39.158   2216496908.9
RECEIVE_FREQ_1 =   2022-11-25T22:43:49.699   2216496907.3
RECEIVE_FREQ_1 =   2022-11-25T22:44:00.240   2216496906.1
RECEIVE_FREQ_1 =   2022-11-25T22:44:10.781   2216496904.6
RECEIVE_FREQ_1 =   2022-11-25T22:44:21.322   2216496903.1
RECEIVE_FREQ_1 =   2022-11-25T22:44:31.862   2216496901.9
RECEIVE_FREQ_1 =   2022-11-25T22:44:42.403   2216496900.4
RECEIVE_FREQ_1 =   2022-11-25T22:44:52.944   2216496899.0
RECEIVE_FREQ_1 =   2022-11-25T22:45:03.571   2216496897.7
RECEIVE_FREQ_1 =   2022-11-25T22:45:14.112   2216496896.5
RECEIVE_FREQ_1 =   2022-11-25T22:45:24.566   2216496894.8
RECEIVE_FREQ_1 =   2022-11-25T22:45:35.107   2216496893.6
RECEIVE_FREQ_1 =   2022-11-25T22:45:45.648   2216496892.6
RECEIVE_FREQ_1 =   2022-11-25T22:45:56.189   2216496891.1
RECEIVE_FREQ_1 =   2022-11-25T22:46:06.730   2216496889.4
RECEIVE_FREQ_1 =   2022-11-25T22:46:17.184   2216496888.0
RECEIVE_FREQ_1 =   2022-11-25T22:46:27.725   2216496886.9
RECEIVE_FREQ_1 =   2022-11-25T22:46:38.266   2216496885.5
RECEIVE_FREQ_1 =   2022-11-25T22:46:48.806   2216496884.4
RECEIVE_FREQ_1 =   2022-11-25T22:46:59.261   2216496882.3
RECEIVE_FREQ_1 =   2022-11-25T22:47:09.802   2216496881.0
RECEIVE_FREQ_1 =   2022-11-25T22:47:20.342   2216496879.9
RECEIVE_FREQ_1 =   2022-11-25T22:47:30.970   2216496878.6
RECEIVE_FREQ_1 =   2022-11-25T22:47:41.424   2216496877.1
RECEIVE_FREQ_1 =   2022-11-25T22:47:51.965   2216496875.6
RECEIVE_FREQ_1 =   2022-11-25T22:48:02.506   2216496874.5
RECEIVE_FREQ_1 =   2022-11-25T22:48:13.046   2216496873.1
RECEIVE_FREQ_1 =   2022-11-25T22:48:23.587   2216496871.7
RECEIVE_FREQ_1 =   2022-11-25T22:48:34.128   2216496870.1
RECEIVE_FREQ_1 =   2022-11-25T22:48:44.582   2216496868.8
RECEIVE_FREQ_1 =   2022-11-25T22:48:55.123   2216496867.4
RECEIVE_FREQ_1 =   2022-11-25T22:49:05.578   2216496866.2
RECEIVE_FREQ_1 =   2022-11-25T22:49:16.118   2216496864.6
RECEIVE_FREQ_1 =   2022-11-25T22:49:26.659   2216496863.5
RECEIVE_FREQ_1 =   2022-11-25T22:49:37.200   2216496861.8
RECEIVE_FREQ_1 =   2022-11-25T22:49:47.741   2216496860.6
RECEIVE_FREQ_1 =   2022-11-25T22:49:58.282   2216496859.3
RECEIVE_FREQ_1 =   2022-11-25T22:50:08.736   2216496858.0
RECEIVE_FREQ_1 =   2022-11-25T22:50:19.363   2216496856.4
RECEIVE_FREQ_1 =   2022-11-25T22:50:29.818   2216496855.0
RECEIVE_FREQ_1 =   2022-11-25T22:50:40.358   2216496853.8
RECEIVE_FREQ_1 =   2022-11-25T22:50:50.986   2216496852.2
RECEIVE_FREQ_1 =   2022-11-25T22:51:01.526   2216496851.0
RECEIVE_FREQ_1 =   2022-11-25T22:51:12.067   2216496849.5
RECEIVE_FREQ_1 =   2022-11-25T22:51:22.608   2216496848.4
RECEIVE_FREQ_1 =   2022-11-25T22:51:33.149   2216496846.8
RECEIVE_FREQ_1 =   2022-11-25T22:51:43.690   2216496845.3
RECEIVE_FREQ_1 =   2022-11-25T22:51:54.230   2216496844.0
RECEIVE_FREQ_1 =   2022-11-25T22:52:04.685   2216496842.9
RECEIVE_FREQ_1 =   2022-11-25T22:52:15.226   2216496841.3
RECEIVE_FREQ_1 =   2022-11-25T22:52:25.766   2216496840.1
RECEIVE_FREQ_1 =   2022-11-25T22:52:36.307   2216496838.6
RECEIVE_FREQ_1 =   2022-11-25T22:52:46.848   2216496837.5
RECEIVE_FREQ_1 =   2022-11-25T22:52:57.389   2216496835.8
RECEIVE_FREQ_1 =   2022-11-25T22:53:07.930   2216496834.4
RECEIVE_FREQ_1 =   2022-11-25T22:53:18.384   2216496833.3
RECEIVE_FREQ_1 =   2022-11-25T22:53:28.925   2216496831.9
RECEIVE_FREQ_1 =   2022-11-25T22:53:39.466   2216496830.4
RECEIVE_FREQ_1 =   2022-11-25T22:53:50.006   2216496829.2
RECEIVE_FREQ_1 =   2022-11-25T22:54:00.547   2216496827.8
RECEIVE_FREQ_1 =   2022-11-25T22:54:11.088   2216496826.3
RECEIVE_FREQ_1 =   2022-11-25T22:54:21.629   2216496825.1
RECEIVE_FREQ_1 =   2022-11-25T22:54:32.256   2216496823.5
RECEIVE_FREQ_1 =   2022-11-25T22:54:42.710   2216496822.1
RECEIVE_FREQ_1 =   2022-11-25T22:54:53.251   2216496820.6
RECEIVE_FREQ_1 =   2022-11-25T22:55:03.706   2216496819.4
RECEIVE_FREQ_1 =   2022-11-25T22:55:14.246   2216496818.1
RECEIVE_FREQ_1 =   2022-11-25T22:55:24.787   2216496816.5
RECEIVE_FREQ_1 =   2022-11-25T22:55:35.328   2216496815.4
RECEIVE_FREQ_1 =   2022-11-25T22:55:45.782   2216496814.1
RECEIVE_FREQ_1 =   2022-11-25T22:55:56.323   2216496812.5
RECEIVE_FREQ_1 =   2022-11-25T22:56:06.864   2216496811.4
RECEIVE_FREQ_1 =   2022-11-25T22:56:17.405   2216496810.0
RECEIVE_FREQ_1 =   2022-11-25T22:56:27.946   2216496808.6
RECEIVE_FREQ_1 =   2022-11-25T22:56:38.486   2216496807.4
RECEIVE_FREQ_1 =   2022-11-25T22:56:48.941   2216496805.8
RECEIVE_FREQ_1 =   2022-11-25T22:56:59.482   2216496804.4
RECEIVE_FREQ_1 =   2022-11-25T22:57:10.022   2216496803.0
RECEIVE_FREQ_1 =   2022-11-25T22:57:20.563   2216496801.5
RECEIVE_FREQ_1 =   2022-11-25T22:57:31.104   2216496800.3
RECEIVE_FREQ_1 =   2022-11-25T22:57:41.645   2216496799.0
RECEIVE_FREQ_1 =   2022-11-25T22:57:52.186   2216496797.3
RECEIVE_FREQ_1 =   2022-11-25T22:58:02.726   2216496796.3
RECEIVE_FREQ_1 =   2022-11-25T22:58:13.267   2216496794.9
RECEIVE_FREQ_1 =   2022-11-25T22:58:23.808   2216496793.3
RECEIVE_FREQ_1 =   2022-11-25T22:58:34.349   2216496791.9
RECEIVE_FREQ_1 =   2022-11-25T22:58:44.890   2216496790.6
RECEIVE_FREQ_1 =   2022-11-25T22:58:55.430   2216496789.4
RECEIVE_FREQ_1 =   2022-11-25T22:59:05.971   2216496787.9
RECEIVE_FREQ_1 =   2022-11-25T22:59:16.426   2216496786.6
RECEIVE_FREQ_1 =   2022-11-25T22:59:26.966   2216496785.0
RECEIVE_FREQ_1 =   2022-11-25T22:59:37.507   2216496783.8
RECEIVE_FREQ_1 =   2022-11-25T22:59:48.048   2216496782.6
RECEIVE_FREQ_1 =   2022-11-25T22:59:58.589   2216496781.0
RECEIVE_FREQ_1 =   2022-11-25T23:00:09.130   2216496779.6
RECEIVE_FREQ_1 =   2022-11-25T23:00:19.584   2216496778.5
RECEIVE_FREQ_1 =   2022-11-25T23:00:30.125   2216496777.3
RECEIVE_FREQ_1 =   2022-11-25T23:00:40.666   2216496775.6
RECEIVE_FREQ_1 =   2022-11-25T23:00:51.293   2216496774.4
RECEIVE_FREQ_1 =   2022-11-25T23:01:01.834   2216496772.6
RECEIVE_FREQ_1 =   2022-11-25T23:01:12.374   2216496771.6
RECEIVE_FREQ_1 =   2022-11-25T23:01:22.915   2216496770.1
RECEIVE_FREQ_1 =   2022-11-25T23:01:33.542   2216496769.1
RECEIVE_FREQ_1 =   2022-11-25T23:01:44.083   2216496767.4
RECEIVE_FREQ_1 =   2022-11-25T23:01:54.624   2216496765.9
RECEIVE_FREQ_1 =   2022-11-25T23:02:05.165   2216496764.3
RECEIVE_FREQ_1 =   2022-11-25T23:02:15.619   2216496762.9
RECEIVE_FREQ_1 =   2022-11-25T23:02:26.160   2216496762.0
RECEIVE_FREQ_1 =   2022-11-25T23:02:36.701   2216496760.8
RECEIVE_FREQ_1 =   2022-11-25T23:02:47.242   2216496759.0
RECEIVE_FREQ_1 =   2022-11-25T23:02:57.782   2216496757.8
RECEIVE_FREQ_1 =   2022-11-25T23:03:08.323   2216496756.5
RECEIVE_FREQ_1 =   2022-11-25T23:03:18.864   2216496755.4
RECEIVE_FREQ_1 =   2022-11-25T23:03:29.491   2216496753.6
RECEIVE_FREQ_1 =   2022-11-25T23:03:40.032   2216496752.1
RECEIVE_FREQ_1 =   2022-11-25T23:03:50.486   2216496751.0
RECEIVE_FREQ_1 =   2022-11-25T23:04:01.027   2216496749.7
RECEIVE_FREQ_1 =   2022-11-25T23:04:11.568   2216496748.2
RECEIVE_FREQ_1 =   2022-11-25T23:04:22.109   2216496746.8
RECEIVE_FREQ_1 =   2022-11-25T23:04:32.650   2216496745.5
RECEIVE_FREQ_1 =   2022-11-25T23:04:43.190   2216496744.2
RECEIVE_FREQ_1 =   2022-11-25T23:04:53.731   2216496742.7
RECEIVE_FREQ_1 =   2022-11-25T23:05:04.272   2216496741.2
RECEIVE_FREQ_1 =   2022-11-25T23:05:14.726   2216496740.1
RECEIVE_FREQ_1 =   2022-11-25T23:05:25.267   2216496738.7
RECEIVE_FREQ_1 =   2022-11-25T23:05:35.894   2216496737.3
RECEIVE_FREQ_1 =   2022-11-25T23:05:46.435   2216496736.0
RECEIVE_FREQ_1 =   2022-11-25T23:05:56.976   2216496734.8
RECEIVE_FREQ_1 =   2022-11-25T23:06:07.517   2216496733.4
RECEIVE_FREQ_1 =   2022-11-25T23:06:18.058   2216496731.7
RECEIVE_FREQ_1 =   2022-11-25T23:06:28.598   2216496730.4
RECEIVE_FREQ_1 =   2022-11-25T23:06:39.139   2216496729.1
RECEIVE_FREQ_1 =   2022-11-25T23:06:49.680   2216496727.7
RECEIVE_FREQ_1 =   2022-11-25T23:07:00.221   2216496726.3
RECEIVE_FREQ_1 =   2022-11-25T23:07:10.675   2216496725.0
RECEIVE_FREQ_1 =   2022-11-25T23:07:21.302   2216496723.8
RECEIVE_FREQ_1 =   2022-11-25T23:07:31.843   2216496721.9
RECEIVE_FREQ_1 =   2022-11-25T23:07:42.384   2216496720.9
RECEIVE_FREQ_1 =   2022-11-25T23:07:52.925   2216496719.7
RECEIVE_FREQ_1 =   2022-11-25T23:08:03.466   2216496718.1
RECEIVE_FREQ_1 =   2022-11-25T23:08:14.006   2216496716.8
RECEIVE_FREQ_1 =   2022-11-25T23:08:24.547   2216496715.5
RECEIVE_FREQ_1 =   2022-11-25T23:08:35.088   2216496713.9
RECEIVE_FREQ_1 =   2022-11-25T23:08:45.542   2216496712.9
RECEIVE_FREQ_1 =   2022-11-25T23:08:56.083   2216496711.4
RECEIVE_FREQ_1 =   2022-11-25T23:09:06.624   2216496710.1
RECEIVE_FREQ_1 =   2022-11-25T23:09:17.165   2216496708.6
RECEIVE_FREQ_1 =   2022-11-25T23:09:27.619   2216496707.3
RECEIVE_FREQ_1 =   2022-11-25T23:09:38.160   2216496705.9
RECEIVE_FREQ_1 =   2022-11-25T23:09:48.701   2216496704.8
RECEIVE_FREQ_1 =   2022-11-25T23:09:59.155   2216496703.5
RECEIVE_FREQ_1 =   2022-11-25T23:10:09.696   2216496701.9
RECEIVE_FREQ_1 =   2022-11-25T23:10:20.237   2216496700.6
RECEIVE_FREQ_1 =   2022-11-25T23:10:30.691   2216496699.1
RECEIVE_FREQ_1 =   2022-11-25T23:10:41.232   2216496698.2
RECEIVE_FREQ_1 =   2022-11-25T23:10:51.773   2216496696.2
RECEIVE_FREQ_1 =   2022-11-25T23:11:02.314   2216496695.0
RECEIVE_FREQ_1 =   2022-11-25T23:11:12.854   2216496693.6
RECEIVE_FREQ_1 =   2022-11-25T23:11:23.395   2216496692.3
RECEIVE_FREQ_1 =   2022-11-25T23:11:33.936   2216496691.1
RECEIVE_FREQ_1 =   2022-11-25T23:11:44.477   2216496689.9
RECEIVE_FREQ_1 =   2022-11-25T23:11:55.018   2216496688.4
RECEIVE_FREQ_1 =   2022-11-25T23:12:05.472   2216496686.8
RECEIVE_FREQ_1 =   2022-11-25T23:12:16.013   2216496685.5
RECEIVE_FREQ_1 =   2022-11-25T23:12:26.554   2216496684.3
RECEIVE_FREQ_1 =   2022-11-25T23:12:37.008   2216496682.9
RECEIVE_FREQ_1 =   2022-11-25T23:12:47.549   2216496681.5
RECEIVE_FREQ_1 =   2022-11-25T23:12:58.090   2216496680.2
RECEIVE_FREQ_1 =   2022-11-25T23:13:08.544   2216496678.9
RECEIVE_FREQ_1 =   2022-11-25T23:13:19.085   2216496677.5
RECEIVE_FREQ_1 =   2022-11-25T23:13:29.626   2216496676.4
RECEIVE_FREQ_1 =   2022-11-25T23:13:40.166   2216496674.9
RECEIVE_FREQ_1 =   2022-11-25T23:13:50.621   2216496673.6
RECEIVE_FREQ_1 =   2022-11-25T23:14:01.162   2216496672.2
RECEIVE_FREQ_1 =   2022-11-25T23:14:11.702   2216496671.0
RECEIVE_FREQ_1 =   2022-11-25T23:14:22.243   2216496669.1
RECEIVE_FREQ_1 =   2022-11-25T23:14:32.784   2216496667.9
RECEIVE_FREQ_1 =   2022-11-25T23:14:43.325   2216496666.9
RECEIVE_FREQ_1 =   2022-11-25T23:14:53.866   2216496665.6
RECEIVE_FREQ_1 =   2022-11-25T23:15:04.320   2216496663.9
RECEIVE_FREQ_1 =   2022-11-25T23:15:14.861   2216496662.8
RECEIVE_FREQ_1 =   2022-11-25T23:15:25.402   2216496661.6
RECEIVE_FREQ_1 =   2022-11-25T23:15:35.942   2216496659.9
RECEIVE_FREQ_1 =   2022-11-25T23:15:46.397   2216496658.6
RECEIVE_FREQ_1 =   2022-11-25T23:15:56.938   2216496657.2
RECEIVE_FREQ_1 =   2022-11-25T23:16:07.478   2216496655.9
RECEIVE_FREQ_1 =   2022-11-25T23:16:18.019   2216496654.5
RECEIVE_FREQ_1 =   2022-11-25T23:16:28.560   2216496653.3
RECEIVE_FREQ_1 =   2022-11-25T23:16:39.101   2216496652.0
RECEIVE_FREQ_1 =   2022-11-25T23:16:49.555   2216496650.4
RECEIVE_FREQ_1 =   2022-11-25T23:17:00.096   2216496649.7
RECEIVE_FREQ_1 =   2022-11-25T23:17:10.550   2216496648.0
RECEIVE_FREQ_1 =   2022-11-25T23:17:21.091   2216496646.8
RECEIVE_FREQ_1 =   2022-11-25T23:17:31.632   2216496645.0
RECEIVE_FREQ_1 =   2022-11-25T23:17:42.173   2216496644.1
RECEIVE_FREQ_1 =   2022-11-25T23:17:52.627   2216496642.5
RECEIVE_FREQ_1 =   2022-11-25T23:18:03.168   2216496641.0
RECEIVE_FREQ_1 =   2022-11-25T23:18:13.709   2216496639.6
RECEIVE_FREQ_1 =   2022-11-25T23:18:24.250   2216496638.3
RECEIVE_FREQ_1 =   2022-11-25T23:18:34.790   2216496637.0
RECEIVE_FREQ_1 =   2022-11-25T23:18:45.331   2216496635.6
RECEIVE_FREQ_1 =   2022-11-25T23:18:55.786   2216496634.0
RECEIVE_FREQ_1 =   2022-11-25T23:19:06.326   2216496632.7
RECEIVE_FREQ_1 =   2022-11-25T23:19:16.867   2216496631.1
RECEIVE_FREQ_1 =   2022-11-25T23:19:27.408   2216496629.9
RECEIVE_FREQ_1 =   2022-11-25T23:19:37.949   2216496628.4
RECEIVE_FREQ_1 =   2022-11-25T23:19:48.490   2216496627.1
RECEIVE_FREQ_1 =   2022-11-25T23:19:59.030   2216496625.9
RECEIVE_FREQ_1 =   2022-11-25T23:20:09.571   2216496624.3
RECEIVE_FREQ_1 =   2022-11-25T23:20:20.112   2216496622.9
RECEIVE_FREQ_1 =   2022-11-25T23:20:30.566   2216496621.4
RECEIVE_FREQ_1 =   2022-11-25T23:20:41.107   2216496619.9
RECEIVE_FREQ_1 =   2022-11-25T23:20:51.648   2216496618.6
RECEIVE_FREQ_1 =   2022-11-25T23:21:02.189   2216496617.1
RECEIVE_FREQ_1 =   2022-11-25T23:21:12.730   2216496615.4
RECEIVE_FREQ_1 =   2022-11-25T23:21:23.270   2216496614.5
RECEIVE_FREQ_1 =   2022-11-25T23:21:33.811   2216496613.1
RECEIVE_FREQ_1 =   2022-11-25T23:21:44.352   2216496611.9
RECEIVE_FREQ_1 =   2022-11-25T23:21:54.893   2216496610.1
RECEIVE_FREQ_1 =   2022-11-25T23:22:05.434   2216496608.9
RECEIVE_FREQ_1 =   2022-11-25T23:22:15.974   2216496607.4
RECEIVE_FREQ_1 =   2022-11-25T23:22:26.515   2216496606.0
RECEIVE_FREQ_1 =   2022-11-25T23:22:36.970   2216496604.8
RECEIVE_FREQ_1 =   2022-11-25T23:22:47.510   2216496603.0
RECEIVE_FREQ_1 =   2022-11-25T23:22:58.051   2216496601.9
RECEIVE_FREQ_1 =   2022-11-25T23:23:08.592   2216496600.5
RECEIVE_FREQ_1 =   2022-11-25T23:23:19.133   2216496599.2
RECEIVE_FREQ_1 =   2022-11-25T23:23:29.587   2216496597.6
RECEIVE_FREQ_1 =   2022-11-25T23:23:40.128   2216496596.2
RECEIVE_FREQ_1 =   2022-11-25T23:23:50.669   2216496594.6
RECEIVE_FREQ_1 =   2022-11-25T23:24:01.210   2216496593.3
RECEIVE_FREQ_1 =   2022-11-25T23:24:11.750   2216496592.1
RECEIVE_FREQ_1 =   2022-11-25T23:24:22.291   2216496590.8
RECEIVE_FREQ_1 =   2022-11-25T23:24:32.832   2216496589.1
RECEIVE_FREQ_1 =   2022-11-25T23:24:43.373   2216496587.9
RECEIVE_FREQ_1 =   2022-11-25T23:24:53.914   2216496586.5
RECEIVE_FREQ_1 =   2022-11-25T23:25:04.368   2216496586.0
RECEIVE_FREQ_1 =   2022-11-25T23:25:14.909   2216496584.7
RECEIVE_FREQ_1 =   2022-11-25T23:25:25.450   2216496583.4
RECEIVE_FREQ_1 =   2022-11-25T23:25:35.990   2216496581.5
RECEIVE_FREQ_1 =   2022-11-25T23:25:46.531   2216496580.4
RECEIVE_FREQ_1 =   2022-11-25T23:25:56.986   2216496578.7
RECEIVE_FREQ_1 =   2022-11-25T23:26:07.526   2216496577.5
RECEIVE_FREQ_1 =   2022-11-25T23:26:18.067   2216496576.1
RECEIVE_FREQ_1 =   2022-11-25T23:26:28.694   2216496575.0
RECEIVE_FREQ_1 =   2022-11-25T23:26:39.149   2216496573.5
RECEIVE_FREQ_1 =   2022-11-25T23:26:49.690   2216496571.9
RECEIVE_FREQ_1 =   2022-11-25T23:27:00.144   2216496570.7
RECEIVE_FREQ_1 =   2022-11-25T23:27:10.685   2216496569.327
RECEIVE_FREQ_1 =   2022-11-25T23:27:21.226   2216496567.7
RECEIVE_FREQ_1 =   2022-11-25T23:27:31.766   2216496566.3
RECEIVE_FREQ_1 =   2022-11-25T23:27:42.394   2216496565.1
RECEIVE_FREQ_1 =   2022-11-25T23:27:52.934   2216496563.4
RECEIVE_FREQ_1 =   2022-11-25T23:28:03.562   2216496562.0
RECEIVE_FREQ_1 =   2022-11-25T23:28:14.102   2216496560.8
RECEIVE_FREQ_1 =   2022-11-25T23:28:24.557   2216496559.0
RECEIVE_FREQ_1 =   2022-11-25T23:28:35.098   2216496557.8
RECEIVE_FREQ_1 =   2022-11-25T23:28:45.638   2216496556.5
RECEIVE_FREQ_1 =   2022-11-25T23:28:56.093   2216496554.5
RECEIVE_FREQ_1 =   2022-11-25T23:29:06.634   2216496553.7
RECEIVE_FREQ_1 =   2022-11-25T23:29:17.088   2216496551.8
RECEIVE_FREQ_1 =   2022-11-25T23:29:27.629   2216496550.7
RECEIVE_FREQ_1 =   2022-11-25T23:29:38.170   2216496549.127
RECEIVE_FREQ_1 =   2022-11-25T23:29:48.624   2216496547.727
RECEIVE_FREQ_1 =   2022-11-25T23:29:59.165   2216496546.327
RECEIVE_FREQ_1 =   2022-11-25T23:30:09.706   2216496545.027
RECEIVE_FREQ_1 =   2022-11-25T23:30:20.160   2216496543.3
RECEIVE_FREQ_1 =   2022-11-25T23:30:30.787   2216496542.2
RECEIVE_FREQ_1 =   2022-11-25T23:30:41.328   2216496540.6
RECEIVE_FREQ_1 =   2022-11-25T23:30:51.869   2216496539.4
RECEIVE_FREQ_1 =   2022-11-25T23:31:02.410   2216496537.8
RECEIVE_FREQ_1 =   2022-11-25T23:31:12.864   2216496536.2
RECEIVE_FREQ_1 =   2022-11-25T23:31:23.405   2216496535.027
RECEIVE_FREQ_1 =   2022-11-25T23:31:33.946   2216496533.127
RECEIVE_FREQ_1 =   2022-11-25T23:31:44.486   2216496531.9
RECEIVE_FREQ_1 =   2022-11-25T23:31:55.027   2216496531.0
RECEIVE_FREQ_1 =   2022-11-25T23:32:05.568   2216496529.427
RECEIVE_FREQ_1 =   2022-11-25T23:32:16.109   2216496528.027
RECEIVE_FREQ_1 =   2022-11-25T23:32:26.650   2216496526.7
RECEIVE_FREQ_1 =   2022-11-25T23:32:37.104   2216496525.527
RECEIVE_FREQ_1 =   2022-11-25T23:32:47.645   2216496524.3
RECEIVE_FREQ_1 =   2022-11-25T23:32:58.186   2216496523.0
RECEIVE_FREQ_1 =   2022-11-25T23:33:08.640   2216496521.7
RECEIVE_FREQ_1 =   2022-11-25T23:33:19.181   2216496520.427
RECEIVE_FREQ_1 =   2022-11-25T23:33:29.722   2216496519.1
RECEIVE_FREQ_1 =   2022-11-25T23:33:40.262   2216496518.027
RECEIVE_FREQ_1 =   2022-11-25T23:33:50.803   2216496516.7
RECEIVE_FREQ_1 =   2022-11-25T23:34:01.344   2216496515.5
RECEIVE_FREQ_1 =   2022-11-25T23:34:11.885   2216496513.7
RECEIVE_FREQ_1 =   2022-11-25T23:34:22.426   2216496513.0
RECEIVE_FREQ_1 =   2022-11-25T23:34:32.966   2216496511.4
RECEIVE_FREQ_1 =   2022-11-25T23:34:43.507   2216496510.3
RECEIVE_FREQ_1 =   2022-11-25T23:34:54.048   2216496508.9
RECEIVE_FREQ_1 =   2022-11-25T23:35:04.589   2216496507.3
RECEIVE_FREQ_1 =   2022-11-25T23:35:15.130   2216496506.0
RECEIVE_FREQ_1 =   2022-11-25T23:35:25.670   2216496504.6
RECEIVE_FREQ_1 =   2022-11-25T23:35:36.125   2216496503.3
RECEIVE_FREQ_1 =   2022-11-25T23:35:46.666   2216496502.2
RECEIVE_FREQ_1 =   2022-11-25T23:35:57.120   2216496500.6
RECEIVE_FREQ_1 =   2022-11-25T23:36:07.661   2216496499.6
RECEIVE_FREQ_1 =   2022-11-25T23:36:18.202   2216496498.2
RECEIVE_FREQ_1 =   2022-11-25T23:36:28.742   2216496496.7
RECEIVE_FREQ_1 =   2022-11-25T23:36:39.197   2216496495.7
RECEIVE_FREQ_1 =   2022-11-25T23:36:49.738   2216496494.2
RECEIVE_FREQ_1 =   2022-11-25T23:37:00.365   2216496492.8
RECEIVE_FREQ_1 =   2022-11-25T23:37:10.819   2216496491.7
RECEIVE_FREQ_1 =   2022-11-25T23:37:21.360   2216496490.2
RECEIVE_FREQ_1 =   2022-11-25T23:37:31.901   2216496488.8
RECEIVE_FREQ_1 =   2022-11-25T23:37:42.442   2216496487.8
RECEIVE_FREQ_1 =   2022-11-25T23:37:52.982   2216496486.2
RECEIVE_FREQ_1 =   2022-11-25T23:38:03.523   2216496484.9
RECEIVE_FREQ_1 =   2022-11-25T23:38:13.978   2216496483.4
RECEIVE_FREQ_1 =   2022-11-25T23:38:24.518   2216496482.2
RECEIVE_FREQ_1 =   2022-11-25T23:38:35.059   2216496481.0
RECEIVE_FREQ_1 =   2022-11-25T23:38:45.600   2216496479.5
RECEIVE_FREQ_1 =   2022-11-25T23:38:56.054   2216496478.3
RECEIVE_FREQ_1 =   2022-11-25T23:39:06.595   2216496477.0
RECEIVE_FREQ_1 =   2022-11-25T23:39:17.136   2216496475.5
RECEIVE_FREQ_1 =   2022-11-25T23:39:27.677   2216496474.4
RECEIVE_FREQ_1 =   2022-11-25T23:39:38.390   2216496472.8
RECEIVE_FREQ_1 =   2022-11-25T23:39:49.104   2216496471.2
RECEIVE_FREQ_1 =   2022-11-25T23:39:59.731   2216496470.2
RECEIVE_FREQ_1 =   2022-11-25T23:40:10.272   2216496468.327
RECEIVE_FREQ_1 =   2022-11-25T23:40:20.813   2216496467.427
RECEIVE_FREQ_1 =   2022-11-25T23:40:31.354   2216496465.927
RECEIVE_FREQ_1 =   2022-11-25T23:40:41.894   2216496464.727
RECEIVE_FREQ_1 =   2022-11-25T23:40:52.349   2216496463.327
RECEIVE_FREQ_1 =   2022-11-25T23:41:02.890   2216496462.127
RECEIVE_FREQ_1 =   2022-11-25T23:41:13.430   2216496460.627
RECEIVE_FREQ_1 =   2022-11-25T23:41:23.971   2216496459.227
RECEIVE_FREQ_1 =   2022-11-25T23:41:34.512   2216496457.827
RECEIVE_FREQ_1 =   2022-11-25T23:41:45.053   2216496456.427
RECEIVE_FREQ_1 =   2022-11-25T23:41:55.594   2216496454.827
RECEIVE_FREQ_1 =   2022-11-25T23:42:06.048   2216496453.627
RECEIVE_FREQ_1 =   2022-11-25T23:42:16.589   2216496452.327
RECEIVE_FREQ_1 =   2022-11-25T23:42:27.043   2216496451.027
RECEIVE_FREQ_1 =   2022-11-25T23:42:37.584   2216496449.627
RECEIVE_FREQ_1 =   2022-11-25T23:42:48.125   2216496448.727
RECEIVE_FREQ_1 =   2022-11-25T23:42:58.666   2216496447.127
RECEIVE_FREQ_1 =   2022-11-25T23:43:09.206   2216496445.627
RECEIVE_FREQ_1 =   2022-11-25T23:43:19.747   2216496444.627
RECEIVE_FREQ_1 =   2022-11-25T23:43:30.202   2216496443.027
RECEIVE_FREQ_1 =   2022-11-25T23:43:40.742   2216496441.627
RECEIVE_FREQ_1 =   2022-11-25T23:43:51.283   2216496440.227
RECEIVE_FREQ_1 =   2022-11-25T23:44:01.824   2216496438.627
RECEIVE_FREQ_1 =   2022-11-25T23:44:12.278   2216496437.327
RECEIVE_FREQ_1 =   2022-11-25T23:44:22.819   2216496435.827
RECEIVE_FREQ_1 =   2022-11-25T23:44:33.360   2216496434.727
RECEIVE_FREQ_1 =   2022-11-25T23:44:43.814   2216496433.127
RECEIVE_FREQ_1 =   2022-11-25T23:44:54.355   2216496432.027
RECEIVE_FREQ_1 =   2022-11-25T23:45:04.810   2216496430.527
RECEIVE_FREQ_1 =   2022-11-25T23:45:15.350   2216496429.527
RECEIVE_FREQ_1 =   2022-11-25T23:45:25.891   2216496427.627
RECEIVE_FREQ_1 =   2022-11-25T23:45:36.432   2216496426.227
RECEIVE_FREQ_1 =   2022-11-25T23:45:46.973   2216496424.927
RECEIVE_FREQ_1 =   2022-11-25T23:45:57.514   2216496423.727
RECEIVE_FREQ_1 =   2022-11-25T23:46:07.968   2216496422.327
RECEIVE_FREQ_1 =   2022-11-25T23:46:18.509   2216496420.827
RECEIVE_FREQ_1 =   2022-11-25T23:46:28.963   2216496419.327
RECEIVE_FREQ_1 =   2022-11-25T23:46:39.504   2216496417.927
RECEIVE_FREQ_1 =   2022-11-25T23:46:49.958   2216496416.927
RECEIVE_FREQ_1 =   2022-11-25T23:47:00.499   2216496415.127
RECEIVE_FREQ_1 =   2022-11-25T23:47:10.954   2216496413.927
RECEIVE_FREQ_1 =   2022-11-25T23:47:21.494   2216496412.727
RECEIVE_FREQ_1 =   2022-11-25T23:47:31.949   2216496410.927
RECEIVE_FREQ_1 =   2022-11-25T23:47:42.490   2216496409.727
RECEIVE_FREQ_1 =   2022-11-25T23:47:52.944   2216496408.227
RECEIVE_FREQ_1 =   2022-11-25T23:48:03.485   2216496406.927
RECEIVE_FREQ_1 =   2022-11-25T23:48:14.026   2216496405.427
RECEIVE_FREQ_1 =   2022-11-25T23:48:24.566   2216496404.327
RECEIVE_FREQ_1 =   2022-11-25T23:48:35.021   2216496402.827
RECEIVE_FREQ_1 =   2022-11-25T23:49:27.466   2216496395.727
RECEIVE_FREQ_1 =   2022-11-25T23:50:41.078   2216496386.127
RECEIVE_FREQ_1 =   2022-11-25T23:51:54.605   2216496376.227
RECEIVE_FREQ_1 =   2022-11-25T23:52:15.600   2216496373.527
RECEIVE_FREQ_1 =   2022-11-25T23:52:26.141   2216496372.227
RECEIVE_FREQ_1 =   2022-11-25T23:53:08.131   2216496365.827
DATA_STOP
