data/tdm/2022-11-26Z_2022-156A.tdm

CCSDS_TDM_VERS = 2.0
COMMENT TDM ARTEMIS 1 Doppler data by Scott Tilley for 2022-11-26 UTC
COMMENT Signal not demodulated, to low of SNR, centre carrier integrated in 10s by 0.1Hz bin and extracted for peak value.
CREATION_DATE = 2022-11-26Z
ORIGINATOR = SCOTT TILLEY

META_START
COMMENT 
COMMENT 
SYSTEM TIME = UTC
PARTICIPANT_1 = COSPAR 8049
PARTICIPANT_2 = 2022-156A
MODE = SEQUENTIAL
PATH = 2,1
INTEGRATION_INTERVAL = 10
INTEGRATION_REF = MIDDLE
FREQ_OFFSET = 0
TRANSMIT_DELAY_1 = 0
RECEIVE_DELAY_1 = 0
DATA_QUALITY = RAW
META_STOP

DATA_START
RECEIVE_FREQ_1 =   2022-11-26T21:03:37.642   2216498502.655
RECEIVE_FREQ_1 =   2022-11-26T21:03:48.182   2216498501.955
RECEIVE_FREQ_1 =   2022-11-26T21:04:09.178   2216498498.727
RECEIVE_FREQ_1 =   2022-11-26T21:04:40.627   2216498496.527
RECEIVE_FREQ_1 =   2022-11-26T21:05:22.618   2216498492.527
RECEIVE_FREQ_1 =   2022-11-26T21:05:43.613   2216498490.027
RECEIVE_FREQ_1 =   2022-11-26T21:05:54.240   2216498488.955
RECEIVE_FREQ_1 =   2022-11-26T21:06:04.781   2216498487.755
RECEIVE_FREQ_1 =   2022-11-26T21:06:25.776   2216498485.755
RECEIVE_FREQ_1 =   2022-11-26T21:06:36.317   2216498484.355
RECEIVE_FREQ_1 =   2022-11-26T21:06:46.771   2216498483.555
RECEIVE_FREQ_1 =   2022-11-26T21:06:57.312   2216498482.255
RECEIVE_FREQ_1 =   2022-11-26T21:07:07.766   2216498481.455
RECEIVE_FREQ_1 =   2022-11-26T21:07:18.307   2216498480.555
RECEIVE_FREQ_1 =   2022-11-26T21:07:28.848   2216498479.555
RECEIVE_FREQ_1 =   2022-11-26T21:07:39.302   2216498478.155
RECEIVE_FREQ_1 =   2022-11-26T21:07:49.843   2216498477.255
RECEIVE_FREQ_1 =   2022-11-26T21:08:00.384   2216498476.155
RECEIVE_FREQ_1 =   2022-11-26T21:08:10.838   2216498474.955
RECEIVE_FREQ_1 =   2022-11-26T21:08:21.379   2216498473.655
RECEIVE_FREQ_1 =   2022-11-26T21:08:52.829   2216498470.955
RECEIVE_FREQ_1 =   2022-11-26T21:09:03.283   2216498469.555
RECEIVE_FREQ_1 =   2022-11-26T21:09:13.824   2216498468.355
RECEIVE_FREQ_1 =   2022-11-26T21:09:24.365   2216498467.355
RECEIVE_FREQ_1 =   2022-11-26T21:09:34.906   2216498466.155
RECEIVE_FREQ_1 =   2022-11-26T21:09:45.360   2216498465.255
RECEIVE_FREQ_1 =   2022-11-26T21:09:55.901   2216498464.155
RECEIVE_FREQ_1 =   2022-11-26T21:10:06.355   2216498462.755
RECEIVE_FREQ_1 =   2022-11-26T21:10:16.810   2216498461.755
RECEIVE_FREQ_1 =   2022-11-26T21:10:27.350   2216498460.655
RECEIVE_FREQ_1 =   2022-11-26T21:10:37.805   2216498459.655
RECEIVE_FREQ_1 =   2022-11-26T21:10:48.346   2216498458.755
RECEIVE_FREQ_1 =   2022-11-26T21:10:58.800   2216498457.255
RECEIVE_FREQ_1 =   2022-11-26T21:11:09.341   2216498456.355
RECEIVE_FREQ_1 =   2022-11-26T21:11:19.795   2216498454.955
RECEIVE_FREQ_1 =   2022-11-26T21:11:30.336   2216498453.655
RECEIVE_FREQ_1 =   2022-11-26T21:11:51.331   2216498451.955
RECEIVE_FREQ_1 =   2022-11-26T21:12:01.786   2216498451.055
RECEIVE_FREQ_1 =   2022-11-26T21:12:12.326   2216498449.855
RECEIVE_FREQ_1 =   2022-11-26T21:12:22.781   2216498449.055
RECEIVE_FREQ_1 =   2022-11-26T21:12:33.322   2216498448.055
RECEIVE_FREQ_1 =   2022-11-26T21:12:43.862   2216498447.155
RECEIVE_FREQ_1 =   2022-11-26T21:12:54.403   2216498445.955
RECEIVE_FREQ_1 =   2022-11-26T21:13:04.858   2216498445.155
RECEIVE_FREQ_1 =   2022-11-26T21:13:15.398   2216498444.255
RECEIVE_FREQ_1 =   2022-11-26T21:13:36.394   2216498442.055
RECEIVE_FREQ_1 =   2022-11-26T21:13:46.848   2216498441.355
RECEIVE_FREQ_1 =   2022-11-26T21:13:57.389   2216498440.055
RECEIVE_FREQ_1 =   2022-11-26T21:14:07.843   2216498439.155
RECEIVE_FREQ_1 =   2022-11-26T21:14:18.384   2216498437.555
RECEIVE_FREQ_1 =   2022-11-26T21:14:28.838   2216498436.955
RECEIVE_FREQ_1 =   2022-11-26T21:14:39.293   2216498435.955
RECEIVE_FREQ_1 =   2022-11-26T21:14:49.834   2216498434.955
RECEIVE_FREQ_1 =   2022-11-26T21:15:00.374   2216498433.855
RECEIVE_FREQ_1 =   2022-11-26T21:15:10.829   2216498432.855
RECEIVE_FREQ_1 =   2022-11-26T21:15:21.370   2216498431.555
RECEIVE_FREQ_1 =   2022-11-26T21:15:31.824   2216498430.855
RECEIVE_FREQ_1 =   2022-11-26T21:15:42.365   2216498429.855
RECEIVE_FREQ_1 =   2022-11-26T21:15:52.906   2216498428.955
RECEIVE_FREQ_1 =   2022-11-26T21:16:13.987   2216498426.355
RECEIVE_FREQ_1 =   2022-11-26T21:16:24.528   2216498425.655
RECEIVE_FREQ_1 =   2022-11-26T21:16:34.982   2216498424.455
RECEIVE_FREQ_1 =   2022-11-26T21:16:45.523   2216498423.555
RECEIVE_FREQ_1 =   2022-11-26T21:16:56.064   2216498422.555
RECEIVE_FREQ_1 =   2022-11-26T21:17:06.518   2216498421.455
RECEIVE_FREQ_1 =   2022-11-26T21:17:17.059   2216498420.255
RECEIVE_FREQ_1 =   2022-11-26T21:17:27.514   2216498419.355
RECEIVE_FREQ_1 =   2022-11-26T21:17:38.054   2216498418.155
RECEIVE_FREQ_1 =   2022-11-26T21:17:48.595   2216498417.355
RECEIVE_FREQ_1 =   2022-11-26T21:17:59.050   2216498416.155
RECEIVE_FREQ_1 =   2022-11-26T21:18:09.590   2216498415.355
RECEIVE_FREQ_1 =   2022-11-26T21:18:20.131   2216498414.055
RECEIVE_FREQ_1 =   2022-11-26T21:18:30.672   2216498412.955
RECEIVE_FREQ_1 =   2022-11-26T21:18:41.213   2216498411.955
RECEIVE_FREQ_1 =   2022-11-26T21:18:51.754   2216498410.955
RECEIVE_FREQ_1 =   2022-11-26T21:19:02.294   2216498409.855
RECEIVE_FREQ_1 =   2022-11-26T21:19:12.749   2216498408.755
RECEIVE_FREQ_1 =   2022-11-26T21:19:23.290   2216498407.855
RECEIVE_FREQ_1 =   2022-11-26T21:19:33.917   2216498406.955
RECEIVE_FREQ_1 =   2022-11-26T21:19:44.371   2216498405.855
RECEIVE_FREQ_1 =   2022-11-26T21:19:54.912   2216498404.355
RECEIVE_FREQ_1 =   2022-11-26T21:20:05.539   2216498403.555
RECEIVE_FREQ_1 =   2022-11-26T21:20:15.994   2216498402.355
RECEIVE_FREQ_1 =   2022-11-26T21:20:26.534   2216498401.455
RECEIVE_FREQ_1 =   2022-11-26T21:20:37.075   2216498400.055
RECEIVE_FREQ_1 =   2022-11-26T21:20:47.616   2216498399.155
RECEIVE_FREQ_1 =   2022-11-26T21:20:58.157   2216498398.155
RECEIVE_FREQ_1 =   2022-11-26T21:21:08.698   2216498396.755
RECEIVE_FREQ_1 =   2022-11-26T21:21:19.238   2216498395.955
RECEIVE_FREQ_1 =   2022-11-26T21:21:29.693   2216498394.755
RECEIVE_FREQ_1 =   2022-11-26T21:21:40.320   2216498393.955
RECEIVE_FREQ_1 =   2022-11-26T21:21:50.861   2216498392.755
RECEIVE_FREQ_1 =   2022-11-26T21:22:01.402   2216498391.555
RECEIVE_FREQ_1 =   2022-11-26T21:22:11.942   2216498390.555
RECEIVE_FREQ_1 =   2022-11-26T21:22:22.483   2216498389.355
RECEIVE_FREQ_1 =   2022-11-26T21:22:32.938   2216498388.455
RECEIVE_FREQ_1 =   2022-11-26T21:22:43.478   2216498387.555
RECEIVE_FREQ_1 =   2022-11-26T21:22:54.019   2216498386.155
RECEIVE_FREQ_1 =   2022-11-26T21:23:04.560   2216498385.255
RECEIVE_FREQ_1 =   2022-11-26T21:23:15.014   2216498383.855
RECEIVE_FREQ_1 =   2022-11-26T21:23:25.555   2216498383.155
RECEIVE_FREQ_1 =   2022-11-26T21:23:36.096   2216498381.855
RECEIVE_FREQ_1 =   2022-11-26T21:23:46.637   2216498380.855
RECEIVE_FREQ_1 =   2022-11-26T21:23:57.178   2216498379.955
RECEIVE_FREQ_1 =   2022-11-26T21:24:07.718   2216498378.555
RECEIVE_FREQ_1 =   2022-11-26T21:24:18.173   2216498377.555
RECEIVE_FREQ_1 =   2022-11-26T21:24:28.714   2216498376.555
RECEIVE_FREQ_1 =   2022-11-26T21:24:39.254   2216498375.355
RECEIVE_FREQ_1 =   2022-11-26T21:24:49.795   2216498374.055
RECEIVE_FREQ_1 =   2022-11-26T21:25:00.336   2216498373.255
RECEIVE_FREQ_1 =   2022-11-26T21:25:10.877   2216498372.055
RECEIVE_FREQ_1 =   2022-11-26T21:25:21.331   2216498371.055
RECEIVE_FREQ_1 =   2022-11-26T21:25:31.872   2216498369.755
RECEIVE_FREQ_1 =   2022-11-26T21:25:42.413   2216498368.855
RECEIVE_FREQ_1 =   2022-11-26T21:25:52.954   2216498367.555
RECEIVE_FREQ_1 =   2022-11-26T21:26:03.494   2216498366.255
RECEIVE_FREQ_1 =   2022-11-26T21:26:14.035   2216498365.255
RECEIVE_FREQ_1 =   2022-11-26T21:26:24.576   2216498364.255
RECEIVE_FREQ_1 =   2022-11-26T21:26:35.030   2216498363.355
RECEIVE_FREQ_1 =   2022-11-26T21:26:45.571   2216498362.255
RECEIVE_FREQ_1 =   2022-11-26T21:26:56.112   2216498360.955
RECEIVE_FREQ_1 =   2022-11-26T21:27:06.653   2216498359.855
RECEIVE_FREQ_1 =   2022-11-26T21:27:17.107   2216498358.655
RECEIVE_FREQ_1 =   2022-11-26T21:27:27.648   2216498357.555
RECEIVE_FREQ_1 =   2022-11-26T21:27:38.189   2216498356.655
RECEIVE_FREQ_1 =   2022-11-26T21:27:48.730   2216498355.255
RECEIVE_FREQ_1 =   2022-11-26T21:27:59.270   2216498354.155
RECEIVE_FREQ_1 =   2022-11-26T21:28:20.438   2216498351.755
RECEIVE_FREQ_1 =   2022-11-26T21:28:30.979   2216498350.827
RECEIVE_FREQ_1 =   2022-11-26T21:28:41.434   2216498349.655
RECEIVE_FREQ_1 =   2022-11-26T21:29:13.056   2216498345.955
RECEIVE_FREQ_1 =   2022-11-26T21:29:23.683   2216498345.255
RECEIVE_FREQ_1 =   2022-11-26T21:29:44.678   2216498342.655
RECEIVE_FREQ_1 =   2022-11-26T21:29:55.306   2216498341.755
RECEIVE_FREQ_1 =   2022-11-26T21:30:05.846   2216498340.255
RECEIVE_FREQ_1 =   2022-11-26T21:30:16.387   2216498339.255
RECEIVE_FREQ_1 =   2022-11-26T21:30:26.928   2216498337.955
RECEIVE_FREQ_1 =   2022-11-26T21:30:37.469   2216498336.855
RECEIVE_FREQ_1 =   2022-11-26T21:30:58.464   2216498334.755
RECEIVE_FREQ_1 =   2022-11-26T21:31:09.005   2216498333.655
RECEIVE_FREQ_1 =   2022-11-26T21:31:19.459   2216498332.755
RECEIVE_FREQ_1 =   2022-11-26T21:31:30.086   2216498331.155
RECEIVE_FREQ_1 =   2022-11-26T21:32:54.240   2216498322.155
RECEIVE_FREQ_1 =   2022-11-26T21:33:04.781   2216498321.155
RECEIVE_FREQ_1 =   2022-11-26T21:33:15.322   2216498319.655
RECEIVE_FREQ_1 =   2022-11-26T21:33:46.858   2216498316.155
RECEIVE_FREQ_1 =   2022-11-26T21:34:07.939   2216498314.055
RECEIVE_FREQ_1 =   2022-11-26T21:34:18.480   2216498312.755
RECEIVE_FREQ_1 =   2022-11-26T21:34:28.934   2216498311.427
RECEIVE_FREQ_1 =   2022-11-26T21:34:39.475   2216498310.555
RECEIVE_FREQ_1 =   2022-11-26T21:34:50.016   2216498309.255
RECEIVE_FREQ_1 =   2022-11-26T21:35:00.557   2216498308.155
RECEIVE_FREQ_1 =   2022-11-26T21:35:11.098   2216498306.655
RECEIVE_FREQ_1 =   2022-11-26T21:35:21.552   2216498305.855
RECEIVE_FREQ_1 =   2022-11-26T21:35:32.093   2216498304.427
RECEIVE_FREQ_1 =   2022-11-26T21:35:42.634   2216498303.355
RECEIVE_FREQ_1 =   2022-11-26T21:35:53.088   2216498302.227
RECEIVE_FREQ_1 =   2022-11-26T21:36:03.629   2216498301.155
RECEIVE_FREQ_1 =   2022-11-26T21:36:14.170   2216498300.055
RECEIVE_FREQ_1 =   2022-11-26T21:36:24.710   2216498298.555
RECEIVE_FREQ_1 =   2022-11-26T21:36:45.706   2216498296.927
RECEIVE_FREQ_1 =   2022-11-26T21:37:06.787   2216498293.955
RECEIVE_FREQ_1 =   2022-11-26T21:37:27.955   2216498291.755
RECEIVE_FREQ_1 =   2022-11-26T21:37:59.491   2216498287.955
RECEIVE_FREQ_1 =   2022-11-26T21:38:52.109   2216498281.655
RECEIVE_FREQ_1 =   2022-11-26T21:43:15.542   2216498252.955
RECEIVE_FREQ_1 =   2022-11-26T21:43:26.083   2216498251.855
RECEIVE_FREQ_1 =   2022-11-26T21:43:36.624   2216498250.655
RECEIVE_FREQ_1 =   2022-11-26T21:43:57.706   2216498248.155
RECEIVE_FREQ_1 =   2022-11-26T21:44:08.246   2216498247.327
RECEIVE_FREQ_1 =   2022-11-26T21:44:18.787   2216498246.027
RECEIVE_FREQ_1 =   2022-11-26T21:44:50.410   2216498242.827
RECEIVE_FREQ_1 =   2022-11-26T21:45:00.950   2216498240.955
RECEIVE_FREQ_1 =   2022-11-26T21:45:32.573   2216498237.555
RECEIVE_FREQ_1 =   2022-11-26T21:45:43.114   2216498236.627
RECEIVE_FREQ_1 =   2022-11-26T21:46:14.736   2216498232.755
RECEIVE_FREQ_1 =   2022-11-26T21:46:25.363   2216498231.955
RECEIVE_FREQ_1 =   2022-11-26T21:46:35.904   2216498230.627
RECEIVE_FREQ_1 =   2022-11-26T21:46:56.986   2216498228.355
RECEIVE_FREQ_1 =   2022-11-26T21:47:28.522   2216498224.827
RECEIVE_FREQ_1 =   2022-11-26T21:47:38.976   2216498223.227
RECEIVE_FREQ_1 =   2022-11-26T21:47:49.517   2216498222.455
RECEIVE_FREQ_1 =   2022-11-26T21:48:00.058   2216498220.955
RECEIVE_FREQ_1 =   2022-11-26T21:48:21.053   2216498218.655
RECEIVE_FREQ_1 =   2022-11-26T21:48:42.048   2216498216.455
RECEIVE_FREQ_1 =   2022-11-26T21:49:13.584   2216498212.527
RECEIVE_FREQ_1 =   2022-11-26T21:49:24.125   2216498211.427
RECEIVE_FREQ_1 =   2022-11-26T21:49:34.666   2216498210.555
RECEIVE_FREQ_1 =   2022-11-26T21:50:27.370   2216498204.255
RECEIVE_FREQ_1 =   2022-11-26T21:51:09.446   2216498199.855
RECEIVE_FREQ_1 =   2022-11-26T21:52:01.978   2216498194.055
RECEIVE_FREQ_1 =   2022-11-26T21:52:12.432   2216498192.655
RECEIVE_FREQ_1 =   2022-11-26T21:52:23.059   2216498191.755
RECEIVE_FREQ_1 =   2022-11-26T21:52:54.682   2216498188.855
RECEIVE_FREQ_1 =   2022-11-26T21:53:15.763   2216498186.355
RECEIVE_FREQ_1 =   2022-11-26T21:53:26.304   2216498184.855
RECEIVE_FREQ_1 =   2022-11-26T21:53:47.299   2216498182.727
RECEIVE_FREQ_1 =   2022-11-26T21:53:57.840   2216498181.355
RECEIVE_FREQ_1 =   2022-11-26T21:54:08.294   2216498180.155
RECEIVE_FREQ_1 =   2022-11-26T21:54:18.835   2216498178.955
RECEIVE_FREQ_1 =   2022-11-26T21:54:29.376   2216498177.555
RECEIVE_FREQ_1 =   2022-11-26T21:54:39.917   2216498176.555
RECEIVE_FREQ_1 =   2022-11-26T21:55:00.912   2216498174.455
RECEIVE_FREQ_1 =   2022-11-26T21:55:11.366   2216498173.355
RECEIVE_FREQ_1 =   2022-11-26T21:55:21.907   2216498171.655
RECEIVE_FREQ_1 =   2022-11-26T21:55:32.448   2216498170.355
RECEIVE_FREQ_1 =   2022-11-26T21:55:42.989   2216498169.455
RECEIVE_FREQ_1 =   2022-11-26T21:55:53.443   2216498167.855
RECEIVE_FREQ_1 =   2022-11-26T21:56:03.984   2216498166.455
RECEIVE_FREQ_1 =   2022-11-26T21:56:14.525   2216498165.455
RECEIVE_FREQ_1 =   2022-11-26T21:56:25.152   2216498164.055
RECEIVE_FREQ_1 =   2022-11-26T21:56:35.693   2216498162.855
RECEIVE_FREQ_1 =   2022-11-26T21:56:46.234   2216498161.055
RECEIVE_FREQ_1 =   2022-11-26T21:56:56.774   2216498159.955
RECEIVE_FREQ_1 =   2022-11-26T21:57:07.315   2216498159.155
RECEIVE_FREQ_1 =   2022-11-26T21:57:17.856   2216498157.255
RECEIVE_FREQ_1 =   2022-11-26T21:57:28.397   2216498155.755
RECEIVE_FREQ_1 =   2022-11-26T21:57:39.024   2216498155.055
RECEIVE_FREQ_1 =   2022-11-26T21:57:49.478   2216498153.355
RECEIVE_FREQ_1 =   2022-11-26T21:58:00.019   2216498151.955
RECEIVE_FREQ_1 =   2022-11-26T21:58:10.646   2216498150.755
RECEIVE_FREQ_1 =   2022-11-26T21:58:21.101   2216498149.655
RECEIVE_FREQ_1 =   2022-11-26T21:58:31.642   2216498148.855
RECEIVE_FREQ_1 =   2022-11-26T21:58:42.269   2216498147.355
RECEIVE_FREQ_1 =   2022-11-26T21:58:52.723   2216498146.527
RECEIVE_FREQ_1 =   2022-11-26T21:59:03.264   2216498144.955
RECEIVE_FREQ_1 =   2022-11-26T21:59:13.805   2216498143.955
RECEIVE_FREQ_1 =   2022-11-26T21:59:24.346   2216498142.855
RECEIVE_FREQ_1 =   2022-11-26T21:59:34.886   2216498141.655
RECEIVE_FREQ_1 =   2022-11-26T21:59:45.427   2216498140.327
RECEIVE_FREQ_1 =   2022-11-26T21:59:55.968   2216498139.055
RECEIVE_FREQ_1 =   2022-11-26T22:00:38.045   2216498133.927
RECEIVE_FREQ_1 =   2022-11-26T22:02:02.285   2216498125.127
RECEIVE_FREQ_1 =   2022-11-26T22:02:35.635   2216498121.155
RECEIVE_FREQ_1 =   2022-11-26T22:02:46.262   2216498119.955
RECEIVE_FREQ_1 =   2022-11-26T22:02:56.803   2216498118.455
RECEIVE_FREQ_1 =   2022-11-26T22:03:17.798   2216498116.427
RECEIVE_FREQ_1 =   2022-11-26T22:03:28.339   2216498114.755
RECEIVE_FREQ_1 =   2022-11-26T22:03:59.962   2216498111.555
RECEIVE_FREQ_1 =   2022-11-26T22:04:10.502   2216498110.355
RECEIVE_FREQ_1 =   2022-11-26T22:04:21.043   2216498109.955
RECEIVE_FREQ_1 =   2022-11-26T22:04:31.498   2216498107.955
RECEIVE_FREQ_1 =   2022-11-26T22:04:42.038   2216498106.755
RECEIVE_FREQ_1 =   2022-11-26T22:04:52.493   2216498105.555
RECEIVE_FREQ_1 =   2022-11-26T22:05:03.034   2216498104.455
RECEIVE_FREQ_1 =   2022-11-26T22:05:13.574   2216498102.227
RECEIVE_FREQ_1 =   2022-11-26T22:05:45.283   2216498099.655
RECEIVE_FREQ_1 =   2022-11-26T22:05:55.824   2216498098.027
RECEIVE_FREQ_1 =   2022-11-26T22:06:16.906   2216498096.055
RECEIVE_FREQ_1 =   2022-11-26T22:07:41.059   2216498085.827
RECEIVE_FREQ_1 =   2022-11-26T22:08:02.141   2216498082.627
RECEIVE_FREQ_1 =   2022-11-26T22:10:19.258   2216498067.727
RECEIVE_FREQ_1 =   2022-11-26T22:11:11.962   2216498061.527
RECEIVE_FREQ_1 =   2022-11-26T22:11:53.952   2216498056.627
RECEIVE_FREQ_1 =   2022-11-26T22:21:01.123   2216497989.027
RECEIVE_FREQ_1 =   2022-11-26T22:21:11.664   2216497987.927
RECEIVE_FREQ_1 =   2022-11-26T22:22:14.995   2216497981.9
RECEIVE_FREQ_1 =   2022-11-26T22:22:25.536   2216497980.5
RECEIVE_FREQ_1 =   2022-11-26T22:22:36.077   2216497979.6
RECEIVE_FREQ_1 =   2022-11-26T22:22:46.618   2216497978.1
RECEIVE_FREQ_1 =   2022-11-26T22:23:07.613   2216497975.6
RECEIVE_FREQ_1 =   2022-11-26T22:23:18.240   2216497974.3
RECEIVE_FREQ_1 =   2022-11-26T22:23:28.781   2216497972.7
RECEIVE_FREQ_1 =   2022-11-26T22:23:39.322   2216497971.5
RECEIVE_FREQ_1 =   2022-11-26T22:23:49.862   2216497970.3
RECEIVE_FREQ_1 =   2022-11-26T22:24:00.403   2216497969.0
RECEIVE_FREQ_1 =   2022-11-26T22:24:53.366   2216497962.5
RECEIVE_FREQ_1 =   2022-11-26T22:25:35.530   2216497956.5
RECEIVE_FREQ_1 =   2022-11-26T22:26:07.152   2216497953.3
RECEIVE_FREQ_1 =   2022-11-26T22:26:28.234   2216497950.8
RECEIVE_FREQ_1 =   2022-11-26T22:26:38.774   2216497949.4
RECEIVE_FREQ_1 =   2022-11-26T22:26:49.402   2216497948.0
RECEIVE_FREQ_1 =   2022-11-26T22:26:59.942   2216497947.1
RECEIVE_FREQ_1 =   2022-11-26T22:27:10.483   2216497945.5
RECEIVE_FREQ_1 =   2022-11-26T22:27:42.192   2216497941.8
RECEIVE_FREQ_1 =   2022-11-26T22:27:52.733   2216497940.2
RECEIVE_FREQ_1 =   2022-11-26T22:28:03.274   2216497939.0
RECEIVE_FREQ_1 =   2022-11-26T22:28:13.814   2216497937.9
RECEIVE_FREQ_1 =   2022-11-26T22:28:24.355   2216497935.8
RECEIVE_FREQ_1 =   2022-11-26T22:28:34.982   2216497934.8
RECEIVE_FREQ_1 =   2022-11-26T22:28:45.523   2216497933.6
RECEIVE_FREQ_1 =   2022-11-26T22:28:56.064   2216497932.3
RECEIVE_FREQ_1 =   2022-11-26T22:29:06.605   2216497931.2
RECEIVE_FREQ_1 =   2022-11-26T22:29:17.146   2216497929.8
RECEIVE_FREQ_1 =   2022-11-26T22:29:27.600   2216497928.5
RECEIVE_FREQ_1 =   2022-11-26T22:29:38.141   2216497927.0
RECEIVE_FREQ_1 =   2022-11-26T22:29:48.682   2216497925.8
RECEIVE_FREQ_1 =   2022-11-26T22:29:59.136   2216497924.6
RECEIVE_FREQ_1 =   2022-11-26T22:30:09.677   2216497923.5
RECEIVE_FREQ_1 =   2022-11-26T22:30:20.304   2216497921.5
RECEIVE_FREQ_1 =   2022-11-26T22:30:30.845   2216497920.8
RECEIVE_FREQ_1 =   2022-11-26T22:30:41.386   2216497919.0
RECEIVE_FREQ_1 =   2022-11-26T22:30:51.926   2216497918.0
RECEIVE_FREQ_1 =   2022-11-26T22:31:02.467   2216497916.4
RECEIVE_FREQ_1 =   2022-11-26T22:31:13.008   2216497915.3
RECEIVE_FREQ_1 =   2022-11-26T22:31:23.635   2216497913.9
RECEIVE_FREQ_1 =   2022-11-26T22:31:34.176   2216497912.3
RECEIVE_FREQ_1 =   2022-11-26T22:31:44.717   2216497910.8
RECEIVE_FREQ_1 =   2022-11-26T22:31:55.344   2216497909.7
RECEIVE_FREQ_1 =   2022-11-26T22:32:05.885   2216497908.5
RECEIVE_FREQ_1 =   2022-11-26T22:32:16.339   2216497907.1
RECEIVE_FREQ_1 =   2022-11-26T22:32:26.880   2216497905.6
RECEIVE_FREQ_1 =   2022-11-26T22:32:37.421   2216497904.4
RECEIVE_FREQ_1 =   2022-11-26T22:32:47.962   2216497903.2
RECEIVE_FREQ_1 =   2022-11-26T22:32:58.502   2216497902.0
RECEIVE_FREQ_1 =   2022-11-26T22:33:09.043   2216497900.5
RECEIVE_FREQ_1 =   2022-11-26T22:33:19.584   2216497899.3
RECEIVE_FREQ_1 =   2022-11-26T22:33:30.038   2216497897.6
RECEIVE_FREQ_1 =   2022-11-26T22:33:40.579   2216497896.4
RECEIVE_FREQ_1 =   2022-11-26T22:33:51.120   2216497895.3
RECEIVE_FREQ_1 =   2022-11-26T22:34:01.661   2216497894.1
RECEIVE_FREQ_1 =   2022-11-26T22:34:12.202   2216497892.627
RECEIVE_FREQ_1 =   2022-11-26T22:34:22.742   2216497891.227
RECEIVE_FREQ_1 =   2022-11-26T22:34:33.283   2216497889.8
RECEIVE_FREQ_1 =   2022-11-26T22:34:43.824   2216497888.227
RECEIVE_FREQ_1 =   2022-11-26T22:34:54.365   2216497887.0
RECEIVE_FREQ_1 =   2022-11-26T22:35:04.906   2216497886.027
RECEIVE_FREQ_1 =   2022-11-26T22:35:15.446   2216497884.6
RECEIVE_FREQ_1 =   2022-11-26T22:35:25.987   2216497883.5
RECEIVE_FREQ_1 =   2022-11-26T22:35:36.442   2216497882.0
RECEIVE_FREQ_1 =   2022-11-26T22:35:46.982   2216497880.9
RECEIVE_FREQ_1 =   2022-11-26T22:35:57.523   2216497879.6
RECEIVE_FREQ_1 =   2022-11-26T22:36:08.064   2216497878.5
RECEIVE_FREQ_1 =   2022-11-26T22:36:18.605   2216497876.9
RECEIVE_FREQ_1 =   2022-11-26T22:36:29.146   2216497875.4
RECEIVE_FREQ_1 =   2022-11-26T22:36:39.686   2216497874.2
RECEIVE_FREQ_1 =   2022-11-26T22:36:50.314   2216497873.0
RECEIVE_FREQ_1 =   2022-11-26T22:37:00.768   2216497871.9
RECEIVE_FREQ_1 =   2022-11-26T22:37:11.309   2216497870.6
RECEIVE_FREQ_1 =   2022-11-26T22:37:21.850   2216497869.4
RECEIVE_FREQ_1 =   2022-11-26T22:37:32.390   2216497867.9
RECEIVE_FREQ_1 =   2022-11-26T22:37:42.845   2216497866.9
RECEIVE_FREQ_1 =   2022-11-26T22:37:53.386   2216497865.5
RECEIVE_FREQ_1 =   2022-11-26T22:38:03.840   2216497864.3
RECEIVE_FREQ_1 =   2022-11-26T22:38:14.381   2216497862.8
RECEIVE_FREQ_1 =   2022-11-26T22:38:24.922   2216497861.4
RECEIVE_FREQ_1 =   2022-11-26T22:38:35.462   2216497859.827
RECEIVE_FREQ_1 =   2022-11-26T22:38:45.917   2216497858.8
RECEIVE_FREQ_1 =   2022-11-26T22:38:56.544   2216497857.5
RECEIVE_FREQ_1 =   2022-11-26T22:39:07.085   2216497856.4
RECEIVE_FREQ_1 =   2022-11-26T22:39:17.539   2216497855.1
RECEIVE_FREQ_1 =   2022-11-26T22:39:28.080   2216497853.6
RECEIVE_FREQ_1 =   2022-11-26T22:39:38.621   2216497852.7
RECEIVE_FREQ_1 =   2022-11-26T22:39:49.162   2216497851.3
RECEIVE_FREQ_1 =   2022-11-26T22:39:59.702   2216497849.9
RECEIVE_FREQ_1 =   2022-11-26T22:40:10.243   2216497848.9
RECEIVE_FREQ_1 =   2022-11-26T22:40:20.957   2216497847.4
RECEIVE_FREQ_1 =   2022-11-26T22:40:31.584   2216497845.927
RECEIVE_FREQ_1 =   2022-11-26T22:40:42.038   2216497844.627
RECEIVE_FREQ_1 =   2022-11-26T22:40:52.579   2216497843.327
RECEIVE_FREQ_1 =   2022-11-26T22:41:03.206   2216497842.027
RECEIVE_FREQ_1 =   2022-11-26T22:41:13.747   2216497840.727
RECEIVE_FREQ_1 =   2022-11-26T22:41:24.288   2216497839.7
RECEIVE_FREQ_1 =   2022-11-26T22:41:34.915   2216497838.1
RECEIVE_FREQ_1 =   2022-11-26T22:41:45.456   2216497836.927
RECEIVE_FREQ_1 =   2022-11-26T22:41:55.997   2216497835.8
RECEIVE_FREQ_1 =   2022-11-26T22:42:06.538   2216497834.027
RECEIVE_FREQ_1 =   2022-11-26T22:42:16.992   2216497832.727
RECEIVE_FREQ_1 =   2022-11-26T22:42:27.533   2216497831.9
RECEIVE_FREQ_1 =   2022-11-26T22:42:38.074   2216497830.327
RECEIVE_FREQ_1 =   2022-11-26T22:42:48.701   2216497829.227
RECEIVE_FREQ_1 =   2022-11-26T22:42:59.328   2216497827.655
RECEIVE_FREQ_1 =   2022-11-26T22:43:09.869   2216497826.155
RECEIVE_FREQ_1 =   2022-11-26T22:43:20.410   2216497825.355
RECEIVE_FREQ_1 =   2022-11-26T22:43:31.037   2216497823.8
RECEIVE_FREQ_1 =   2022-11-26T22:43:41.664   2216497822.927
RECEIVE_FREQ_1 =   2022-11-26T22:43:52.205   2216497821.5
RECEIVE_FREQ_1 =   2022-11-26T22:44:02.746   2216497820.0
RECEIVE_FREQ_1 =   2022-11-26T22:44:13.286   2216497818.527
RECEIVE_FREQ_1 =   2022-11-26T22:44:23.827   2216497817.327
RECEIVE_FREQ_1 =   2022-11-26T22:44:34.368   2216497816.155
RECEIVE_FREQ_1 =   2022-11-26T22:44:44.909   2216497814.655
RECEIVE_FREQ_1 =   2022-11-26T22:44:55.450   2216497813.3
RECEIVE_FREQ_1 =   2022-11-26T22:45:06.163   2216497812.055
RECEIVE_FREQ_1 =   2022-11-26T22:45:16.790   2216497810.755
RECEIVE_FREQ_1 =   2022-11-26T22:45:27.418   2216497809.527
RECEIVE_FREQ_1 =   2022-11-26T22:45:38.045   2216497808.055
RECEIVE_FREQ_1 =   2022-11-26T22:45:48.586   2216497806.8
RECEIVE_FREQ_1 =   2022-11-26T22:45:59.126   2216497805.255
RECEIVE_FREQ_1 =   2022-11-26T22:46:09.754   2216497804.327
RECEIVE_FREQ_1 =   2022-11-26T22:46:20.381   2216497803.0
RECEIVE_FREQ_1 =   2022-11-26T22:46:30.922   2216497801.5
RECEIVE_FREQ_1 =   2022-11-26T22:46:41.462   2216497800.427
RECEIVE_FREQ_1 =   2022-11-26T22:46:52.090   2216497798.727
RECEIVE_FREQ_1 =   2022-11-26T22:47:02.630   2216497797.755
RECEIVE_FREQ_1 =   2022-11-26T22:47:13.171   2216497796.4
RECEIVE_FREQ_1 =   2022-11-26T22:47:23.798   2216497795.127
RECEIVE_FREQ_1 =   2022-11-26T22:47:34.426   2216497793.7
RECEIVE_FREQ_1 =   2022-11-26T22:47:45.053   2216497792.055
RECEIVE_FREQ_1 =   2022-11-26T22:47:55.594   2216497791.0
RECEIVE_FREQ_1 =   2022-11-26T22:48:06.221   2216497789.327
RECEIVE_FREQ_1 =   2022-11-26T22:48:16.762   2216497788.1
RECEIVE_FREQ_1 =   2022-11-26T22:48:27.389   2216497787.927
RECEIVE_FREQ_1 =   2022-11-26T22:48:38.016   2216497785.6
RECEIVE_FREQ_1 =   2022-11-26T22:48:48.557   2216497784.227
RECEIVE_FREQ_1 =   2022-11-26T22:48:59.184   2216497782.755
RECEIVE_FREQ_1 =   2022-11-26T22:49:09.811   2216497781.655
RECEIVE_FREQ_1 =   2022-11-26T22:49:20.352   2216497780.355
RECEIVE_FREQ_1 =   2022-11-26T22:49:30.979   2216497779.055
RECEIVE_FREQ_1 =   2022-11-26T22:49:41.520   2216497777.927
RECEIVE_FREQ_1 =   2022-11-26T22:49:52.061   2216497776.427
RECEIVE_FREQ_1 =   2022-11-26T22:50:02.602   2216497774.555
RECEIVE_FREQ_1 =   2022-11-26T22:50:13.229   2216497773.927
RECEIVE_FREQ_1 =   2022-11-26T22:50:23.770   2216497772.4
RECEIVE_FREQ_1 =   2022-11-26T22:50:34.310   2216497770.827
RECEIVE_FREQ_1 =   2022-11-26T22:50:44.851   2216497769.927
RECEIVE_FREQ_1 =   2022-11-26T22:50:55.478   2216497768.127
RECEIVE_FREQ_1 =   2022-11-26T22:51:06.019   2216497766.627
RECEIVE_FREQ_1 =   2022-11-26T22:51:16.560   2216497765.9
RECEIVE_FREQ_1 =   2022-11-26T22:51:27.101   2216497764.527
RECEIVE_FREQ_1 =   2022-11-26T22:51:37.642   2216497762.9
RECEIVE_FREQ_1 =   2022-11-26T22:51:48.182   2216497761.527
RECEIVE_FREQ_1 =   2022-11-26T22:51:58.810   2216497760.127
RECEIVE_FREQ_1 =   2022-11-26T22:52:09.350   2216497759.227
RECEIVE_FREQ_1 =   2022-11-26T22:52:19.891   2216497757.527
RECEIVE_FREQ_1 =   2022-11-26T22:52:30.518   2216497756.555
RECEIVE_FREQ_1 =   2022-11-26T22:52:41.232   2216497755.127
RECEIVE_FREQ_1 =   2022-11-26T22:52:51.946   2216497753.727
RECEIVE_FREQ_1 =   2022-11-26T22:53:02.573   2216497752.355
RECEIVE_FREQ_1 =   2022-11-26T22:53:13.114   2216497751.127
RECEIVE_FREQ_1 =   2022-11-26T22:53:23.741   2216497749.427
RECEIVE_FREQ_1 =   2022-11-26T22:53:34.282   2216497748.055
RECEIVE_FREQ_1 =   2022-11-26T22:53:44.909   2216497746.927
RECEIVE_FREQ_1 =   2022-11-26T22:53:55.450   2216497745.827
RECEIVE_FREQ_1 =   2022-11-26T22:54:05.990   2216497744.527
RECEIVE_FREQ_1 =   2022-11-26T22:54:16.531   2216497743.227
RECEIVE_FREQ_1 =   2022-11-26T22:54:27.158   2216497741.555
RECEIVE_FREQ_1 =   2022-11-26T22:54:37.699   2216497740.427
RECEIVE_FREQ_1 =   2022-11-26T22:54:48.326   2216497739.055
RECEIVE_FREQ_1 =   2022-11-26T22:54:58.867   2216497737.727
RECEIVE_FREQ_1 =   2022-11-26T22:55:09.408   2216497736.355
RECEIVE_FREQ_1 =   2022-11-26T22:55:19.949   2216497734.955
RECEIVE_FREQ_1 =   2022-11-26T22:55:30.490   2216497733.627
RECEIVE_FREQ_1 =   2022-11-26T22:55:41.030   2216497732.527
RECEIVE_FREQ_1 =   2022-11-26T22:55:51.658   2216497730.755
RECEIVE_FREQ_1 =   2022-11-26T22:56:02.198   2216497729.627
RECEIVE_FREQ_1 =   2022-11-26T22:56:12.826   2216497728.227
RECEIVE_FREQ_1 =   2022-11-26T22:56:23.366   2216497726.955
RECEIVE_FREQ_1 =   2022-11-26T22:56:33.994   2216497725.627
RECEIVE_FREQ_1 =   2022-11-26T22:56:44.534   2216497724.355
RECEIVE_FREQ_1 =   2022-11-26T22:56:55.075   2216497722.655
RECEIVE_FREQ_1 =   2022-11-26T22:57:05.616   2216497721.655
RECEIVE_FREQ_1 =   2022-11-26T22:57:16.157   2216497720.555
RECEIVE_FREQ_1 =   2022-11-26T22:57:26.698   2216497718.755
RECEIVE_FREQ_1 =   2022-11-26T22:57:37.238   2216497717.255
RECEIVE_FREQ_1 =   2022-11-26T22:57:47.779   2216497716.155
RECEIVE_FREQ_1 =   2022-11-26T22:57:58.406   2216497714.927
RECEIVE_FREQ_1 =   2022-11-26T22:58:09.034   2216497713.755
RECEIVE_FREQ_1 =   2022-11-26T22:58:19.747   2216497712.155
RECEIVE_FREQ_1 =   2022-11-26T22:58:30.547   2216497710.655
RECEIVE_FREQ_1 =   2022-11-26T22:58:41.261   2216497709.355
RECEIVE_FREQ_1 =   2022-11-26T22:58:51.888   2216497708.027
RECEIVE_FREQ_1 =   2022-11-26T22:59:02.515   2216497706.227
RECEIVE_FREQ_1 =   2022-11-26T22:59:13.056   2216497705.355
RECEIVE_FREQ_1 =   2022-11-26T22:59:23.597   2216497703.855
RECEIVE_FREQ_1 =   2022-11-26T22:59:34.310   2216497702.555
RECEIVE_FREQ_1 =   2022-11-26T22:59:45.024   2216497701.355
RECEIVE_FREQ_1 =   2022-11-26T22:59:55.565   2216497700.155
RECEIVE_FREQ_1 =   2022-11-26T23:00:06.192   2216497698.527
RECEIVE_FREQ_1 =   2022-11-26T23:00:16.733   2216497697.355
RECEIVE_FREQ_1 =   2022-11-26T23:00:27.274   2216497695.555
RECEIVE_FREQ_1 =   2022-11-26T23:00:37.814   2216497694.627
RECEIVE_FREQ_1 =   2022-11-26T23:00:48.355   2216497693.227
RECEIVE_FREQ_1 =   2022-11-26T23:00:58.982   2216497691.755
RECEIVE_FREQ_1 =   2022-11-26T23:01:09.610   2216497690.427
RECEIVE_FREQ_1 =   2022-11-26T23:01:20.237   2216497689.155
RECEIVE_FREQ_1 =   2022-11-26T23:01:30.950   2216497687.527
RECEIVE_FREQ_1 =   2022-11-26T23:01:41.578   2216497686.355
RECEIVE_FREQ_1 =   2022-11-26T23:01:52.118   2216497684.755
RECEIVE_FREQ_1 =   2022-11-26T23:02:02.659   2216497683.727
RECEIVE_FREQ_1 =   2022-11-26T23:02:13.200   2216497682.155
RECEIVE_FREQ_1 =   2022-11-26T23:02:23.827   2216497680.727
RECEIVE_FREQ_1 =   2022-11-26T23:02:34.368   2216497679.455
RECEIVE_FREQ_1 =   2022-11-26T23:02:44.909   2216497678.255
RECEIVE_FREQ_1 =   2022-11-26T23:02:55.450   2216497676.927
RECEIVE_FREQ_1 =   2022-11-26T23:03:05.990   2216497675.627
RECEIVE_FREQ_1 =   2022-11-26T23:03:16.531   2216497674.155
RECEIVE_FREQ_1 =   2022-11-26T23:03:27.072   2216497672.627
RECEIVE_FREQ_1 =   2022-11-26T23:03:37.613   2216497671.455
RECEIVE_FREQ_1 =   2022-11-26T23:03:48.154   2216497668.955
RECEIVE_FREQ_1 =   2022-11-26T23:03:58.694   2216497669.127
RECEIVE_FREQ_1 =   2022-11-26T23:04:09.235   2216497666.927
RECEIVE_FREQ_1 =   2022-11-26T23:04:19.862   2216497666.027
RECEIVE_FREQ_1 =   2022-11-26T23:04:30.490   2216497664.555
RECEIVE_FREQ_1 =   2022-11-26T23:04:41.203   2216497663.055
RECEIVE_FREQ_1 =   2022-11-26T23:04:51.658   2216497662.127
RECEIVE_FREQ_1 =   2022-11-26T23:05:02.285   2216497660.7
RECEIVE_FREQ_1 =   2022-11-26T23:05:12.739   2216497660.055
RECEIVE_FREQ_1 =   2022-11-26T23:05:23.366   2216497658.1
RECEIVE_FREQ_1 =   2022-11-26T23:05:34.080   2216497656.327
RECEIVE_FREQ_1 =   2022-11-26T23:05:44.621   2216497655.155
RECEIVE_FREQ_1 =   2022-11-26T23:05:55.248   2216497653.627
RECEIVE_FREQ_1 =   2022-11-26T23:06:05.789   2216497652.327
RECEIVE_FREQ_1 =   2022-11-26T23:06:16.416   2216497651.0
RECEIVE_FREQ_1 =   2022-11-26T23:06:26.957   2216497649.727
RECEIVE_FREQ_1 =   2022-11-26T23:06:37.584   2216497648.127
RECEIVE_FREQ_1 =   2022-11-26T23:06:48.125   2216497647.2
RECEIVE_FREQ_1 =   2022-11-26T23:06:58.752   2216497645.327
RECEIVE_FREQ_1 =   2022-11-26T23:07:09.293   2216497644.227
RECEIVE_FREQ_1 =   2022-11-26T23:07:20.006   2216497642.927
RECEIVE_FREQ_1 =   2022-11-26T23:07:30.634   2216497640.955
RECEIVE_FREQ_1 =   2022-11-26T23:07:41.261   2216497640.055
RECEIVE_FREQ_1 =   2022-11-26T23:07:51.802   2216497638.727
RECEIVE_FREQ_1 =   2022-11-26T23:08:02.342   2216497637.555
RECEIVE_FREQ_1 =   2022-11-26T23:08:12.970   2216497635.555
RECEIVE_FREQ_1 =   2022-11-26T23:08:23.510   2216497634.755
RECEIVE_FREQ_1 =   2022-11-26T23:08:34.138   2216497633.2
RECEIVE_FREQ_1 =   2022-11-26T23:08:44.678   2216497631.9
RECEIVE_FREQ_1 =   2022-11-26T23:08:55.306   2216497630.8
RECEIVE_FREQ_1 =   2022-11-26T23:09:05.846   2216497629.3
RECEIVE_FREQ_1 =   2022-11-26T23:09:16.387   2216497627.9
RECEIVE_FREQ_1 =   2022-11-26T23:09:26.928   2216497626.3
RECEIVE_FREQ_1 =   2022-11-26T23:09:37.555   2216497624.355
RECEIVE_FREQ_1 =   2022-11-26T23:09:48.182   2216497623.9
RECEIVE_FREQ_1 =   2022-11-26T23:09:58.896   2216497622.2
RECEIVE_FREQ_1 =   2022-11-26T23:10:09.437   2216497620.8
RECEIVE_FREQ_1 =   2022-11-26T23:10:20.064   2216497619.5
RECEIVE_FREQ_1 =   2022-11-26T23:10:30.691   2216497618.4
RECEIVE_FREQ_1 =   2022-11-26T23:10:41.318   2216497616.927
RECEIVE_FREQ_1 =   2022-11-26T23:10:51.859   2216497615.127
RECEIVE_FREQ_1 =   2022-11-26T23:11:02.400   2216497614.0
RECEIVE_FREQ_1 =   2022-11-26T23:11:12.941   2216497613.1
RECEIVE_FREQ_1 =   2022-11-26T23:11:23.568   2216497611.227
RECEIVE_FREQ_1 =   2022-11-26T23:11:34.109   2216497609.527
RECEIVE_FREQ_1 =   2022-11-26T23:11:44.650   2216497608.427
RECEIVE_FREQ_1 =   2022-11-26T23:11:55.190   2216497607.227
RECEIVE_FREQ_1 =   2022-11-26T23:12:05.731   2216497606.1
RECEIVE_FREQ_1 =   2022-11-26T23:12:16.358   2216497604.7
RECEIVE_FREQ_1 =   2022-11-26T23:12:26.986   2216497603.127
RECEIVE_FREQ_1 =   2022-11-26T23:12:37.440   2216497601.327
RECEIVE_FREQ_1 =   2022-11-26T23:12:47.981   2216497600.327
RECEIVE_FREQ_1 =   2022-11-26T23:12:58.608   2216497598.927
RECEIVE_FREQ_1 =   2022-11-26T23:13:09.149   2216497597.5
RECEIVE_FREQ_1 =   2022-11-26T23:13:19.690   2216497596.327
RECEIVE_FREQ_1 =   2022-11-26T23:13:30.230   2216497594.9
RECEIVE_FREQ_1 =   2022-11-26T23:13:40.771   2216497593.6
RECEIVE_FREQ_1 =   2022-11-26T23:13:51.312   2216497592.7
RECEIVE_FREQ_1 =   2022-11-26T23:14:01.766   2216497591.0
RECEIVE_FREQ_1 =   2022-11-26T23:14:12.307   2216497589.7
RECEIVE_FREQ_1 =   2022-11-26T23:14:22.848   2216497587.8
RECEIVE_FREQ_1 =   2022-11-26T23:14:33.389   2216497586.9
RECEIVE_FREQ_1 =   2022-11-26T23:14:43.930   2216497585.2
RECEIVE_FREQ_1 =   2022-11-26T23:14:54.470   2216497583.7
RECEIVE_FREQ_1 =   2022-11-26T23:15:05.011   2216497582.6
RECEIVE_FREQ_1 =   2022-11-26T23:15:15.466   2216497581.4
RECEIVE_FREQ_1 =   2022-11-26T23:15:26.006   2216497580.0
RECEIVE_FREQ_1 =   2022-11-26T23:15:36.547   2216497580.727
RECEIVE_FREQ_1 =   2022-11-26T23:15:47.088   2216497577.0
RECEIVE_FREQ_1 =   2022-11-26T23:15:57.629   2216497575.8
RECEIVE_FREQ_1 =   2022-11-26T23:16:08.170   2216497574.3
RECEIVE_FREQ_1 =   2022-11-26T23:16:18.710   2216497574.427
RECEIVE_FREQ_1 =   2022-11-26T23:16:29.251   2216497571.9
RECEIVE_FREQ_1 =   2022-11-26T23:16:39.792   2216497570.4
RECEIVE_FREQ_1 =   2022-11-26T23:16:50.246   2216497569.3
RECEIVE_FREQ_1 =   2022-11-26T23:17:00.787   2216497567.527
RECEIVE_FREQ_1 =   2022-11-26T23:17:11.328   2216497566.2
RECEIVE_FREQ_1 =   2022-11-26T23:17:21.869   2216497564.627
RECEIVE_FREQ_1 =   2022-11-26T23:17:32.323   2216497563.227
RECEIVE_FREQ_1 =   2022-11-26T23:17:42.864   2216497561.8
RECEIVE_FREQ_1 =   2022-11-26T23:17:53.405   2216497561.0
RECEIVE_FREQ_1 =   2022-11-26T23:18:03.946   2216497559.2
RECEIVE_FREQ_1 =   2022-11-26T23:18:14.486   2216497557.727
RECEIVE_FREQ_1 =   2022-11-26T23:18:25.027   2216497556.8
RECEIVE_FREQ_1 =   2022-11-26T23:18:35.568   2216497555.0
RECEIVE_FREQ_1 =   2022-11-26T23:18:46.109   2216497554.1
RECEIVE_FREQ_1 =   2022-11-26T23:18:56.650   2216497552.1
RECEIVE_FREQ_1 =   2022-11-26T23:19:07.104   2216497551.0
RECEIVE_FREQ_1 =   2022-11-26T23:19:17.645   2216497550.927
RECEIVE_FREQ_1 =   2022-11-26T23:19:28.272   2216497548.7
RECEIVE_FREQ_1 =   2022-11-26T23:19:38.813   2216497547.3
RECEIVE_FREQ_1 =   2022-11-26T23:19:49.354   2216497545.7
RECEIVE_FREQ_1 =   2022-11-26T23:19:59.894   2216497544.3
RECEIVE_FREQ_1 =   2022-11-26T23:20:10.435   2216497544.1
RECEIVE_FREQ_1 =   2022-11-26T23:20:20.976   2216497542.9
RECEIVE_FREQ_1 =   2022-11-26T23:20:31.517   2216497541.527
RECEIVE_FREQ_1 =   2022-11-26T23:20:42.058   2216497540.0
RECEIVE_FREQ_1 =   2022-11-26T23:20:52.598   2216497538.7
RECEIVE_FREQ_1 =   2022-11-26T23:21:03.139   2216497537.2
RECEIVE_FREQ_1 =   2022-11-26T23:21:13.680   2216497536.3
RECEIVE_FREQ_1 =   2022-11-26T23:21:24.134   2216497534.8
RECEIVE_FREQ_1 =   2022-11-26T23:21:34.934   2216497533.8
RECEIVE_FREQ_1 =   2022-11-26T23:21:45.734   2216497532.4
RECEIVE_FREQ_1 =   2022-11-26T23:21:56.275   2216497530.727
RECEIVE_FREQ_1 =   2022-11-26T23:22:06.816   2216497529.327
RECEIVE_FREQ_1 =   2022-11-26T23:22:17.357   2216497528.127
RECEIVE_FREQ_1 =   2022-11-26T23:22:27.811   2216497526.5
RECEIVE_FREQ_1 =   2022-11-26T23:22:38.352   2216497525.427
RECEIVE_FREQ_1 =   2022-11-26T23:22:48.806   2216497523.4
RECEIVE_FREQ_1 =   2022-11-26T23:22:59.347   2216497522.3
RECEIVE_FREQ_1 =   2022-11-26T23:23:09.802   2216497521.2
RECEIVE_FREQ_1 =   2022-11-26T23:23:20.342   2216497520.0
RECEIVE_FREQ_1 =   2022-11-26T23:23:30.797   2216497518.4
RECEIVE_FREQ_1 =   2022-11-26T23:23:41.338   2216497517.2
RECEIVE_FREQ_1 =   2022-11-26T23:23:51.878   2216497515.527
RECEIVE_FREQ_1 =   2022-11-26T23:24:02.419   2216497514.1
RECEIVE_FREQ_1 =   2022-11-26T23:24:12.874   2216497513.0
RECEIVE_FREQ_1 =   2022-11-26T23:24:23.414   2216497511.627
RECEIVE_FREQ_1 =   2022-11-26T23:24:33.955   2216497510.527
RECEIVE_FREQ_1 =   2022-11-26T23:24:44.410   2216497508.5
RECEIVE_FREQ_1 =   2022-11-26T23:24:54.950   2216497507.327
RECEIVE_FREQ_1 =   2022-11-26T23:25:05.491   2216497505.655
RECEIVE_FREQ_1 =   2022-11-26T23:25:16.032   2216497504.355
RECEIVE_FREQ_1 =   2022-11-26T23:25:26.486   2216497503.355
RECEIVE_FREQ_1 =   2022-11-26T23:25:37.027   2216497501.655
RECEIVE_FREQ_1 =   2022-11-26T23:25:47.482   2216497500.655
RECEIVE_FREQ_1 =   2022-11-26T23:25:58.022   2216497499.355
RECEIVE_FREQ_1 =   2022-11-26T23:26:08.563   2216497497.455
RECEIVE_FREQ_1 =   2022-11-26T23:26:19.018   2216497495.855
RECEIVE_FREQ_1 =   2022-11-26T23:26:29.472   2216497495.027
RECEIVE_FREQ_1 =   2022-11-26T23:26:40.013   2216497493.555
RECEIVE_FREQ_1 =   2022-11-26T23:26:50.467   2216497492.655
RECEIVE_FREQ_1 =   2022-11-26T23:27:00.922   2216497490.727
RECEIVE_FREQ_1 =   2022-11-26T23:27:11.462   2216497489.155
RECEIVE_FREQ_1 =   2022-11-26T23:27:22.003   2216497488.027
RECEIVE_FREQ_1 =   2022-11-26T23:27:32.544   2216497486.527
RECEIVE_FREQ_1 =   2022-11-26T23:27:42.998   2216497485.755
RECEIVE_FREQ_1 =   2022-11-26T23:27:53.453   2216497483.755
RECEIVE_FREQ_1 =   2022-11-26T23:28:03.994   2216497482.355
RECEIVE_FREQ_1 =   2022-11-26T23:28:14.534   2216497481.155
RECEIVE_FREQ_1 =   2022-11-26T23:28:25.075   2216497479.455
RECEIVE_FREQ_1 =   2022-11-26T23:28:35.616   2216497477.955
RECEIVE_FREQ_1 =   2022-11-26T23:28:46.070   2216497476.855
RECEIVE_FREQ_1 =   2022-11-26T23:28:56.611   2216497475.155
RECEIVE_FREQ_1 =   2022-11-26T23:29:07.152   2216497473.927
RECEIVE_FREQ_1 =   2022-11-26T23:29:17.693   2216497472.555
RECEIVE_FREQ_1 =   2022-11-26T23:29:28.234   2216497470.955
RECEIVE_FREQ_1 =   2022-11-26T23:29:38.774   2216497469.455
RECEIVE_FREQ_1 =   2022-11-26T23:29:49.315   2216497468.455
RECEIVE_FREQ_1 =   2022-11-26T23:29:59.770   2216497466.755
RECEIVE_FREQ_1 =   2022-11-26T23:30:10.310   2216497465.355
RECEIVE_FREQ_1 =   2022-11-26T23:30:20.765   2216497463.627
RECEIVE_FREQ_1 =   2022-11-26T23:30:31.306   2216497462.455
RECEIVE_FREQ_1 =   2022-11-26T23:30:41.846   2216497461.155
RECEIVE_FREQ_1 =   2022-11-26T23:30:52.301   2216497459.855
RECEIVE_FREQ_1 =   2022-11-26T23:31:02.842   2216497458.2
RECEIVE_FREQ_1 =   2022-11-26T23:31:13.382   2216497457.0
RECEIVE_FREQ_1 =   2022-11-26T23:31:23.837   2216497455.4
RECEIVE_FREQ_1 =   2022-11-26T23:31:34.378   2216497453.827
RECEIVE_FREQ_1 =   2022-11-26T23:31:44.918   2216497452.3
RECEIVE_FREQ_1 =   2022-11-26T23:31:55.373   2216497451.027
RECEIVE_FREQ_1 =   2022-11-26T23:32:05.914   2216497449.927
RECEIVE_FREQ_1 =   2022-11-26T23:32:16.454   2216497448.3
RECEIVE_FREQ_1 =   2022-11-26T23:32:26.995   2216497446.955
RECEIVE_FREQ_1 =   2022-11-26T23:32:37.450   2216497445.355
RECEIVE_FREQ_1 =   2022-11-26T23:32:47.990   2216497443.9
RECEIVE_FREQ_1 =   2022-11-26T23:32:58.531   2216497442.727
RECEIVE_FREQ_1 =   2022-11-26T23:33:08.986   2216497441.255
RECEIVE_FREQ_1 =   2022-11-26T23:33:19.526   2216497440.027
RECEIVE_FREQ_1 =   2022-11-26T23:33:29.981   2216497438.627
RECEIVE_FREQ_1 =   2022-11-26T23:33:40.522   2216497437.627
RECEIVE_FREQ_1 =   2022-11-26T23:33:50.976   2216497435.955
RECEIVE_FREQ_1 =   2022-11-26T23:34:01.517   2216497435.027
RECEIVE_FREQ_1 =   2022-11-26T23:34:12.058   2216497433.5
RECEIVE_FREQ_1 =   2022-11-26T23:34:22.598   2216497432.027
RECEIVE_FREQ_1 =   2022-11-26T23:34:33.139   2216497430.755
RECEIVE_FREQ_1 =   2022-11-26T23:34:43.680   2216497429.3
RECEIVE_FREQ_1 =   2022-11-26T23:34:54.221   2216497428.4
RECEIVE_FREQ_1 =   2022-11-26T23:35:46.838   2216497421.355
RECEIVE_FREQ_1 =   2022-11-26T23:36:18.461   2216497417.727
RECEIVE_FREQ_1 =   2022-11-26T23:36:29.088   2216497416.555
RECEIVE_FREQ_1 =   2022-11-26T23:37:00.883   2216497412.455
RECEIVE_FREQ_1 =   2022-11-26T23:37:11.424   2216497410.855
RECEIVE_FREQ_1 =   2022-11-26T23:37:21.965   2216497409.755
RECEIVE_FREQ_1 =   2022-11-26T23:37:32.506   2216497408.255
RECEIVE_FREQ_1 =   2022-11-26T23:37:42.960   2216497407.155
RECEIVE_FREQ_1 =   2022-11-26T23:37:53.501   2216497405.355
RECEIVE_FREQ_1 =   2022-11-26T23:38:04.042   2216497404.455
RECEIVE_FREQ_1 =   2022-11-26T23:38:14.496   2216497402.955
RECEIVE_FREQ_1 =   2022-11-26T23:38:25.037   2216497401.755
RECEIVE_FREQ_1 =   2022-11-26T23:38:35.578   2216497400.455
RECEIVE_FREQ_1 =   2022-11-26T23:38:46.118   2216497398.855
RECEIVE_FREQ_1 =   2022-11-26T23:38:56.659   2216497397.655
RECEIVE_FREQ_1 =   2022-11-26T23:39:17.741   2216497395.027
RECEIVE_FREQ_1 =   2022-11-26T23:39:28.282   2216497393.155
RECEIVE_FREQ_1 =   2022-11-26T23:39:38.822   2216497392.155
RECEIVE_FREQ_1 =   2022-11-26T23:39:49.363   2216497390.755
RECEIVE_FREQ_1 =   2022-11-26T23:39:59.818   2216497389.455
RECEIVE_FREQ_1 =   2022-11-26T23:40:10.272   2216497388.255
RECEIVE_FREQ_1 =   2022-11-26T23:40:20.813   2216497386.955
RECEIVE_FREQ_1 =   2022-11-26T23:40:31.354   2216497385.355
RECEIVE_FREQ_1 =   2022-11-26T23:40:41.894   2216497383.955
RECEIVE_FREQ_1 =   2022-11-26T23:40:52.349   2216497382.555
RECEIVE_FREQ_1 =   2022-11-26T23:41:02.890   2216497381.155
RECEIVE_FREQ_1 =   2022-11-26T23:41:13.430   2216497379.855
RECEIVE_FREQ_1 =   2022-11-26T23:41:34.685   2216497377.155
RECEIVE_FREQ_1 =   2022-11-26T23:41:45.226   2216497375.655
RECEIVE_FREQ_1 =   2022-11-26T23:41:55.680   2216497374.355
RECEIVE_FREQ_1 =   2022-11-26T23:42:06.134   2216497373.255
RECEIVE_FREQ_1 =   2022-11-26T23:42:16.675   2216497371.755
RECEIVE_FREQ_1 =   2022-11-26T23:42:27.130   2216497370.255
RECEIVE_FREQ_1 =   2022-11-26T23:42:37.584   2216497368.855
RECEIVE_FREQ_1 =   2022-11-26T23:42:48.125   2216497367.255
RECEIVE_FREQ_1 =   2022-11-26T23:42:58.666   2216497366.655
RECEIVE_FREQ_1 =   2022-11-26T23:43:09.120   2216497364.755
RECEIVE_FREQ_1 =   2022-11-26T23:43:19.661   2216497363.455
RECEIVE_FREQ_1 =   2022-11-26T23:43:30.115   2216497361.955
RECEIVE_FREQ_1 =   2022-11-26T23:43:40.656   2216497360.955
RECEIVE_FREQ_1 =   2022-11-26T23:43:51.110   2216497359.755
RECEIVE_FREQ_1 =   2022-11-26T23:44:01.565   2216497357.655
RECEIVE_FREQ_1 =   2022-11-26T23:44:12.106   2216497356.655
RECEIVE_FREQ_1 =   2022-11-26T23:44:22.646   2216497355.155
RECEIVE_FREQ_1 =   2022-11-26T23:44:33.187   2216497353.855
RECEIVE_FREQ_1 =   2022-11-26T23:44:43.642   2216497352.455
RECEIVE_FREQ_1 =   2022-11-26T23:44:54.182   2216497351.155
RECEIVE_FREQ_1 =   2022-11-26T23:45:04.637   2216497349.755
RECEIVE_FREQ_1 =   2022-11-26T23:45:15.178   2216497348.655
RECEIVE_FREQ_1 =   2022-11-26T23:45:25.632   2216497346.755
RECEIVE_FREQ_1 =   2022-11-26T23:45:36.173   2216497345.555
RECEIVE_FREQ_1 =   2022-11-26T23:45:46.627   2216497344.355
RECEIVE_FREQ_1 =   2022-11-26T23:45:57.168   2216497342.555
RECEIVE_FREQ_1 =   2022-11-26T23:46:07.622   2216497340.955
RECEIVE_FREQ_1 =   2022-11-26T23:46:18.163   2216497339.755
RECEIVE_FREQ_1 =   2022-11-26T23:46:28.704   2216497338.355
RECEIVE_FREQ_1 =   2022-11-26T23:46:39.158   2216497337.155
RECEIVE_FREQ_1 =   2022-11-26T23:46:49.699   2216497335.955
RECEIVE_FREQ_1 =   2022-11-26T23:47:00.154   2216497334.455
RECEIVE_FREQ_1 =   2022-11-26T23:47:10.694   2216497332.855
RECEIVE_FREQ_1 =   2022-11-26T23:47:21.149   2216497331.755
RECEIVE_FREQ_1 =   2022-11-26T23:47:31.690   2216497330.155
RECEIVE_FREQ_1 =   2022-11-26T23:47:42.230   2216497328.355
RECEIVE_FREQ_1 =   2022-11-26T23:47:52.685   2216497327.355
RECEIVE_FREQ_1 =   2022-11-26T23:48:03.226   2216497325.455
RECEIVE_FREQ_1 =   2022-11-26T23:48:13.766   2216497324.655
RECEIVE_FREQ_1 =   2022-11-26T23:48:24.221   2216497322.755
RECEIVE_FREQ_1 =   2022-11-26T23:48:34.762   2216497321.555
RECEIVE_FREQ_1 =   2022-11-26T23:48:45.302   2216497320.155
RECEIVE_FREQ_1 =   2022-11-26T23:48:55.843   2216497318.555
RECEIVE_FREQ_1 =   2022-11-26T23:49:06.384   2216497317.755
RECEIVE_FREQ_1 =   2022-11-26T23:49:16.925   2216497315.855
RECEIVE_FREQ_1 =   2022-11-26T23:49:27.552   2216497314.755
RECEIVE_FREQ_1 =   2022-11-26T23:49:38.179   2216497313.355
RECEIVE_FREQ_1 =   2022-11-26T23:49:48.720   2216497311.255
RECEIVE_FREQ_1 =   2022-11-26T23:49:59.261   2216497310.055
RECEIVE_FREQ_1 =   2022-11-26T23:50:09.802   2216497309.055
RECEIVE_FREQ_1 =   2022-11-26T23:50:20.342   2216497307.155
RECEIVE_FREQ_1 =   2022-11-26T23:50:30.883   2216497306.055
RECEIVE_FREQ_1 =   2022-11-26T23:50:41.338   2216497304.455
RECEIVE_FREQ_1 =   2022-11-26T23:50:51.878   2216497303.355
RECEIVE_FREQ_1 =   2022-11-26T23:51:02.333   2216497302.055
RECEIVE_FREQ_1 =   2022-11-26T23:51:12.874   2216497300.455
RECEIVE_FREQ_1 =   2022-11-26T23:51:23.414   2216497298.855
RECEIVE_FREQ_1 =   2022-11-26T23:51:33.869   2216497297.255
RECEIVE_FREQ_1 =   2022-11-26T23:51:44.410   2216497295.955
RECEIVE_FREQ_1 =   2022-11-26T23:51:54.950   2216497294.355
RECEIVE_FREQ_1 =   2022-11-26T23:52:05.405   2216497292.855
RECEIVE_FREQ_1 =   2022-11-26T23:52:15.946   2216497291.255
RECEIVE_FREQ_1 =   2022-11-26T23:52:26.400   2216497290.355
RECEIVE_FREQ_1 =   2022-11-26T23:52:36.941   2216497288.655
RECEIVE_FREQ_1 =   2022-11-26T23:52:47.482   2216497287.255
RECEIVE_FREQ_1 =   2022-11-26T23:52:57.936   2216497285.855
RECEIVE_FREQ_1 =   2022-11-26T23:53:08.477   2216497284.955
RECEIVE_FREQ_1 =   2022-11-26T23:53:19.018   2216497283.255
RECEIVE_FREQ_1 =   2022-11-26T23:53:29.472   2216497282.355
RECEIVE_FREQ_1 =   2022-11-26T23:53:40.013   2216497280.855
RECEIVE_FREQ_1 =   2022-11-26T23:53:50.554   2216497279.655
RECEIVE_FREQ_1 =   2022-11-26T23:54:01.008   2216497278.355
RECEIVE_FREQ_1 =   2022-11-26T23:54:11.549   2216497276.755
RECEIVE_FREQ_1 =   2022-11-26T23:54:22.003   2216497275.655
RECEIVE_FREQ_1 =   2022-11-26T23:54:32.544   2216497274.155
RECEIVE_FREQ_1 =   2022-11-26T23:54:42.998   2216497272.755
RECEIVE_FREQ_1 =   2022-11-26T23:54:53.453   2216497272.155
RECEIVE_FREQ_1 =   2022-11-26T23:55:03.994   2216497270.255
RECEIVE_FREQ_1 =   2022-11-26T23:55:14.534   2216497269.155
RECEIVE_FREQ_1 =   2022-11-26T23:55:24.989   2216497268.055
RECEIVE_FREQ_1 =   2022-11-26T23:55:35.443   2216497266.555
RECEIVE_FREQ_1 =   2022-11-26T23:55:45.984   2216497265.455
RECEIVE_FREQ_1 =   2022-11-26T23:55:56.525   2216497264.055
RECEIVE_FREQ_1 =   2022-11-26T23:56:06.979   2216497262.455
RECEIVE_FREQ_1 =   2022-11-26T23:56:17.520   2216497261.255
RECEIVE_FREQ_1 =   2022-11-26T23:56:27.974   2216497259.955
RECEIVE_FREQ_1 =   2022-11-26T23:56:38.515   2216497258.555
RECEIVE_FREQ_1 =   2022-11-26T23:56:48.970   2216497257.055
RECEIVE_FREQ_1 =   2022-11-26T23:56:59.424   2216497256.155
RECEIVE_FREQ_1 =   2022-11-26T23:57:20.506   2216497253.355
RECEIVE_FREQ_1 =   2022-11-26T23:57:30.960   2216497252.055
RECEIVE_FREQ_1 =   2022-11-26T23:58:23.578   2216497245.655
RECEIVE_FREQ_1 =   2022-11-26T23:58:55.027   2216497241.055
RECEIVE_FREQ_1 =   2022-11-26T23:59:05.482   2216497239.855
RECEIVE_FREQ_1 =   2022-11-26T23:59:26.477   2216497237.255
RECEIVE_FREQ_1 =   2022-11-27T00:00:08.554   2216497231.755
RECEIVE_FREQ_1 =   2022-11-27T00:00:40.003   2216497227.855
RECEIVE_FREQ_1 =   2022-11-27T00:01:21.994   2216497222.455
RECEIVE_FREQ_1 =   2022-11-27T00:01:32.448   2216497220.355
RECEIVE_FREQ_1 =   2022-11-27T00:01:53.530   2216497217.555
RECEIVE_FREQ_1 =   2022-11-27T00:02:14.525   2216497215.055
RECEIVE_FREQ_1 =   2022-11-27T00:02:24.979   2216497214.155
RECEIVE_FREQ_1 =   2022-11-27T00:02:46.061   2216497211.055
RECEIVE_FREQ_1 =   2022-11-27T00:02:56.515   2216497210.255
RECEIVE_FREQ_1 =   2022-11-27T00:03:17.856   2216497207.055
RECEIVE_FREQ_1 =   2022-11-27T00:03:39.024   2216497204.455
RECEIVE_FREQ_1 =   2022-11-27T00:03:49.565   2216497203.055
RECEIVE_FREQ_1 =   2022-11-27T00:04:00.019   2216497201.755
RECEIVE_FREQ_1 =   2022-11-27T00:04:10.560   2216497200.255
RECEIVE_FREQ_1 =   2022-11-27T00:04:21.101   2216497198.755
RECEIVE_FREQ_1 =   2022-11-27T00:04:31.642   2216497197.455
RECEIVE_FREQ_1 =   2022-11-27T00:04:42.182   2216497196.155
RECEIVE_FREQ_1 =   2022-11-27T00:04:52.723   2216497194.755
RECEIVE_FREQ_1 =   2022-11-27T00:05:03.178   2216497193.055
RECEIVE_FREQ_1 =   2022-11-27T00:05:13.718   2216497191.855
RECEIVE_FREQ_1 =   2022-11-27T00:05:56.054   2216497186.155
RECEIVE_FREQ_1 =   2022-11-27T00:07:09.667   2216497176.355
RECEIVE_FREQ_1 =   2022-11-27T00:07:30.662   2216497173.955
RECEIVE_FREQ_1 =   2022-11-27T00:07:41.203   2216497172.255
RECEIVE_FREQ_1 =   2022-11-27T00:07:51.658   2216497170.955
RECEIVE_FREQ_1 =   2022-11-27T00:08:12.739   2216497168.255
RECEIVE_FREQ_1 =   2022-11-27T00:08:23.194   2216497166.455
RECEIVE_FREQ_1 =   2022-11-27T00:08:33.734   2216497164.855
RECEIVE_FREQ_1 =   2022-11-27T00:08:54.816   2216497162.255
RECEIVE_FREQ_1 =   2022-11-27T00:09:05.357   2216497161.055
RECEIVE_FREQ_1 =   2022-11-27T00:09:15.898   2216497159.655
RECEIVE_FREQ_1 =   2022-11-27T00:09:36.979   2216497156.755
RECEIVE_FREQ_1 =   2022-11-27T00:09:47.520   2216497155.255
RECEIVE_FREQ_1 =   2022-11-27T00:10:08.515   2216497152.255
RECEIVE_FREQ_1 =   2022-11-27T00:10:19.056   2216497151.155
RECEIVE_FREQ_1 =   2022-11-27T00:10:29.597   2216497149.455
RECEIVE_FREQ_1 =   2022-11-27T00:10:40.051   2216497148.255
RECEIVE_FREQ_1 =   2022-11-27T00:10:50.592   2216497146.555
RECEIVE_FREQ_1 =   2022-11-27T00:11:01.046   2216497144.955
RECEIVE_FREQ_1 =   2022-11-27T00:11:11.587   2216497144.055
RECEIVE_FREQ_1 =   2022-11-27T00:11:22.042   2216497142.355
RECEIVE_FREQ_1 =   2022-11-27T00:12:04.118   2216497137.055
RECEIVE_FREQ_1 =   2022-11-27T00:12:14.659   2216497135.355
RECEIVE_FREQ_1 =   2022-11-27T00:12:35.741   2216497132.655
RECEIVE_FREQ_1 =   2022-11-27T00:12:46.282   2216497130.955
RECEIVE_FREQ_1 =   2022-11-27T00:12:56.822   2216497130.255
RECEIVE_FREQ_1 =   2022-11-27T00:13:07.363   2216497128.855
RECEIVE_FREQ_1 =   2022-11-27T00:13:17.904   2216497127.655
RECEIVE_FREQ_1 =   2022-11-27T00:13:28.445   2216497125.955
RECEIVE_FREQ_1 =   2022-11-27T00:13:38.899   2216497124.455
RECEIVE_FREQ_1 =   2022-11-27T00:13:49.440   2216497123.455
RECEIVE_FREQ_1 =   2022-11-27T00:13:59.894   2216497122.155
RECEIVE_FREQ_1 =   2022-11-27T00:14:10.435   2216497120.855
RECEIVE_FREQ_1 =   2022-11-27T00:14:20.976   2216497119.555
RECEIVE_FREQ_1 =   2022-11-27T00:14:31.517   2216497118.255
RECEIVE_FREQ_1 =   2022-11-27T00:14:41.971   2216497117.255
RECEIVE_FREQ_1 =   2022-11-27T00:14:52.512   2216497115.555
RECEIVE_FREQ_1 =   2022-11-27T00:15:03.053   2216497114.355
RECEIVE_FREQ_1 =   2022-11-27T00:15:13.507   2216497112.855
RECEIVE_FREQ_1 =   2022-11-27T00:15:24.048   2216497111.755
RECEIVE_FREQ_1 =   2022-11-27T00:15:34.589   2216497110.255
RECEIVE_FREQ_1 =   2022-11-27T00:15:45.130   2216497108.855
RECEIVE_FREQ_1 =   2022-11-27T00:15:55.584   2216497107.955
RECEIVE_FREQ_1 =   2022-11-27T00:16:06.038   2216497106.655
RECEIVE_FREQ_1 =   2022-11-27T00:16:16.666   2216497105.055
RECEIVE_FREQ_1 =   2022-11-27T00:16:27.206   2216497103.555
RECEIVE_FREQ_1 =   2022-11-27T00:16:37.747   2216497102.655
RECEIVE_FREQ_1 =   2022-11-27T00:16:48.288   2216497101.355
RECEIVE_FREQ_1 =   2022-11-27T00:16:58.829   2216497099.855
RECEIVE_FREQ_1 =   2022-11-27T00:17:09.370   2216497098.555
RECEIVE_FREQ_1 =   2022-11-27T00:17:19.824   2216497097.255
RECEIVE_FREQ_1 =   2022-11-27T00:17:30.365   2216497095.955
RECEIVE_FREQ_1 =   2022-11-27T00:17:40.906   2216497094.655
RECEIVE_FREQ_1 =   2022-11-27T00:17:51.446   2216497093.255
RECEIVE_FREQ_1 =   2022-11-27T00:18:01.987   2216497092.055
RECEIVE_FREQ_1 =   2022-11-27T00:18:12.528   2216497090.655
RECEIVE_FREQ_1 =   2022-11-27T00:18:23.069   2216497089.055
RECEIVE_FREQ_1 =   2022-11-27T00:18:33.523   2216497087.955
RECEIVE_FREQ_1 =   2022-11-27T00:18:44.064   2216497086.455
RECEIVE_FREQ_1 =   2022-11-27T00:18:54.605   2216497085.355
RECEIVE_FREQ_1 =   2022-11-27T00:19:05.059   2216497084.055
RECEIVE_FREQ_1 =   2022-11-27T00:19:15.600   2216497082.755
RECEIVE_FREQ_1 =   2022-11-27T00:19:26.141   2216497081.355
RECEIVE_FREQ_1 =   2022-11-27T00:19:36.595   2216497079.955
RECEIVE_FREQ_1 =   2022-11-27T00:19:47.136   2216497078.655
RECEIVE_FREQ_1 =   2022-11-27T00:19:57.590   2216497077.255
RECEIVE_FREQ_1 =   2022-11-27T00:20:08.131   2216497075.955
RECEIVE_FREQ_1 =   2022-11-27T00:20:18.586   2216497074.455
RECEIVE_FREQ_1 =   2022-11-27T00:20:29.126   2216497073.355
RECEIVE_FREQ_1 =   2022-11-27T00:20:39.667   2216497072.055
RECEIVE_FREQ_1 =   2022-11-27T00:20:50.122   2216497070.455
RECEIVE_FREQ_1 =   2022-11-27T00:21:00.662   2216497069.255
RECEIVE_FREQ_1 =   2022-11-27T00:21:11.203   2216497067.555
RECEIVE_FREQ_1 =   2022-11-27T00:21:21.658   2216497066.555
RECEIVE_FREQ_1 =   2022-11-27T00:21:32.285   2216497065.155
RECEIVE_FREQ_1 =   2022-11-27T00:21:42.826   2216497063.555
RECEIVE_FREQ_1 =   2022-11-27T00:21:53.280   2216497062.655
RECEIVE_FREQ_1 =   2022-11-27T00:22:03.821   2216497061.055
RECEIVE_FREQ_1 =   2022-11-27T00:22:14.362   2216497060.155
RECEIVE_FREQ_1 =   2022-11-27T00:22:24.902   2216497058.255
RECEIVE_FREQ_1 =   2022-11-27T00:22:35.357   2216497057.055
RECEIVE_FREQ_1 =   2022-11-27T00:22:45.898   2216497055.655
RECEIVE_FREQ_1 =   2022-11-27T00:22:56.438   2216497054.155
RECEIVE_FREQ_1 =   2022-11-27T00:23:06.893   2216497052.755
RECEIVE_FREQ_1 =   2022-11-27T00:23:17.434   2216497051.555
RECEIVE_FREQ_1 =   2022-11-27T00:23:27.974   2216497050.355
RECEIVE_FREQ_1 =   2022-11-27T00:23:38.429   2216497048.755
RECEIVE_FREQ_1 =   2022-11-27T00:23:48.970   2216497047.255
RECEIVE_FREQ_1 =   2022-11-27T00:23:59.510   2216497046.255
RECEIVE_FREQ_1 =   2022-11-27T00:24:09.965   2216497044.455
RECEIVE_FREQ_1 =   2022-11-27T00:24:20.506   2216497043.255
RECEIVE_FREQ_1 =   2022-11-27T00:24:30.960   2216497042.155
RECEIVE_FREQ_1 =   2022-11-27T00:24:41.501   2216497040.555
RECEIVE_FREQ_1 =   2022-11-27T00:24:52.042   2216497039.055
RECEIVE_FREQ_1 =   2022-11-27T00:25:02.496   2216497038.155
RECEIVE_FREQ_1 =   2022-11-27T00:25:13.037   2216497036.555
RECEIVE_FREQ_1 =   2022-11-27T00:25:23.491   2216497035.155
RECEIVE_FREQ_1 =   2022-11-27T00:25:34.032   2216497033.955
RECEIVE_FREQ_1 =   2022-11-27T00:25:44.573   2216497032.055
RECEIVE_FREQ_1 =   2022-11-27T00:25:55.027   2216497031.055
RECEIVE_FREQ_1 =   2022-11-27T00:26:05.568   2216497029.255
RECEIVE_FREQ_1 =   2022-11-27T00:26:16.022   2216497028.155
RECEIVE_FREQ_1 =   2022-11-27T00:26:37.104   2216497025.755
RECEIVE_FREQ_1 =   2022-11-27T00:26:47.558   2216497023.755
RECEIVE_FREQ_1 =   2022-11-27T00:26:58.099   2216497022.255
RECEIVE_FREQ_1 =   2022-11-27T00:27:19.181   2216497019.755
RECEIVE_FREQ_1 =   2022-11-27T00:27:29.635   2216497018.755
RECEIVE_FREQ_1 =   2022-11-27T00:27:40.176   2216497016.855
RECEIVE_FREQ_1 =   2022-11-27T00:27:50.717   2216497015.755
RECEIVE_FREQ_1 =   2022-11-27T00:28:01.258   2216497014.355
RECEIVE_FREQ_1 =   2022-11-27T00:28:11.798   2216497012.955
RECEIVE_FREQ_1 =   2022-11-27T00:28:22.253   2216497010.827
RECEIVE_FREQ_1 =   2022-11-27T00:28:32.794   2216497010.055
RECEIVE_FREQ_1 =   2022-11-27T00:28:43.334   2216497008.955
RECEIVE_FREQ_1 =   2022-11-27T00:28:53.789   2216497007.255
RECEIVE_FREQ_1 =   2022-11-27T00:29:04.330   2216497005.855
RECEIVE_FREQ_1 =   2022-11-27T00:29:14.870   2216497004.355
RECEIVE_FREQ_1 =   2022-11-27T00:29:25.325   2216497002.955
RECEIVE_FREQ_1 =   2022-11-27T00:29:35.952   2216497001.255
RECEIVE_FREQ_1 =   2022-11-27T00:29:57.034   2216496999.027
RECEIVE_FREQ_1 =   2022-11-27T00:30:07.488   2216496997.555
RECEIVE_FREQ_1 =   2022-11-27T00:30:39.024   2216496993.255
RECEIVE_FREQ_1 =   2022-11-27T00:30:49.478   2216496992.055
RECEIVE_FREQ_1 =   2022-11-27T00:31:00.019   2216496990.055
RECEIVE_FREQ_1 =   2022-11-27T00:31:31.555   2216496985.855
RECEIVE_FREQ_1 =   2022-11-27T00:31:42.010   2216496984.655
RECEIVE_FREQ_1 =   2022-11-27T00:31:52.550   2216496983.555
RECEIVE_FREQ_1 =   2022-11-27T00:32:03.005   2216496981.955
RECEIVE_FREQ_1 =   2022-11-27T00:32:13.546   2216496980.527
RECEIVE_FREQ_1 =   2022-11-27T00:32:24.086   2216496979.355
RECEIVE_FREQ_1 =   2022-11-27T00:32:34.541   2216496978.055
RECEIVE_FREQ_1 =   2022-11-27T00:32:55.622   2216496975.955
RECEIVE_FREQ_1 =   2022-11-27T00:33:06.077   2216496974.155
RECEIVE_FREQ_1 =   2022-11-27T00:33:16.618   2216496972.855
RECEIVE_FREQ_1 =   2022-11-27T00:33:37.613   2216496970.455
RECEIVE_FREQ_1 =   2022-11-27T00:33:48.154   2216496968.955
RECEIVE_FREQ_1 =   2022-11-27T00:34:09.149   2216496966.655
RECEIVE_FREQ_1 =   2022-11-27T00:34:30.144   2216496963.955
RECEIVE_FREQ_1 =   2022-11-27T00:34:40.685   2216496962.455
RECEIVE_FREQ_1 =   2022-11-27T00:35:33.389   2216496956.155
RECEIVE_FREQ_1 =   2022-11-27T00:36:04.925   2216496951.955
RECEIVE_FREQ_1 =   2022-11-27T00:36:46.915   2216496947.055
DATA_STOP
