data/tdm/2022-11-27Z_2022-156A.tdm

CCSDS_TDM_VERS = 2.0
COMMENT TDM ARTEMIS 1 Doppler data by Scott Tilley for 2022-11-27 UTC
COMMENT Signal not demodulated, to low of SNR, centre carrier integrated in 10s by 0.1Hz bin and extracted for peak value.
CREATION_DATE = 2022-11-27Z
ORIGINATOR = SCOTT TILLEY

META_START
COMMENT 
COMMENT 
SYSTEM TIME = UTC
PARTICIPANT_1 = COSPAR 8049
PARTICIPANT_2 = 2022-156A
MODE = SEQUENTIAL
PATH = 2,1
INTEGRATION_INTERVAL = 10
INTEGRATION_REF = MIDDLE
FREQ_OFFSET = 0
TRANSMIT_DELAY_1 = 0
RECEIVE_DELAY_1 = 0
DATA_QUALITY = RAW
META_STOP

DATA_START
RECEIVE_FREQ_1 =   2022-11-27T21:43:09.408   2216499382.155
RECEIVE_FREQ_1 =   2022-11-27T21:43:29.453   2216499380.655
RECEIVE_FREQ_1 =   2022-11-27T21:43:39.475   2216499379.555
RECEIVE_FREQ_1 =   2022-11-27T21:43:49.411   2216499378.755
RECEIVE_FREQ_1 =   2022-11-27T21:44:49.459   2216499373.455
RECEIVE_FREQ_1 =   2022-11-27T21:44:59.395   2216499372.055
RECEIVE_FREQ_1 =   2022-11-27T21:45:09.418   2216499370.955
RECEIVE_FREQ_1 =   2022-11-27T21:46:19.402   2216499364.355
RECEIVE_FREQ_1 =   2022-11-27T21:46:39.446   2216499362.355
RECEIVE_FREQ_1 =   2022-11-27T21:46:49.469   2216499361.455
RECEIVE_FREQ_1 =   2022-11-27T21:47:09.427   2216499359.655
RECEIVE_FREQ_1 =   2022-11-27T21:47:39.408   2216499356.955
RECEIVE_FREQ_1 =   2022-11-27T21:47:49.430   2216499355.755
RECEIVE_FREQ_1 =   2022-11-27T21:48:29.434   2216499351.955
RECEIVE_FREQ_1 =   2022-11-27T21:48:49.478   2216499349.855
RECEIVE_FREQ_1 =   2022-11-27T21:48:59.414   2216499348.755
RECEIVE_FREQ_1 =   2022-11-27T21:49:19.459   2216499346.455
RECEIVE_FREQ_1 =   2022-11-27T21:49:39.418   2216499344.755
RECEIVE_FREQ_1 =   2022-11-27T21:49:49.440   2216499343.855
RECEIVE_FREQ_1 =   2022-11-27T21:50:19.421   2216499340.955
RECEIVE_FREQ_1 =   2022-11-27T21:50:29.443   2216499339.755
RECEIVE_FREQ_1 =   2022-11-27T21:50:39.466   2216499339.055
RECEIVE_FREQ_1 =   2022-11-27T21:50:49.402   2216499337.955
RECEIVE_FREQ_1 =   2022-11-27T21:50:59.424   2216499337.055
RECEIVE_FREQ_1 =   2022-11-27T21:51:09.446   2216499335.955
RECEIVE_FREQ_1 =   2022-11-27T21:51:19.469   2216499334.955
RECEIVE_FREQ_1 =   2022-11-27T21:51:29.405   2216499333.955
RECEIVE_FREQ_1 =   2022-11-27T21:51:39.427   2216499332.855
RECEIVE_FREQ_1 =   2022-11-27T21:51:49.450   2216499332.055
RECEIVE_FREQ_1 =   2022-11-27T21:51:59.472   2216499330.755
RECEIVE_FREQ_1 =   2022-11-27T21:52:09.408   2216499330.155
RECEIVE_FREQ_1 =   2022-11-27T21:52:19.430   2216499328.855
RECEIVE_FREQ_1 =   2022-11-27T21:52:29.453   2216499327.855
RECEIVE_FREQ_1 =   2022-11-27T21:52:39.389   2216499326.955
RECEIVE_FREQ_1 =   2022-11-27T21:52:49.411   2216499325.955
RECEIVE_FREQ_1 =   2022-11-27T21:52:59.434   2216499325.055
RECEIVE_FREQ_1 =   2022-11-27T21:53:09.456   2216499324.255
RECEIVE_FREQ_1 =   2022-11-27T21:53:19.392   2216499322.555
RECEIVE_FREQ_1 =   2022-11-27T21:53:29.414   2216499321.955
RECEIVE_FREQ_1 =   2022-11-27T21:53:39.437   2216499320.855
RECEIVE_FREQ_1 =   2022-11-27T21:53:49.459   2216499319.655
RECEIVE_FREQ_1 =   2022-11-27T21:53:59.482   2216499318.855
RECEIVE_FREQ_1 =   2022-11-27T21:54:09.418   2216499317.655
RECEIVE_FREQ_1 =   2022-11-27T21:54:19.440   2216499316.855
RECEIVE_FREQ_1 =   2022-11-27T21:54:29.462   2216499315.655
RECEIVE_FREQ_1 =   2022-11-27T21:54:39.485   2216499314.455
RECEIVE_FREQ_1 =   2022-11-27T21:54:49.507   2216499313.655
RECEIVE_FREQ_1 =   2022-11-27T21:54:59.443   2216499312.655
RECEIVE_FREQ_1 =   2022-11-27T21:55:09.466   2216499311.255
RECEIVE_FREQ_1 =   2022-11-27T21:55:19.488   2216499310.655
RECEIVE_FREQ_1 =   2022-11-27T21:55:29.424   2216499309.555
RECEIVE_FREQ_1 =   2022-11-27T21:55:39.446   2216499308.355
RECEIVE_FREQ_1 =   2022-11-27T21:55:49.469   2216499307.555
RECEIVE_FREQ_1 =   2022-11-27T21:55:59.491   2216499306.455
RECEIVE_FREQ_1 =   2022-11-27T21:56:09.427   2216499305.355
RECEIVE_FREQ_1 =   2022-11-27T21:56:19.450   2216499304.455
RECEIVE_FREQ_1 =   2022-11-27T21:56:29.472   2216499303.355
RECEIVE_FREQ_1 =   2022-11-27T21:56:39.408   2216499302.055
RECEIVE_FREQ_1 =   2022-11-27T21:56:49.430   2216499300.955
RECEIVE_FREQ_1 =   2022-11-27T21:56:59.453   2216499300.255
RECEIVE_FREQ_1 =   2022-11-27T21:57:09.475   2216499299.055
RECEIVE_FREQ_1 =   2022-11-27T21:57:19.411   2216499298.355
RECEIVE_FREQ_1 =   2022-11-27T21:57:29.434   2216499297.255
RECEIVE_FREQ_1 =   2022-11-27T21:57:39.456   2216499296.155
RECEIVE_FREQ_1 =   2022-11-27T21:57:49.478   2216499295.055
RECEIVE_FREQ_1 =   2022-11-27T21:57:59.414   2216499293.855
RECEIVE_FREQ_1 =   2022-11-27T21:58:09.437   2216499292.855
RECEIVE_FREQ_1 =   2022-11-27T21:58:19.459   2216499291.655
RECEIVE_FREQ_1 =   2022-11-27T21:58:29.482   2216499290.755
RECEIVE_FREQ_1 =   2022-11-27T21:58:39.504   2216499289.755
RECEIVE_FREQ_1 =   2022-11-27T21:58:49.440   2216499288.755
RECEIVE_FREQ_1 =   2022-11-27T21:58:59.462   2216499287.755
RECEIVE_FREQ_1 =   2022-11-27T21:59:09.485   2216499286.455
RECEIVE_FREQ_1 =   2022-11-27T21:59:19.421   2216499285.155
RECEIVE_FREQ_1 =   2022-11-27T21:59:29.443   2216499284.255
RECEIVE_FREQ_1 =   2022-11-27T21:59:39.466   2216499283.255
RECEIVE_FREQ_1 =   2022-11-27T21:59:49.402   2216499282.255
RECEIVE_FREQ_1 =   2022-11-27T21:59:59.424   2216499281.055
RECEIVE_FREQ_1 =   2022-11-27T22:00:09.446   2216499279.655
RECEIVE_FREQ_1 =   2022-11-27T22:00:19.469   2216499279.255
RECEIVE_FREQ_1 =   2022-11-27T22:00:29.405   2216499278.155
RECEIVE_FREQ_1 =   2022-11-27T22:00:39.514   2216499277.055
RECEIVE_FREQ_1 =   2022-11-27T22:00:49.536   2216499275.755
RECEIVE_FREQ_1 =   2022-11-27T22:00:59.472   2216499275.055
RECEIVE_FREQ_1 =   2022-11-27T22:01:09.408   2216499274.055
RECEIVE_FREQ_1 =   2022-11-27T22:01:19.430   2216499272.655
RECEIVE_FREQ_1 =   2022-11-27T22:01:29.453   2216499271.355
RECEIVE_FREQ_1 =   2022-11-27T22:01:39.475   2216499270.255
RECEIVE_FREQ_1 =   2022-11-27T22:01:49.411   2216499269.255
RECEIVE_FREQ_1 =   2022-11-27T22:01:59.434   2216499268.455
RECEIVE_FREQ_1 =   2022-11-27T22:02:09.456   2216499267.055
RECEIVE_FREQ_1 =   2022-11-27T22:02:19.478   2216499265.955
RECEIVE_FREQ_1 =   2022-11-27T22:02:29.501   2216499264.655
RECEIVE_FREQ_1 =   2022-11-27T22:02:39.523   2216499263.955
RECEIVE_FREQ_1 =   2022-11-27T22:02:49.459   2216499262.855
RECEIVE_FREQ_1 =   2022-11-27T22:02:59.482   2216499262.055
RECEIVE_FREQ_1 =   2022-11-27T22:03:09.418   2216499260.555
RECEIVE_FREQ_1 =   2022-11-27T22:03:19.526   2216499259.755
RECEIVE_FREQ_1 =   2022-11-27T22:03:29.462   2216499258.655
RECEIVE_FREQ_1 =   2022-11-27T22:03:39.398   2216499257.655
RECEIVE_FREQ_1 =   2022-11-27T22:03:49.507   2216499256.155
RECEIVE_FREQ_1 =   2022-11-27T22:03:59.443   2216499255.455
RECEIVE_FREQ_1 =   2022-11-27T22:04:09.466   2216499254.355
RECEIVE_FREQ_1 =   2022-11-27T22:04:19.488   2216499253.055
RECEIVE_FREQ_1 =   2022-11-27T22:04:29.424   2216499252.555
RECEIVE_FREQ_1 =   2022-11-27T22:04:39.446   2216499251.455
RECEIVE_FREQ_1 =   2022-11-27T22:04:49.469   2216499250.255
RECEIVE_FREQ_1 =   2022-11-27T22:04:59.405   2216499249.155
RECEIVE_FREQ_1 =   2022-11-27T22:05:09.427   2216499248.555
RECEIVE_FREQ_1 =   2022-11-27T22:05:19.450   2216499247.255
RECEIVE_FREQ_1 =   2022-11-27T22:05:29.472   2216499246.355
RECEIVE_FREQ_1 =   2022-11-27T22:05:39.494   2216499245.155
RECEIVE_FREQ_1 =   2022-11-27T22:05:49.430   2216499244.455
RECEIVE_FREQ_1 =   2022-11-27T22:05:59.453   2216499243.255
RECEIVE_FREQ_1 =   2022-11-27T22:06:09.475   2216499242.155
RECEIVE_FREQ_1 =   2022-11-27T22:06:19.411   2216499241.255
RECEIVE_FREQ_1 =   2022-11-27T22:06:29.434   2216499240.455
RECEIVE_FREQ_1 =   2022-11-27T22:06:39.456   2216499239.355
RECEIVE_FREQ_1 =   2022-11-27T22:06:49.478   2216499238.255
RECEIVE_FREQ_1 =   2022-11-27T22:07:09.437   2216499235.955
RECEIVE_FREQ_1 =   2022-11-27T22:07:19.459   2216499237.255
RECEIVE_FREQ_1 =   2022-11-27T22:07:29.482   2216499234.255
RECEIVE_FREQ_1 =   2022-11-27T22:07:39.418   2216499233.055
RECEIVE_FREQ_1 =   2022-11-27T22:07:49.440   2216499232.155
RECEIVE_FREQ_1 =   2022-11-27T22:07:59.462   2216499231.255
RECEIVE_FREQ_1 =   2022-11-27T22:08:09.485   2216499230.255
RECEIVE_FREQ_1 =   2022-11-27T22:08:19.421   2216499229.155
RECEIVE_FREQ_1 =   2022-11-27T22:08:29.443   2216499228.255
RECEIVE_FREQ_1 =   2022-11-27T22:08:39.552   2216499226.955
RECEIVE_FREQ_1 =   2022-11-27T22:08:59.424   2216499224.855
RECEIVE_FREQ_1 =   2022-11-27T22:09:09.446   2216499223.855
RECEIVE_FREQ_1 =   2022-11-27T22:09:19.469   2216499222.955
RECEIVE_FREQ_1 =   2022-11-27T22:09:29.405   2216499221.955
RECEIVE_FREQ_1 =   2022-11-27T22:09:39.427   2216499220.655
RECEIVE_FREQ_1 =   2022-11-27T22:09:49.450   2216499219.655
RECEIVE_FREQ_1 =   2022-11-27T22:09:59.472   2216499218.755
RECEIVE_FREQ_1 =   2022-11-27T22:10:09.408   2216499217.655
RECEIVE_FREQ_1 =   2022-11-27T22:10:19.430   2216499216.555
RECEIVE_FREQ_1 =   2022-11-27T22:10:29.453   2216499215.555
RECEIVE_FREQ_1 =   2022-11-27T22:10:39.475   2216499214.655
RECEIVE_FREQ_1 =   2022-11-27T22:10:49.411   2216499213.555
RECEIVE_FREQ_1 =   2022-11-27T22:10:59.434   2216499212.455
RECEIVE_FREQ_1 =   2022-11-27T22:11:09.456   2216499211.255
RECEIVE_FREQ_1 =   2022-11-27T22:11:19.478   2216499210.155
RECEIVE_FREQ_1 =   2022-11-27T22:11:29.414   2216499209.255
RECEIVE_FREQ_1 =   2022-11-27T22:11:39.437   2216499208.255
RECEIVE_FREQ_1 =   2022-11-27T22:11:49.459   2216499207.055
RECEIVE_FREQ_1 =   2022-11-27T22:11:59.482   2216499206.055
RECEIVE_FREQ_1 =   2022-11-27T22:12:09.418   2216499205.155
RECEIVE_FREQ_1 =   2022-11-27T22:12:19.440   2216499204.055
RECEIVE_FREQ_1 =   2022-11-27T22:12:29.462   2216499203.255
RECEIVE_FREQ_1 =   2022-11-27T22:12:39.485   2216499201.955
RECEIVE_FREQ_1 =   2022-11-27T22:12:49.421   2216499201.055
RECEIVE_FREQ_1 =   2022-11-27T22:13:09.466   2216499198.755
RECEIVE_FREQ_1 =   2022-11-27T22:13:19.488   2216499197.855
RECEIVE_FREQ_1 =   2022-11-27T22:13:29.424   2216499196.955
RECEIVE_FREQ_1 =   2022-11-27T22:13:49.469   2216499194.555
RECEIVE_FREQ_1 =   2022-11-27T22:14:09.427   2216499192.355
RECEIVE_FREQ_1 =   2022-11-27T22:14:49.430   2216499189.455
RECEIVE_FREQ_1 =   2022-11-27T22:15:29.434   2216499183.955
RECEIVE_FREQ_1 =   2022-11-27T22:15:59.414   2216499180.755
RECEIVE_FREQ_1 =   2022-11-27T22:17:19.507   2216499171.855
RECEIVE_FREQ_1 =   2022-11-27T22:18:29.405   2216499166.055
RECEIVE_FREQ_1 =   2022-11-27T22:18:49.450   2216499162.555
RECEIVE_FREQ_1 =   2022-11-27T22:19:39.475   2216499156.755
RECEIVE_FREQ_1 =   2022-11-27T22:20:49.459   2216499149.055
RECEIVE_FREQ_1 =   2022-11-27T22:21:49.421   2216499142.155
RECEIVE_FREQ_1 =   2022-11-27T22:22:59.405   2216499134.555
RECEIVE_FREQ_1 =   2022-11-27T22:23:29.472   2216499131.155
RECEIVE_FREQ_1 =   2022-11-27T22:23:59.453   2216499128.055
RECEIVE_FREQ_1 =   2022-11-27T22:24:09.475   2216499126.655
RECEIVE_FREQ_1 =   2022-11-27T22:24:39.456   2216499122.555
RECEIVE_FREQ_1 =   2022-11-27T22:26:39.466   2216499109.355
RECEIVE_FREQ_1 =   2022-11-27T22:27:09.446   2216499106.455
RECEIVE_FREQ_1 =   2022-11-27T22:27:59.472   2216499100.155
RECEIVE_FREQ_1 =   2022-11-27T22:28:09.408   2216499099.155
RECEIVE_FREQ_1 =   2022-11-27T22:28:19.430   2216499098.155
RECEIVE_FREQ_1 =   2022-11-27T22:28:59.434   2216499093.355
RECEIVE_FREQ_1 =   2022-11-27T22:29:19.478   2216499090.855
RECEIVE_FREQ_1 =   2022-11-27T22:29:39.437   2216499088.155
RECEIVE_FREQ_1 =   2022-11-27T22:30:09.418   2216499084.955
RECEIVE_FREQ_1 =   2022-11-27T22:30:29.462   2216499082.855
RECEIVE_FREQ_1 =   2022-11-27T22:30:49.421   2216499080.955
RECEIVE_FREQ_1 =   2022-11-27T22:30:59.443   2216499079.455
RECEIVE_FREQ_1 =   2022-11-27T22:31:09.466   2216499078.155
RECEIVE_FREQ_1 =   2022-11-27T22:31:59.491   2216499072.455
RECEIVE_FREQ_1 =   2022-11-27T22:32:09.427   2216499071.455
RECEIVE_FREQ_1 =   2022-11-27T22:32:39.408   2216499067.955
RECEIVE_FREQ_1 =   2022-11-27T22:32:49.430   2216499066.255
RECEIVE_FREQ_1 =   2022-11-27T22:32:59.453   2216499065.255
RECEIVE_FREQ_1 =   2022-11-27T22:33:19.411   2216499062.855
RECEIVE_FREQ_1 =   2022-11-27T22:34:29.482   2216499055.055
RECEIVE_FREQ_1 =   2022-11-27T22:34:49.440   2216499053.255
RECEIVE_FREQ_1 =   2022-11-27T22:35:09.485   2216499050.955
RECEIVE_FREQ_1 =   2022-11-27T22:35:49.402   2216499046.555
RECEIVE_FREQ_1 =   2022-11-27T22:36:39.427   2216499041.055
RECEIVE_FREQ_1 =   2022-11-27T22:36:49.450   2216499039.555
RECEIVE_FREQ_1 =   2022-11-27T22:36:59.472   2216499038.555
RECEIVE_FREQ_1 =   2022-11-27T22:38:39.437   2216499027.555
RECEIVE_FREQ_1 =   2022-11-27T22:38:49.459   2216499026.355
RECEIVE_FREQ_1 =   2022-11-27T22:39:19.440   2216499022.855
RECEIVE_FREQ_1 =   2022-11-27T22:39:39.485   2216499020.755
RECEIVE_FREQ_1 =   2022-11-27T22:40:29.424   2216499014.855
RECEIVE_FREQ_1 =   2022-11-27T22:41:29.472   2216499007.955
RECEIVE_FREQ_1 =   2022-11-27T22:41:49.430   2216499005.955
RECEIVE_FREQ_1 =   2022-11-27T22:43:29.482   2216498994.055
RECEIVE_FREQ_1 =   2022-11-27T22:44:39.466   2216498986.255
RECEIVE_FREQ_1 =   2022-11-27T22:45:09.446   2216498982.855
RECEIVE_FREQ_1 =   2022-11-27T22:46:39.475   2216498972.755
RECEIVE_FREQ_1 =   2022-11-27T22:46:49.411   2216498971.555
RECEIVE_FREQ_1 =   2022-11-27T22:47:09.456   2216498969.055
RECEIVE_FREQ_1 =   2022-11-27T22:47:49.459   2216498964.355
RECEIVE_FREQ_1 =   2022-11-27T22:48:09.418   2216498962.355
RECEIVE_FREQ_1 =   2022-11-27T22:48:29.462   2216498959.655
RECEIVE_FREQ_1 =   2022-11-27T22:48:49.421   2216498957.455
RECEIVE_FREQ_1 =   2022-11-27T22:48:59.443   2216498956.355
RECEIVE_FREQ_1 =   2022-11-27T22:49:09.466   2216498954.955
RECEIVE_FREQ_1 =   2022-11-27T22:49:19.402   2216498953.655
RECEIVE_FREQ_1 =   2022-11-27T22:49:29.424   2216498952.555
RECEIVE_FREQ_1 =   2022-11-27T22:50:49.430   2216498942.955
RECEIVE_FREQ_1 =   2022-11-27T22:50:59.453   2216498941.955
RECEIVE_FREQ_1 =   2022-11-27T22:51:09.475   2216498940.555
RECEIVE_FREQ_1 =   2022-11-27T22:51:19.411   2216498939.555
RECEIVE_FREQ_1 =   2022-11-27T22:51:29.434   2216498938.055
RECEIVE_FREQ_1 =   2022-11-27T22:51:39.456   2216498937.055
RECEIVE_FREQ_1 =   2022-11-27T22:51:49.478   2216498935.955
RECEIVE_FREQ_1 =   2022-11-27T22:51:59.414   2216498934.855
RECEIVE_FREQ_1 =   2022-11-27T22:52:09.437   2216498933.355
RECEIVE_FREQ_1 =   2022-11-27T22:52:19.459   2216498932.355
RECEIVE_FREQ_1 =   2022-11-27T22:52:29.395   2216498931.155
RECEIVE_FREQ_1 =   2022-11-27T22:52:39.418   2216498930.155
RECEIVE_FREQ_1 =   2022-11-27T22:52:49.440   2216498928.855
RECEIVE_FREQ_1 =   2022-11-27T22:52:59.462   2216498927.655
RECEIVE_FREQ_1 =   2022-11-27T22:53:19.421   2216498924.955
RECEIVE_FREQ_1 =   2022-11-27T22:53:29.443   2216498923.655
RECEIVE_FREQ_1 =   2022-11-27T22:53:49.402   2216498921.455
RECEIVE_FREQ_1 =   2022-11-27T22:53:59.424   2216498920.255
RECEIVE_FREQ_1 =   2022-11-27T22:54:19.469   2216498918.255
RECEIVE_FREQ_1 =   2022-11-27T22:54:59.472   2216498912.655
RECEIVE_FREQ_1 =   2022-11-27T22:55:09.408   2216498911.755
RECEIVE_FREQ_1 =   2022-11-27T22:55:29.453   2216498909.655
RECEIVE_FREQ_1 =   2022-11-27T22:55:49.411   2216498907.155
RECEIVE_FREQ_1 =   2022-11-27T22:55:59.434   2216498906.055
RECEIVE_FREQ_1 =   2022-11-27T22:56:29.414   2216498902.455
RECEIVE_FREQ_1 =   2022-11-27T22:56:39.437   2216498901.355
RECEIVE_FREQ_1 =   2022-11-27T22:56:59.482   2216498898.455
RECEIVE_FREQ_1 =   2022-11-27T22:57:19.440   2216498895.855
RECEIVE_FREQ_1 =   2022-11-27T22:57:49.421   2216498892.255
RECEIVE_FREQ_1 =   2022-11-27T22:59:09.427   2216498882.755
RECEIVE_FREQ_1 =   2022-11-27T23:00:39.456   2216498871.555
RECEIVE_FREQ_1 =   2022-11-27T23:00:49.392   2216498870.855
RECEIVE_FREQ_1 =   2022-11-27T23:00:59.414   2216498869.255
RECEIVE_FREQ_1 =   2022-11-27T23:15:09.418   2216498764.555
RECEIVE_FREQ_1 =   2022-11-27T23:15:19.440   2216498763.355
RECEIVE_FREQ_1 =   2022-11-27T23:15:29.462   2216498761.955
RECEIVE_FREQ_1 =   2022-11-27T23:15:39.398   2216498761.155
RECEIVE_FREQ_1 =   2022-11-27T23:15:49.421   2216498759.655
RECEIVE_FREQ_1 =   2022-11-27T23:15:59.443   2216498758.455
RECEIVE_FREQ_1 =   2022-11-27T23:16:09.466   2216498757.555
RECEIVE_FREQ_1 =   2022-11-27T23:16:19.488   2216498756.355
RECEIVE_FREQ_1 =   2022-11-27T23:16:29.424   2216498755.255
RECEIVE_FREQ_1 =   2022-11-27T23:16:49.469   2216498752.855
RECEIVE_FREQ_1 =   2022-11-27T23:16:59.491   2216498751.655
RECEIVE_FREQ_1 =   2022-11-27T23:17:09.427   2216498749.955
RECEIVE_FREQ_1 =   2022-11-27T23:17:19.450   2216498748.955
RECEIVE_FREQ_1 =   2022-11-27T23:17:29.472   2216498747.855
RECEIVE_FREQ_1 =   2022-11-27T23:17:39.408   2216498746.255
RECEIVE_FREQ_1 =   2022-11-27T23:17:49.430   2216498745.355
RECEIVE_FREQ_1 =   2022-11-27T23:17:59.453   2216498744.055
RECEIVE_FREQ_1 =   2022-11-27T23:18:09.475   2216498743.055
RECEIVE_FREQ_1 =   2022-11-27T23:18:19.411   2216498741.655
RECEIVE_FREQ_1 =   2022-11-27T23:18:29.434   2216498740.4
RECEIVE_FREQ_1 =   2022-11-27T23:18:39.456   2216498738.955
RECEIVE_FREQ_1 =   2022-11-27T23:18:49.478   2216498737.955
RECEIVE_FREQ_1 =   2022-11-27T23:18:59.414   2216498736.455
RECEIVE_FREQ_1 =   2022-11-27T23:19:09.437   2216498735.555
RECEIVE_FREQ_1 =   2022-11-27T23:19:19.459   2216498734.155
RECEIVE_FREQ_1 =   2022-11-27T23:19:29.482   2216498732.855
RECEIVE_FREQ_1 =   2022-11-27T23:19:39.418   2216498731.655
RECEIVE_FREQ_1 =   2022-11-27T23:19:49.440   2216498730.355
RECEIVE_FREQ_1 =   2022-11-27T23:19:59.462   2216498729.255
RECEIVE_FREQ_1 =   2022-11-27T23:20:09.485   2216498727.955
RECEIVE_FREQ_1 =   2022-11-27T23:20:19.421   2216498726.555
RECEIVE_FREQ_1 =   2022-11-27T23:20:29.443   2216498725.255
RECEIVE_FREQ_1 =   2022-11-27T23:20:39.466   2216498724.655
RECEIVE_FREQ_1 =   2022-11-27T23:20:49.402   2216498723.055
RECEIVE_FREQ_1 =   2022-11-27T23:20:59.424   2216498721.655
RECEIVE_FREQ_1 =   2022-11-27T23:21:09.446   2216498720.4
RECEIVE_FREQ_1 =   2022-11-27T23:21:19.469   2216498719.255
RECEIVE_FREQ_1 =   2022-11-27T23:21:29.405   2216498718.355
RECEIVE_FREQ_1 =   2022-11-27T23:21:39.427   2216498717.055
RECEIVE_FREQ_1 =   2022-11-27T23:21:49.450   2216498715.655
RECEIVE_FREQ_1 =   2022-11-27T23:21:59.472   2216498714.555
RECEIVE_FREQ_1 =   2022-11-27T23:22:09.408   2216498712.955
RECEIVE_FREQ_1 =   2022-11-27T23:22:19.430   2216498711.755
RECEIVE_FREQ_1 =   2022-11-27T23:22:29.453   2216498710.655
RECEIVE_FREQ_1 =   2022-11-27T23:22:39.475   2216498709.155
RECEIVE_FREQ_1 =   2022-11-27T23:22:49.411   2216498708.155
RECEIVE_FREQ_1 =   2022-11-27T23:22:59.434   2216498706.755
RECEIVE_FREQ_1 =   2022-11-27T23:23:09.456   2216498705.855
RECEIVE_FREQ_1 =   2022-11-27T23:23:19.478   2216498704.255
RECEIVE_FREQ_1 =   2022-11-27T23:23:29.414   2216498703.555
RECEIVE_FREQ_1 =   2022-11-27T23:23:39.437   2216498701.955
RECEIVE_FREQ_1 =   2022-11-27T23:23:49.459   2216498700.655
RECEIVE_FREQ_1 =   2022-11-27T23:23:59.482   2216498699.655
RECEIVE_FREQ_1 =   2022-11-27T23:24:09.418   2216498698.155
RECEIVE_FREQ_1 =   2022-11-27T23:24:19.440   2216498696.855
RECEIVE_FREQ_1 =   2022-11-27T23:24:29.462   2216498695.955
RECEIVE_FREQ_1 =   2022-11-27T23:24:39.398   2216498694.255
RECEIVE_FREQ_1 =   2022-11-27T23:24:49.421   2216498693.155
RECEIVE_FREQ_1 =   2022-11-27T23:24:59.443   2216498691.955
RECEIVE_FREQ_1 =   2022-11-27T23:25:09.466   2216498690.855
RECEIVE_FREQ_1 =   2022-11-27T23:25:19.488   2216498689.3
RECEIVE_FREQ_1 =   2022-11-27T23:25:29.424   2216498688.155
RECEIVE_FREQ_1 =   2022-11-27T23:25:39.446   2216498687.155
RECEIVE_FREQ_1 =   2022-11-27T23:25:49.469   2216498685.555
RECEIVE_FREQ_1 =   2022-11-27T23:25:59.491   2216498684.655
RECEIVE_FREQ_1 =   2022-11-27T23:26:09.427   2216498683.2
RECEIVE_FREQ_1 =   2022-11-27T23:26:19.450   2216498681.855
RECEIVE_FREQ_1 =   2022-11-27T23:26:29.472   2216498680.855
RECEIVE_FREQ_1 =   2022-11-27T23:26:39.408   2216498679.555
RECEIVE_FREQ_1 =   2022-11-27T23:26:49.430   2216498678.255
RECEIVE_FREQ_1 =   2022-11-27T23:26:59.453   2216498677.055
RECEIVE_FREQ_1 =   2022-11-27T23:27:09.475   2216498675.655
RECEIVE_FREQ_1 =   2022-11-27T23:27:19.411   2216498674.355
RECEIVE_FREQ_1 =   2022-11-27T23:27:29.434   2216498673.355
RECEIVE_FREQ_1 =   2022-11-27T23:27:39.456   2216498672.055
RECEIVE_FREQ_1 =   2022-11-27T23:27:49.392   2216498670.655
RECEIVE_FREQ_1 =   2022-11-27T23:27:59.414   2216498669.4
RECEIVE_FREQ_1 =   2022-11-27T23:28:09.437   2216498668.555
RECEIVE_FREQ_1 =   2022-11-27T23:28:19.459   2216498666.955
RECEIVE_FREQ_1 =   2022-11-27T23:28:29.395   2216498665.555
RECEIVE_FREQ_1 =   2022-11-27T23:28:39.418   2216498664.255
RECEIVE_FREQ_1 =   2022-11-27T23:28:49.440   2216498663.155
RECEIVE_FREQ_1 =   2022-11-27T23:28:59.462   2216498662.355
RECEIVE_FREQ_1 =   2022-11-27T23:29:09.398   2216498660.555
RECEIVE_FREQ_1 =   2022-11-27T23:29:19.421   2216498659.6
RECEIVE_FREQ_1 =   2022-11-27T23:29:29.443   2216498658.4
RECEIVE_FREQ_1 =   2022-11-27T23:29:39.466   2216498656.655
RECEIVE_FREQ_1 =   2022-11-27T23:29:49.402   2216498655.455
RECEIVE_FREQ_1 =   2022-11-27T23:29:59.424   2216498654.455
RECEIVE_FREQ_1 =   2022-11-27T23:30:09.446   2216498653.255
RECEIVE_FREQ_1 =   2022-11-27T23:30:19.469   2216498652.155
RECEIVE_FREQ_1 =   2022-11-27T23:30:29.405   2216498650.555
RECEIVE_FREQ_1 =   2022-11-27T23:30:39.427   2216498649.255
RECEIVE_FREQ_1 =   2022-11-27T23:30:49.450   2216498647.855
RECEIVE_FREQ_1 =   2022-11-27T23:30:59.472   2216498646.555
RECEIVE_FREQ_1 =   2022-11-27T23:31:09.408   2216498645.455
RECEIVE_FREQ_1 =   2022-11-27T23:31:19.430   2216498644.155
RECEIVE_FREQ_1 =   2022-11-27T23:31:29.453   2216498642.855
RECEIVE_FREQ_1 =   2022-11-27T23:31:39.475   2216498641.555
RECEIVE_FREQ_1 =   2022-11-27T23:31:49.411   2216498640.555
RECEIVE_FREQ_1 =   2022-11-27T23:31:59.434   2216498639.155
RECEIVE_FREQ_1 =   2022-11-27T23:32:09.456   2216498637.755
RECEIVE_FREQ_1 =   2022-11-27T23:32:19.392   2216498636.455
RECEIVE_FREQ_1 =   2022-11-27T23:32:29.414   2216498635.8
RECEIVE_FREQ_1 =   2022-11-27T23:32:39.437   2216498634.255
RECEIVE_FREQ_1 =   2022-11-27T23:32:49.459   2216498632.355
RECEIVE_FREQ_1 =   2022-11-27T23:32:59.395   2216498631.6
RECEIVE_FREQ_1 =   2022-11-27T23:33:09.418   2216498630.355
RECEIVE_FREQ_1 =   2022-11-27T23:33:19.440   2216498629.055
RECEIVE_FREQ_1 =   2022-11-27T23:33:29.462   2216498627.855
RECEIVE_FREQ_1 =   2022-11-27T23:33:39.398   2216498626.155
RECEIVE_FREQ_1 =   2022-11-27T23:33:49.421   2216498625.455
RECEIVE_FREQ_1 =   2022-11-27T23:33:59.443   2216498624.155
RECEIVE_FREQ_1 =   2022-11-27T23:34:09.466   2216498622.755
RECEIVE_FREQ_1 =   2022-11-27T23:34:19.402   2216498621.555
RECEIVE_FREQ_1 =   2022-11-27T23:34:29.424   2216498620.055
RECEIVE_FREQ_1 =   2022-11-27T23:34:39.446   2216498618.955
RECEIVE_FREQ_1 =   2022-11-27T23:34:49.469   2216498617.855
RECEIVE_FREQ_1 =   2022-11-27T23:34:59.405   2216498616.655
RECEIVE_FREQ_1 =   2022-11-27T23:35:09.427   2216498614.955
RECEIVE_FREQ_1 =   2022-11-27T23:35:19.450   2216498613.755
RECEIVE_FREQ_1 =   2022-11-27T23:35:29.472   2216498612.755
RECEIVE_FREQ_1 =   2022-11-27T23:35:39.408   2216498611.255
RECEIVE_FREQ_1 =   2022-11-27T23:35:49.430   2216498609.855
RECEIVE_FREQ_1 =   2022-11-27T23:35:59.453   2216498608.755
RECEIVE_FREQ_1 =   2022-11-27T23:36:09.475   2216498607.355
RECEIVE_FREQ_1 =   2022-11-27T23:36:19.498   2216498606.055
RECEIVE_FREQ_1 =   2022-11-27T23:36:29.434   2216498604.855
RECEIVE_FREQ_1 =   2022-11-27T23:36:39.456   2216498603.855
RECEIVE_FREQ_1 =   2022-11-27T23:36:49.392   2216498602.255
RECEIVE_FREQ_1 =   2022-11-27T23:36:59.414   2216498600.855
RECEIVE_FREQ_1 =   2022-11-27T23:37:09.437   2216498600.055
RECEIVE_FREQ_1 =   2022-11-27T23:37:19.459   2216498599.0
RECEIVE_FREQ_1 =   2022-11-27T23:37:39.418   2216498595.855
RECEIVE_FREQ_1 =   2022-11-27T23:37:49.440   2216498595.055
RECEIVE_FREQ_1 =   2022-11-27T23:38:09.485   2216498591.955
RECEIVE_FREQ_1 =   2022-11-27T23:38:39.466   2216498587.955
RECEIVE_FREQ_1 =   2022-11-27T23:38:49.488   2216498586.755
RECEIVE_FREQ_1 =   2022-11-27T23:38:59.424   2216498585.955
RECEIVE_FREQ_1 =   2022-11-27T23:39:09.446   2216498584.255
RECEIVE_FREQ_1 =   2022-11-27T23:39:19.469   2216498583.255
RECEIVE_FREQ_1 =   2022-11-27T23:39:29.405   2216498581.855
RECEIVE_FREQ_1 =   2022-11-27T23:39:39.427   2216498580.655
RECEIVE_FREQ_1 =   2022-11-27T23:39:49.450   2216498579.355
RECEIVE_FREQ_1 =   2022-11-27T23:39:59.472   2216498578.255
RECEIVE_FREQ_1 =   2022-11-27T23:40:09.408   2216498576.855
RECEIVE_FREQ_1 =   2022-11-27T23:40:19.430   2216498575.055
RECEIVE_FREQ_1 =   2022-11-27T23:40:39.475   2216498573.055
RECEIVE_FREQ_1 =   2022-11-27T23:41:09.456   2216498569.155
RECEIVE_FREQ_1 =   2022-11-27T23:41:19.392   2216498567.655
RECEIVE_FREQ_1 =   2022-11-27T23:41:29.414   2216498566.555
RECEIVE_FREQ_1 =   2022-11-27T23:41:39.437   2216498565.155
RECEIVE_FREQ_1 =   2022-11-27T23:41:49.459   2216498564.155
RECEIVE_FREQ_1 =   2022-11-27T23:41:59.482   2216498562.455
RECEIVE_FREQ_1 =   2022-11-27T23:42:09.418   2216498561.155
RECEIVE_FREQ_1 =   2022-11-27T23:42:19.440   2216498559.855
RECEIVE_FREQ_1 =   2022-11-27T23:42:29.462   2216498558.455
RECEIVE_FREQ_1 =   2022-11-27T23:42:49.421   2216498555.955
RECEIVE_FREQ_1 =   2022-11-27T23:42:59.443   2216498554.955
RECEIVE_FREQ_1 =   2022-11-27T23:43:09.466   2216498553.455
RECEIVE_FREQ_1 =   2022-11-27T23:43:19.402   2216498552.455
RECEIVE_FREQ_1 =   2022-11-27T23:43:29.424   2216498551.055
RECEIVE_FREQ_1 =   2022-11-27T23:43:39.446   2216498549.455
RECEIVE_FREQ_1 =   2022-11-27T23:43:59.405   2216498546.955
RECEIVE_FREQ_1 =   2022-11-27T23:44:09.427   2216498545.655
RECEIVE_FREQ_1 =   2022-11-27T23:44:19.450   2216498544.555
RECEIVE_FREQ_1 =   2022-11-27T23:44:29.472   2216498542.955
RECEIVE_FREQ_1 =   2022-11-27T23:44:39.408   2216498542.1
RECEIVE_FREQ_1 =   2022-11-27T23:44:49.430   2216498540.555
RECEIVE_FREQ_1 =   2022-11-27T23:45:09.475   2216498537.755
RECEIVE_FREQ_1 =   2022-11-27T23:45:19.411   2216498536.655
RECEIVE_FREQ_1 =   2022-11-27T23:45:29.434   2216498535.255
RECEIVE_FREQ_1 =   2022-11-27T23:45:49.478   2216498533.155
RECEIVE_FREQ_1 =   2022-11-27T23:45:59.414   2216498531.555
RECEIVE_FREQ_1 =   2022-11-27T23:46:09.437   2216498530.555
RECEIVE_FREQ_1 =   2022-11-27T23:46:29.482   2216498527.355
RECEIVE_FREQ_1 =   2022-11-27T23:46:49.440   2216498525.055
RECEIVE_FREQ_1 =   2022-11-27T23:46:59.462   2216498523.755
RECEIVE_FREQ_1 =   2022-11-27T23:47:09.398   2216498522.555
RECEIVE_FREQ_1 =   2022-11-27T23:47:19.421   2216498521.455
RECEIVE_FREQ_1 =   2022-11-27T23:47:59.424   2216498516.255
RECEIVE_FREQ_1 =   2022-11-27T23:48:39.427   2216498511.055
RECEIVE_FREQ_1 =   2022-11-27T23:48:49.450   2216498509.455
RECEIVE_FREQ_1 =   2022-11-27T23:48:59.472   2216498508.355
RECEIVE_FREQ_1 =   2022-11-27T23:49:09.408   2216498507.255
RECEIVE_FREQ_1 =   2022-11-27T23:49:19.430   2216498506.055
RECEIVE_FREQ_1 =   2022-11-27T23:49:29.453   2216498504.455
RECEIVE_FREQ_1 =   2022-11-27T23:49:39.475   2216498503.055
RECEIVE_FREQ_1 =   2022-11-27T23:49:49.411   2216498501.755
RECEIVE_FREQ_1 =   2022-11-27T23:49:59.434   2216498500.455
RECEIVE_FREQ_1 =   2022-11-27T23:50:09.456   2216498499.6
RECEIVE_FREQ_1 =   2022-11-27T23:50:19.478   2216498498.1
RECEIVE_FREQ_1 =   2022-11-27T23:50:29.414   2216498497.0
RECEIVE_FREQ_1 =   2022-11-27T23:50:39.437   2216498495.4
RECEIVE_FREQ_1 =   2022-11-27T23:50:49.459   2216498494.5
RECEIVE_FREQ_1 =   2022-11-27T23:50:59.482   2216498492.8
RECEIVE_FREQ_1 =   2022-11-27T23:51:09.504   2216498491.6
RECEIVE_FREQ_1 =   2022-11-27T23:51:19.440   2216498490.0
RECEIVE_FREQ_1 =   2022-11-27T23:51:29.462   2216498489.1
RECEIVE_FREQ_1 =   2022-11-27T23:51:39.485   2216498487.4
RECEIVE_FREQ_1 =   2022-11-27T23:51:49.421   2216498486.5
RECEIVE_FREQ_1 =   2022-11-27T23:51:59.443   2216498485.3
RECEIVE_FREQ_1 =   2022-11-27T23:52:09.466   2216498483.8
RECEIVE_FREQ_1 =   2022-11-27T23:52:19.402   2216498482.4
RECEIVE_FREQ_1 =   2022-11-27T23:52:29.424   2216498481.1
RECEIVE_FREQ_1 =   2022-11-27T23:52:39.446   2216498480.0
RECEIVE_FREQ_1 =   2022-11-27T23:52:49.469   2216498478.6
RECEIVE_FREQ_1 =   2022-11-27T23:52:59.405   2216498477.5
RECEIVE_FREQ_1 =   2022-11-27T23:53:09.427   2216498476.0
RECEIVE_FREQ_1 =   2022-11-27T23:53:19.450   2216498474.6
RECEIVE_FREQ_1 =   2022-11-27T23:53:29.472   2216498473.1
RECEIVE_FREQ_1 =   2022-11-27T23:53:39.494   2216498472.2
RECEIVE_FREQ_1 =   2022-11-27T23:53:49.430   2216498470.7
RECEIVE_FREQ_1 =   2022-11-27T23:53:59.453   2216498469.7
RECEIVE_FREQ_1 =   2022-11-27T23:54:09.475   2216498467.8
RECEIVE_FREQ_1 =   2022-11-27T23:54:19.411   2216498467.0
RECEIVE_FREQ_1 =   2022-11-27T23:54:29.434   2216498465.4
RECEIVE_FREQ_1 =   2022-11-27T23:54:39.456   2216498464.4
RECEIVE_FREQ_1 =   2022-11-27T23:54:49.478   2216498462.7
RECEIVE_FREQ_1 =   2022-11-27T23:54:59.414   2216498461.8
RECEIVE_FREQ_1 =   2022-11-27T23:55:09.437   2216498460.3
RECEIVE_FREQ_1 =   2022-11-27T23:55:19.459   2216498459.1
RECEIVE_FREQ_1 =   2022-11-27T23:55:29.482   2216498457.8
RECEIVE_FREQ_1 =   2022-11-27T23:55:39.418   2216498456.5
RECEIVE_FREQ_1 =   2022-11-27T23:55:49.440   2216498455.2
RECEIVE_FREQ_1 =   2022-11-27T23:55:59.462   2216498453.8
RECEIVE_FREQ_1 =   2022-11-27T23:56:09.485   2216498452.9
RECEIVE_FREQ_1 =   2022-11-27T23:56:19.421   2216498451.4
RECEIVE_FREQ_1 =   2022-11-27T23:56:29.443   2216498449.8
RECEIVE_FREQ_1 =   2022-11-27T23:56:39.466   2216498448.6
RECEIVE_FREQ_1 =   2022-11-27T23:56:49.402   2216498447.2
RECEIVE_FREQ_1 =   2022-11-27T23:56:59.424   2216498446.2
RECEIVE_FREQ_1 =   2022-11-27T23:57:09.446   2216498444.9
RECEIVE_FREQ_1 =   2022-11-27T23:57:19.469   2216498443.4
RECEIVE_FREQ_1 =   2022-11-27T23:57:29.405   2216498441.8
RECEIVE_FREQ_1 =   2022-11-27T23:57:39.427   2216498440.7
RECEIVE_FREQ_1 =   2022-11-27T23:57:49.450   2216498439.4
RECEIVE_FREQ_1 =   2022-11-27T23:57:59.472   2216498438.1
RECEIVE_FREQ_1 =   2022-11-27T23:58:09.408   2216498437.0
RECEIVE_FREQ_1 =   2022-11-27T23:58:19.430   2216498435.8
RECEIVE_FREQ_1 =   2022-11-27T23:58:29.453   2216498434.1
RECEIVE_FREQ_1 =   2022-11-27T23:58:39.475   2216498432.8
RECEIVE_FREQ_1 =   2022-11-27T23:58:49.411   2216498431.8
RECEIVE_FREQ_1 =   2022-11-27T23:58:59.434   2216498430.6
RECEIVE_FREQ_1 =   2022-11-27T23:59:09.456   2216498428.9
RECEIVE_FREQ_1 =   2022-11-27T23:59:19.478   2216498427.7
RECEIVE_FREQ_1 =   2022-11-27T23:59:29.414   2216498426.2
RECEIVE_FREQ_1 =   2022-11-27T23:59:39.437   2216498424.8
RECEIVE_FREQ_1 =   2022-11-27T23:59:49.459   2216498423.8
RECEIVE_FREQ_1 =   2022-11-27T23:59:59.482   2216498422.6
RECEIVE_FREQ_1 =   2022-11-28T00:00:09.418   2216498421.1
RECEIVE_FREQ_1 =   2022-11-28T00:00:19.440   2216498419.9
RECEIVE_FREQ_1 =   2022-11-28T00:00:29.462   2216498418.6
RECEIVE_FREQ_1 =   2022-11-28T00:00:39.485   2216498417.1
RECEIVE_FREQ_1 =   2022-11-28T00:00:49.421   2216498415.8
RECEIVE_FREQ_1 =   2022-11-28T00:00:59.443   2216498414.8
RECEIVE_FREQ_1 =   2022-11-28T00:01:09.466   2216498413.4
RECEIVE_FREQ_1 =   2022-11-28T00:01:19.488   2216498411.8
RECEIVE_FREQ_1 =   2022-11-28T00:01:29.424   2216498410.7
RECEIVE_FREQ_1 =   2022-11-28T00:01:39.446   2216498409.1
RECEIVE_FREQ_1 =   2022-11-28T00:01:49.469   2216498408.3
RECEIVE_FREQ_1 =   2022-11-28T00:01:59.405   2216498406.7
RECEIVE_FREQ_1 =   2022-11-28T00:02:09.427   2216498405.6
RECEIVE_FREQ_1 =   2022-11-28T00:02:19.450   2216498404.1
RECEIVE_FREQ_1 =   2022-11-28T00:02:29.472   2216498403.0
RECEIVE_FREQ_1 =   2022-11-28T00:02:39.408   2216498401.7
RECEIVE_FREQ_1 =   2022-11-28T00:02:49.430   2216498400.1
RECEIVE_FREQ_1 =   2022-11-28T00:02:59.453   2216498399.2
RECEIVE_FREQ_1 =   2022-11-28T00:03:09.475   2216498397.9
RECEIVE_FREQ_1 =   2022-11-28T00:03:19.411   2216498396.3
RECEIVE_FREQ_1 =   2022-11-28T00:03:29.434   2216498395.1
RECEIVE_FREQ_1 =   2022-11-28T00:03:39.456   2216498393.9
RECEIVE_FREQ_1 =   2022-11-28T00:03:49.478   2216498392.3
RECEIVE_FREQ_1 =   2022-11-28T00:03:59.414   2216498391.2
RECEIVE_FREQ_1 =   2022-11-28T00:04:09.437   2216498389.7
RECEIVE_FREQ_1 =   2022-11-28T00:04:19.459   2216498388.6
RECEIVE_FREQ_1 =   2022-11-28T00:04:29.482   2216498387.7
RECEIVE_FREQ_1 =   2022-11-28T00:04:39.418   2216498386.0
RECEIVE_FREQ_1 =   2022-11-28T00:04:49.440   2216498384.7
RECEIVE_FREQ_1 =   2022-11-28T00:04:59.462   2216498383.3
RECEIVE_FREQ_1 =   2022-11-28T00:05:09.398   2216498384.4
RECEIVE_FREQ_1 =   2022-11-28T00:05:19.421   2216498382.9
RECEIVE_FREQ_1 =   2022-11-28T00:05:29.443   2216498381.9
RECEIVE_FREQ_1 =   2022-11-28T00:05:39.466   2216498380.4
RECEIVE_FREQ_1 =   2022-11-28T00:05:49.402   2216498379.1
RECEIVE_FREQ_1 =   2022-11-28T00:05:59.424   2216498378.1
RECEIVE_FREQ_1 =   2022-11-28T00:06:09.446   2216498376.4
RECEIVE_FREQ_1 =   2022-11-28T00:06:19.469   2216498375.2
RECEIVE_FREQ_1 =   2022-11-28T00:06:29.405   2216498373.9
RECEIVE_FREQ_1 =   2022-11-28T00:06:39.427   2216498372.4
RECEIVE_FREQ_1 =   2022-11-28T00:06:49.450   2216498371.6
RECEIVE_FREQ_1 =   2022-11-28T00:06:59.472   2216498370.1
RECEIVE_FREQ_1 =   2022-11-28T00:07:09.408   2216498368.6
RECEIVE_FREQ_1 =   2022-11-28T00:07:19.430   2216498367.3
RECEIVE_FREQ_1 =   2022-11-28T00:07:29.453   2216498366.3
RECEIVE_FREQ_1 =   2022-11-28T00:07:39.475   2216498365.0
RECEIVE_FREQ_1 =   2022-11-28T00:07:49.411   2216498363.3
RECEIVE_FREQ_1 =   2022-11-28T00:07:59.434   2216498362.2
RECEIVE_FREQ_1 =   2022-11-28T00:08:09.456   2216498360.7
RECEIVE_FREQ_1 =   2022-11-28T00:08:19.478   2216498359.4
RECEIVE_FREQ_1 =   2022-11-28T00:08:29.414   2216498358.5
RECEIVE_FREQ_1 =   2022-11-28T00:08:39.437   2216498357.0
RECEIVE_FREQ_1 =   2022-11-28T00:08:49.459   2216498355.6
RECEIVE_FREQ_1 =   2022-11-28T00:08:59.482   2216498354.1
RECEIVE_FREQ_1 =   2022-11-28T00:09:09.418   2216498352.9
RECEIVE_FREQ_1 =   2022-11-28T00:09:19.440   2216498351.6
RECEIVE_FREQ_1 =   2022-11-28T00:09:29.462   2216498350.4
RECEIVE_FREQ_1 =   2022-11-28T00:09:39.485   2216498349.1
RECEIVE_FREQ_1 =   2022-11-28T00:09:49.421   2216498347.7
RECEIVE_FREQ_1 =   2022-11-28T00:09:59.443   2216498346.6
RECEIVE_FREQ_1 =   2022-11-28T00:10:09.466   2216498344.8
RECEIVE_FREQ_1 =   2022-11-28T00:10:19.402   2216498343.8
RECEIVE_FREQ_1 =   2022-11-28T00:10:29.424   2216498342.6
RECEIVE_FREQ_1 =   2022-11-28T00:10:39.446   2216498341.2
RECEIVE_FREQ_1 =   2022-11-28T00:10:49.469   2216498339.9
RECEIVE_FREQ_1 =   2022-11-28T00:10:59.491   2216498338.3
RECEIVE_FREQ_1 =   2022-11-28T00:11:09.514   2216498337.2
RECEIVE_FREQ_1 =   2022-11-28T00:11:19.450   2216498335.8
RECEIVE_FREQ_1 =   2022-11-28T00:11:29.472   2216498334.2
RECEIVE_FREQ_1 =   2022-11-28T00:11:39.408   2216498332.7
RECEIVE_FREQ_1 =   2022-11-28T00:11:49.430   2216498331.7
RECEIVE_FREQ_1 =   2022-11-28T00:11:59.453   2216498330.3
RECEIVE_FREQ_1 =   2022-11-28T00:12:09.475   2216498329.2
RECEIVE_FREQ_1 =   2022-11-28T00:12:19.411   2216498327.6
RECEIVE_FREQ_1 =   2022-11-28T00:12:29.434   2216498326.6
RECEIVE_FREQ_1 =   2022-11-28T00:12:39.456   2216498324.8
RECEIVE_FREQ_1 =   2022-11-28T00:12:49.478   2216498323.6
RECEIVE_FREQ_1 =   2022-11-28T00:12:59.414   2216498322.3
RECEIVE_FREQ_1 =   2022-11-28T00:13:09.437   2216498320.8
RECEIVE_FREQ_1 =   2022-11-28T00:13:19.459   2216498319.2
RECEIVE_FREQ_1 =   2022-11-28T00:13:29.482   2216498318.2
RECEIVE_FREQ_1 =   2022-11-28T00:13:39.418   2216498316.7
RECEIVE_FREQ_1 =   2022-11-28T00:13:49.440   2216498315.5
RECEIVE_FREQ_1 =   2022-11-28T00:13:59.462   2216498313.9
RECEIVE_FREQ_1 =   2022-11-28T00:14:09.398   2216498312.6
RECEIVE_FREQ_1 =   2022-11-28T00:14:19.421   2216498311.5
RECEIVE_FREQ_1 =   2022-11-28T00:14:29.443   2216498310.0
RECEIVE_FREQ_1 =   2022-11-28T00:14:39.466   2216498309.0
RECEIVE_FREQ_1 =   2022-11-28T00:14:49.402   2216498307.5
RECEIVE_FREQ_1 =   2022-11-28T00:14:59.424   2216498305.8
RECEIVE_FREQ_1 =   2022-11-28T00:15:09.446   2216498304.5
RECEIVE_FREQ_1 =   2022-11-28T00:15:19.469   2216498303.1
RECEIVE_FREQ_1 =   2022-11-28T00:15:29.405   2216498301.9
RECEIVE_FREQ_1 =   2022-11-28T00:15:39.427   2216498300.4
RECEIVE_FREQ_1 =   2022-11-28T00:15:49.450   2216498299.2
RECEIVE_FREQ_1 =   2022-11-28T00:15:59.472   2216498297.8
RECEIVE_FREQ_1 =   2022-11-28T00:16:09.494   2216498296.7
RECEIVE_FREQ_1 =   2022-11-28T00:16:19.430   2216498295.2
RECEIVE_FREQ_1 =   2022-11-28T00:16:29.453   2216498294.2
RECEIVE_FREQ_1 =   2022-11-28T00:16:39.475   2216498292.7
RECEIVE_FREQ_1 =   2022-11-28T00:16:49.411   2216498291.7
RECEIVE_FREQ_1 =   2022-11-28T00:16:59.434   2216498290.4
RECEIVE_FREQ_1 =   2022-11-28T00:17:09.456   2216498288.8
RECEIVE_FREQ_1 =   2022-11-28T00:17:19.478   2216498287.8
RECEIVE_FREQ_1 =   2022-11-28T00:17:29.414   2216498286.8
RECEIVE_FREQ_1 =   2022-11-28T00:17:39.437   2216498285.6
RECEIVE_FREQ_1 =   2022-11-28T00:17:49.459   2216498284.1
RECEIVE_FREQ_1 =   2022-11-28T00:17:59.482   2216498282.6
RECEIVE_FREQ_1 =   2022-11-28T00:18:09.418   2216498281.5
RECEIVE_FREQ_1 =   2022-11-28T00:18:19.440   2216498280.4
RECEIVE_FREQ_1 =   2022-11-28T00:18:29.462   2216498279.1
RECEIVE_FREQ_1 =   2022-11-28T00:18:39.398   2216498277.7
RECEIVE_FREQ_1 =   2022-11-28T00:18:49.421   2216498276.4
RECEIVE_FREQ_1 =   2022-11-28T00:18:59.443   2216498275.1
RECEIVE_FREQ_1 =   2022-11-28T00:19:09.466   2216498274.1
RECEIVE_FREQ_1 =   2022-11-28T00:19:19.402   2216498272.7
RECEIVE_FREQ_1 =   2022-11-28T00:19:29.424   2216498271.7
RECEIVE_FREQ_1 =   2022-11-28T00:19:39.446   2216498270.7
RECEIVE_FREQ_1 =   2022-11-28T00:19:49.469   2216498269.2
RECEIVE_FREQ_1 =   2022-11-28T00:19:59.491   2216498267.9
RECEIVE_FREQ_1 =   2022-11-28T00:20:09.427   2216498266.755
RECEIVE_FREQ_1 =   2022-11-28T00:20:19.450   2216498265.355
RECEIVE_FREQ_1 =   2022-11-28T00:20:29.472   2216498263.955
RECEIVE_FREQ_1 =   2022-11-28T00:20:39.408   2216498262.255
RECEIVE_FREQ_1 =   2022-11-28T00:20:49.430   2216498261.355
RECEIVE_FREQ_1 =   2022-11-28T00:20:59.453   2216498260.355
RECEIVE_FREQ_1 =   2022-11-28T00:21:09.475   2216498259.155
RECEIVE_FREQ_1 =   2022-11-28T00:21:19.411   2216498257.855
RECEIVE_FREQ_1 =   2022-11-28T00:21:29.434   2216498256.355
RECEIVE_FREQ_1 =   2022-11-28T00:21:49.478   2216498253.955
RECEIVE_FREQ_1 =   2022-11-28T00:21:59.414   2216498252.555
RECEIVE_FREQ_1 =   2022-11-28T00:22:09.437   2216498251.155
RECEIVE_FREQ_1 =   2022-11-28T00:22:19.459   2216498249.855
RECEIVE_FREQ_1 =   2022-11-28T00:22:29.482   2216498248.955
RECEIVE_FREQ_1 =   2022-11-28T00:22:39.418   2216498247.655
RECEIVE_FREQ_1 =   2022-11-28T00:22:49.440   2216498246.055
RECEIVE_FREQ_1 =   2022-11-28T00:22:59.462   2216498244.555
RECEIVE_FREQ_1 =   2022-11-28T00:23:09.485   2216498243.655
RECEIVE_FREQ_1 =   2022-11-28T00:23:19.421   2216498242.455
RECEIVE_FREQ_1 =   2022-11-28T00:23:29.443   2216498240.755
RECEIVE_FREQ_1 =   2022-11-28T00:23:39.466   2216498239.955
RECEIVE_FREQ_1 =   2022-11-28T00:23:59.424   2216498237.155
RECEIVE_FREQ_1 =   2022-11-28T00:24:09.446   2216498235.855
RECEIVE_FREQ_1 =   2022-11-28T00:24:19.469   2216498234.555
RECEIVE_FREQ_1 =   2022-11-28T00:24:29.405   2216498233.155
RECEIVE_FREQ_1 =   2022-11-28T00:24:39.427   2216498232.055
RECEIVE_FREQ_1 =   2022-11-28T00:24:49.450   2216498230.655
RECEIVE_FREQ_1 =   2022-11-28T00:25:09.408   2216498228.255
RECEIVE_FREQ_1 =   2022-11-28T00:25:19.430   2216498226.955
RECEIVE_FREQ_1 =   2022-11-28T00:25:39.475   2216498224.155
RECEIVE_FREQ_1 =   2022-11-28T00:25:49.411   2216498222.855
RECEIVE_FREQ_1 =   2022-11-28T00:25:59.434   2216498221.455
RECEIVE_FREQ_1 =   2022-11-28T00:26:09.456   2216498220.255
RECEIVE_FREQ_1 =   2022-11-28T00:26:19.392   2216498218.955
RECEIVE_FREQ_1 =   2022-11-28T00:26:29.414   2216498217.7
RECEIVE_FREQ_1 =   2022-11-28T00:26:39.437   2216498216.055
RECEIVE_FREQ_1 =   2022-11-28T00:26:49.459   2216498215.055
RECEIVE_FREQ_1 =   2022-11-28T00:26:59.395   2216498213.655
RECEIVE_FREQ_1 =   2022-11-28T00:27:09.418   2216498212.155
RECEIVE_FREQ_1 =   2022-11-28T00:27:19.440   2216498211.455
RECEIVE_FREQ_1 =   2022-11-28T00:27:29.462   2216498209.755
RECEIVE_FREQ_1 =   2022-11-28T00:27:39.398   2216498208.655
RECEIVE_FREQ_1 =   2022-11-28T00:27:49.421   2216498207.155
RECEIVE_FREQ_1 =   2022-11-28T00:27:59.443   2216498205.455
RECEIVE_FREQ_1 =   2022-11-28T00:28:09.466   2216498204.355
RECEIVE_FREQ_1 =   2022-11-28T00:28:19.402   2216498203.655
RECEIVE_FREQ_1 =   2022-11-28T00:28:49.469   2216498199.055
RECEIVE_FREQ_1 =   2022-11-28T00:28:59.405   2216498197.655
RECEIVE_FREQ_1 =   2022-11-28T00:29:09.427   2216498196.355
RECEIVE_FREQ_1 =   2022-11-28T00:29:19.450   2216498195.255
RECEIVE_FREQ_1 =   2022-11-28T00:29:29.472   2216498193.855
RECEIVE_FREQ_1 =   2022-11-28T00:29:39.408   2216498192.455
RECEIVE_FREQ_1 =   2022-11-28T00:29:49.430   2216498190.955
RECEIVE_FREQ_1 =   2022-11-28T00:29:59.453   2216498190.055
RECEIVE_FREQ_1 =   2022-11-28T00:30:09.475   2216498188.455
RECEIVE_FREQ_1 =   2022-11-28T00:30:19.411   2216498186.955
RECEIVE_FREQ_1 =   2022-11-28T00:30:29.434   2216498185.755
RECEIVE_FREQ_1 =   2022-11-28T00:30:39.456   2216498184.255
RECEIVE_FREQ_1 =   2022-11-28T00:30:49.478   2216498183.155
RECEIVE_FREQ_1 =   2022-11-28T00:30:59.414   2216498182.055
RECEIVE_FREQ_1 =   2022-11-28T00:31:09.437   2216498180.655
RECEIVE_FREQ_1 =   2022-11-28T00:31:19.459   2216498179.255
RECEIVE_FREQ_1 =   2022-11-28T00:31:29.395   2216498177.555
RECEIVE_FREQ_1 =   2022-11-28T00:31:39.418   2216498176.555
RECEIVE_FREQ_1 =   2022-11-28T00:31:49.440   2216498175.555
RECEIVE_FREQ_1 =   2022-11-28T00:31:59.462   2216498173.755
RECEIVE_FREQ_1 =   2022-11-28T00:32:09.398   2216498172.155
RECEIVE_FREQ_1 =   2022-11-28T00:32:19.421   2216498170.855
RECEIVE_FREQ_1 =   2022-11-28T00:32:29.443   2216498169.455
RECEIVE_FREQ_1 =   2022-11-28T00:32:39.466   2216498168.555
RECEIVE_FREQ_1 =   2022-11-28T00:32:49.488   2216498166.855
RECEIVE_FREQ_1 =   2022-11-28T00:33:09.446   2216498164.055
RECEIVE_FREQ_1 =   2022-11-28T00:33:19.469   2216498162.655
RECEIVE_FREQ_1 =   2022-11-28T00:33:29.405   2216498161.555
RECEIVE_FREQ_1 =   2022-11-28T00:33:49.450   2216498158.555
RECEIVE_FREQ_1 =   2022-11-28T00:33:59.472   2216498157.355
RECEIVE_FREQ_1 =   2022-11-28T00:34:09.408   2216498155.755
RECEIVE_FREQ_1 =   2022-11-28T00:34:19.430   2216498154.755
RECEIVE_FREQ_1 =   2022-11-28T00:34:29.453   2216498153.155
RECEIVE_FREQ_1 =   2022-11-28T00:34:39.475   2216498151.855
RECEIVE_FREQ_1 =   2022-11-28T00:35:09.456   2216498147.955
RECEIVE_FREQ_1 =   2022-11-28T00:35:19.392   2216498146.355
RECEIVE_FREQ_1 =   2022-11-28T00:35:29.414   2216498145.155
RECEIVE_FREQ_1 =   2022-11-28T00:35:39.437   2216498144.155
RECEIVE_FREQ_1 =   2022-11-28T00:35:49.459   2216498142.455
RECEIVE_FREQ_1 =   2022-11-28T00:35:59.482   2216498141.655
RECEIVE_FREQ_1 =   2022-11-28T00:36:09.418   2216498140.455
RECEIVE_FREQ_1 =   2022-11-28T00:36:19.440   2216498139.155
RECEIVE_FREQ_1 =   2022-11-28T00:36:29.462   2216498138.055
RECEIVE_FREQ_1 =   2022-11-28T00:36:39.398   2216498136.655
RECEIVE_FREQ_1 =   2022-11-28T00:36:49.421   2216498135.355
RECEIVE_FREQ_1 =   2022-11-28T00:36:59.443   2216498134.355
RECEIVE_FREQ_1 =   2022-11-28T00:37:19.488   2216498131.655
RECEIVE_FREQ_1 =   2022-11-28T00:37:29.424   2216498130.355
RECEIVE_FREQ_1 =   2022-11-28T00:37:39.446   2216498129.355
RECEIVE_FREQ_1 =   2022-11-28T00:37:49.469   2216498127.655
RECEIVE_FREQ_1 =   2022-11-28T00:37:59.405   2216498126.655
RECEIVE_FREQ_1 =   2022-11-28T00:38:09.427   2216498125.255
RECEIVE_FREQ_1 =   2022-11-28T00:38:19.450   2216498124.155
RECEIVE_FREQ_1 =   2022-11-28T00:38:29.472   2216498123.155
RECEIVE_FREQ_1 =   2022-11-28T00:38:39.408   2216498121.655
RECEIVE_FREQ_1 =   2022-11-28T00:38:49.430   2216498120.455
RECEIVE_FREQ_1 =   2022-11-28T00:38:59.453   2216498118.955
RECEIVE_FREQ_1 =   2022-11-28T00:39:09.389   2216498117.955
RECEIVE_FREQ_1 =   2022-11-28T00:39:19.411   2216498116.755
RECEIVE_FREQ_1 =   2022-11-28T00:39:29.434   2216498115.455
RECEIVE_FREQ_1 =   2022-11-28T00:39:39.456   2216498114.155
RECEIVE_FREQ_1 =   2022-11-28T00:39:49.478   2216498112.955
RECEIVE_FREQ_1 =   2022-11-28T00:39:59.414   2216498111.655
RECEIVE_FREQ_1 =   2022-11-28T00:40:09.437   2216498110.255
RECEIVE_FREQ_1 =   2022-11-28T00:40:19.459   2216498109.355
RECEIVE_FREQ_1 =   2022-11-28T00:40:29.482   2216498107.855
RECEIVE_FREQ_1 =   2022-11-28T00:40:39.418   2216498106.555
RECEIVE_FREQ_1 =   2022-11-28T00:40:49.440   2216498105.055
RECEIVE_FREQ_1 =   2022-11-28T00:40:59.462   2216498104.255
RECEIVE_FREQ_1 =   2022-11-28T00:41:09.398   2216498102.755
RECEIVE_FREQ_1 =   2022-11-28T00:41:19.421   2216498101.255
RECEIVE_FREQ_1 =   2022-11-28T00:41:29.443   2216498100.155
RECEIVE_FREQ_1 =   2022-11-28T00:41:39.466   2216498098.755
RECEIVE_FREQ_1 =   2022-11-28T00:41:49.402   2216498097.555
RECEIVE_FREQ_1 =   2022-11-28T00:41:59.510   2216498096.255
RECEIVE_FREQ_1 =   2022-11-28T00:42:09.533   2216498094.755
RECEIVE_FREQ_1 =   2022-11-28T00:42:19.469   2216498093.555
RECEIVE_FREQ_1 =   2022-11-28T00:42:29.405   2216498092.455
RECEIVE_FREQ_1 =   2022-11-28T00:42:39.427   2216498091.255
RECEIVE_FREQ_1 =   2022-11-28T00:42:49.450   2216498090.155
RECEIVE_FREQ_1 =   2022-11-28T00:42:59.472   2216498089.055
RECEIVE_FREQ_1 =   2022-11-28T00:43:09.408   2216498087.455
RECEIVE_FREQ_1 =   2022-11-28T00:43:19.430   2216498086.355
RECEIVE_FREQ_1 =   2022-11-28T00:43:29.453   2216498084.655
RECEIVE_FREQ_1 =   2022-11-28T00:43:39.389   2216498083.655
RECEIVE_FREQ_1 =   2022-11-28T00:43:49.411   2216498082.355
RECEIVE_FREQ_1 =   2022-11-28T00:43:59.434   2216498081.155
RECEIVE_FREQ_1 =   2022-11-28T00:44:09.456   2216498079.555
RECEIVE_FREQ_1 =   2022-11-28T00:44:19.392   2216498078.355
RECEIVE_FREQ_1 =   2022-11-28T00:44:29.414   2216498076.855
RECEIVE_FREQ_1 =   2022-11-28T00:44:39.437   2216498075.855
RECEIVE_FREQ_1 =   2022-11-28T00:44:49.459   2216498074.255
RECEIVE_FREQ_1 =   2022-11-28T00:44:59.395   2216498073.255
RECEIVE_FREQ_1 =   2022-11-28T00:45:09.418   2216498071.955
RECEIVE_FREQ_1 =   2022-11-28T00:45:19.440   2216498070.755
RECEIVE_FREQ_1 =   2022-11-28T00:45:29.462   2216498069.055
RECEIVE_FREQ_1 =   2022-11-28T00:45:39.485   2216498068.255
RECEIVE_FREQ_1 =   2022-11-28T00:45:49.421   2216498066.555
RECEIVE_FREQ_1 =   2022-11-28T00:45:59.443   2216498065.255
RECEIVE_FREQ_1 =   2022-11-28T00:46:09.466   2216498063.855
RECEIVE_FREQ_1 =   2022-11-28T00:46:19.402   2216498062.455
RECEIVE_FREQ_1 =   2022-11-28T00:46:29.424   2216498061.455
RECEIVE_FREQ_1 =   2022-11-28T00:46:39.446   2216498059.955
RECEIVE_FREQ_1 =   2022-11-28T00:46:49.469   2216498058.955
RECEIVE_FREQ_1 =   2022-11-28T00:46:59.491   2216498057.455
RECEIVE_FREQ_1 =   2022-11-28T00:47:09.427   2216498056.255
RECEIVE_FREQ_1 =   2022-11-28T00:47:19.450   2216498054.955
RECEIVE_FREQ_1 =   2022-11-28T00:47:29.472   2216498053.655
RECEIVE_FREQ_1 =   2022-11-28T00:47:39.408   2216498052.155
RECEIVE_FREQ_1 =   2022-11-28T00:47:49.430   2216498050.655
RECEIVE_FREQ_1 =   2022-11-28T00:47:59.453   2216498049.355
RECEIVE_FREQ_1 =   2022-11-28T00:48:09.475   2216498048.355
RECEIVE_FREQ_1 =   2022-11-28T00:48:19.411   2216498046.555
RECEIVE_FREQ_1 =   2022-11-28T00:48:29.434   2216498045.655
RECEIVE_FREQ_1 =   2022-11-28T00:48:39.456   2216498044.355
RECEIVE_FREQ_1 =   2022-11-28T00:48:49.392   2216498042.955
RECEIVE_FREQ_1 =   2022-11-28T00:48:59.414   2216498041.755
RECEIVE_FREQ_1 =   2022-11-28T00:49:09.437   2216498040.555
RECEIVE_FREQ_1 =   2022-11-28T00:49:19.459   2216498039.255
RECEIVE_FREQ_1 =   2022-11-28T00:49:29.395   2216498037.655
RECEIVE_FREQ_1 =   2022-11-28T00:49:39.418   2216498036.855
RECEIVE_FREQ_1 =   2022-11-28T00:49:49.440   2216498035.055
RECEIVE_FREQ_1 =   2022-11-28T00:49:59.462   2216498033.255
RECEIVE_FREQ_1 =   2022-11-28T00:50:09.398   2216498032.455
RECEIVE_FREQ_1 =   2022-11-28T00:50:19.421   2216498031.055
RECEIVE_FREQ_1 =   2022-11-28T00:50:39.466   2216498028.455
RECEIVE_FREQ_1 =   2022-11-28T00:50:49.402   2216498026.755
RECEIVE_FREQ_1 =   2022-11-28T00:50:59.424   2216498025.655
RECEIVE_FREQ_1 =   2022-11-28T00:51:09.446   2216498024.155
RECEIVE_FREQ_1 =   2022-11-28T00:51:29.405   2216498021.655
RECEIVE_FREQ_1 =   2022-11-28T00:51:39.427   2216498020.055
RECEIVE_FREQ_1 =   2022-11-28T00:51:49.450   2216498018.955
RECEIVE_FREQ_1 =   2022-11-28T00:51:59.386   2216498017.555
RECEIVE_FREQ_1 =   2022-11-28T00:52:09.408   2216498016.655
RECEIVE_FREQ_1 =   2022-11-28T00:52:19.430   2216498014.755
RECEIVE_FREQ_1 =   2022-11-28T00:52:29.453   2216498013.455
RECEIVE_FREQ_1 =   2022-11-28T00:52:39.389   2216498012.055
RECEIVE_FREQ_1 =   2022-11-28T00:52:49.411   2216498010.955
RECEIVE_FREQ_1 =   2022-11-28T00:52:59.434   2216498009.755
RECEIVE_FREQ_1 =   2022-11-28T00:53:09.456   2216498008.055
RECEIVE_FREQ_1 =   2022-11-28T00:53:19.392   2216498006.555
RECEIVE_FREQ_1 =   2022-11-28T00:53:29.414   2216498005.355
RECEIVE_FREQ_1 =   2022-11-28T00:53:39.437   2216498004.155
RECEIVE_FREQ_1 =   2022-11-28T00:53:59.482   2216498001.255
RECEIVE_FREQ_1 =   2022-11-28T00:54:09.418   2216497999.755
RECEIVE_FREQ_1 =   2022-11-28T00:54:29.462   2216497997.455
RECEIVE_FREQ_1 =   2022-11-28T00:54:39.485   2216497995.955
RECEIVE_FREQ_1 =   2022-11-28T00:54:49.421   2216497994.655
RECEIVE_FREQ_1 =   2022-11-28T00:54:59.443   2216497993.255
RECEIVE_FREQ_1 =   2022-11-28T00:55:19.402   2216497990.755
RECEIVE_FREQ_1 =   2022-11-28T00:55:29.424   2216497989.955
RECEIVE_FREQ_1 =   2022-11-28T00:55:39.446   2216497988.355
RECEIVE_FREQ_1 =   2022-11-28T00:55:49.469   2216497987.555
RECEIVE_FREQ_1 =   2022-11-28T00:55:59.405   2216497986.055
RECEIVE_FREQ_1 =   2022-11-28T00:56:09.427   2216497984.955
RECEIVE_FREQ_1 =   2022-11-28T00:56:19.450   2216497983.755
RECEIVE_FREQ_1 =   2022-11-28T00:56:29.472   2216497982.655
RECEIVE_FREQ_1 =   2022-11-28T00:56:39.408   2216497981.155
RECEIVE_FREQ_1 =   2022-11-28T00:56:49.430   2216497980.055
RECEIVE_FREQ_1 =   2022-11-28T00:56:59.453   2216497978.555
RECEIVE_FREQ_1 =   2022-11-28T00:57:09.475   2216497977.555
RECEIVE_FREQ_1 =   2022-11-28T00:57:19.411   2216497976.155
RECEIVE_FREQ_1 =   2022-11-28T00:57:29.434   2216497974.555
RECEIVE_FREQ_1 =   2022-11-28T00:57:39.456   2216497973.155
RECEIVE_FREQ_1 =   2022-11-28T00:57:49.478   2216497971.255
RECEIVE_FREQ_1 =   2022-11-28T00:57:59.414   2216497971.355
RECEIVE_FREQ_1 =   2022-11-28T00:58:09.437   2216497970.055
RECEIVE_FREQ_1 =   2022-11-28T00:58:19.459   2216497968.755
RECEIVE_FREQ_1 =   2022-11-28T00:58:29.395   2216497967.455
RECEIVE_FREQ_1 =   2022-11-28T00:58:39.418   2216497966.055
RECEIVE_FREQ_1 =   2022-11-28T00:58:49.440   2216497965.255
RECEIVE_FREQ_1 =   2022-11-28T00:58:59.462   2216497963.955
RECEIVE_FREQ_1 =   2022-11-28T00:59:09.398   2216497962.355
RECEIVE_FREQ_1 =   2022-11-28T00:59:19.421   2216497961.055
RECEIVE_FREQ_1 =   2022-11-28T00:59:29.443   2216497959.955
RECEIVE_FREQ_1 =   2022-11-28T00:59:39.466   2216497958.855
RECEIVE_FREQ_1 =   2022-11-28T00:59:49.402   2216497957.455
RECEIVE_FREQ_1 =   2022-11-28T00:59:59.424   2216497955.955
RECEIVE_FREQ_1 =   2022-11-28T01:00:09.446   2216497954.855
RECEIVE_FREQ_1 =   2022-11-28T01:00:19.469   2216497953.655
RECEIVE_FREQ_1 =   2022-11-28T01:00:29.405   2216497952.655
RECEIVE_FREQ_1 =   2022-11-28T01:00:49.450   2216497950.055
RECEIVE_FREQ_1 =   2022-11-28T01:00:59.472   2216497948.855
RECEIVE_FREQ_1 =   2022-11-28T01:01:09.408   2216497947.555
RECEIVE_FREQ_1 =   2022-11-28T01:01:19.430   2216497945.955
RECEIVE_FREQ_1 =   2022-11-28T01:01:29.453   2216497945.155
RECEIVE_FREQ_1 =   2022-11-28T01:01:39.475   2216497943.655
RECEIVE_FREQ_1 =   2022-11-28T01:01:59.434   2216497941.055
RECEIVE_FREQ_1 =   2022-11-28T01:02:09.456   2216497939.955
RECEIVE_FREQ_1 =   2022-11-28T01:02:19.392   2216497938.655
RECEIVE_FREQ_1 =   2022-11-28T01:02:29.414   2216497937.355
RECEIVE_FREQ_1 =   2022-11-28T01:02:39.437   2216497936.455
RECEIVE_FREQ_1 =   2022-11-28T01:02:49.459   2216497934.855
RECEIVE_FREQ_1 =   2022-11-28T01:02:59.395   2216497933.855
RECEIVE_FREQ_1 =   2022-11-28T01:03:09.418   2216497931.955
RECEIVE_FREQ_1 =   2022-11-28T01:03:19.440   2216497931.055
RECEIVE_FREQ_1 =   2022-11-28T01:03:29.462   2216497928.555
RECEIVE_FREQ_1 =   2022-11-28T01:03:39.398   2216497928.355
RECEIVE_FREQ_1 =   2022-11-28T01:03:49.421   2216497926.655
RECEIVE_FREQ_1 =   2022-11-28T01:03:59.443   2216497925.755
RECEIVE_FREQ_1 =   2022-11-28T01:04:19.402   2216497923.155
RECEIVE_FREQ_1 =   2022-11-28T01:04:29.424   2216497921.755
RECEIVE_FREQ_1 =   2022-11-28T01:04:49.469   2216497919.455
RECEIVE_FREQ_1 =   2022-11-28T01:04:59.405   2216497917.955
RECEIVE_FREQ_1 =   2022-11-28T01:05:09.427   2216497917.255
RECEIVE_FREQ_1 =   2022-11-28T01:05:19.450   2216497915.555
RECEIVE_FREQ_1 =   2022-11-28T01:05:29.472   2216497914.455
RECEIVE_FREQ_1 =   2022-11-28T01:05:59.453   2216497910.155
RECEIVE_FREQ_1 =   2022-11-28T01:06:09.475   2216497908.755
RECEIVE_FREQ_1 =   2022-11-28T01:06:19.411   2216497907.555
RECEIVE_FREQ_1 =   2022-11-28T01:06:29.434   2216497906.255
RECEIVE_FREQ_1 =   2022-11-28T01:06:39.456   2216497905.255
RECEIVE_FREQ_1 =   2022-11-28T01:06:49.392   2216497903.855
RECEIVE_FREQ_1 =   2022-11-28T01:06:59.414   2216497902.655
RECEIVE_FREQ_1 =   2022-11-28T01:07:09.437   2216497901.255
RECEIVE_FREQ_1 =   2022-11-28T01:07:19.459   2216497899.755
RECEIVE_FREQ_1 =   2022-11-28T01:07:29.482   2216497898.355
RECEIVE_FREQ_1 =   2022-11-28T01:07:39.418   2216497897.255
RECEIVE_FREQ_1 =   2022-11-28T01:07:49.440   2216497896.155
RECEIVE_FREQ_1 =   2022-11-28T01:07:59.462   2216497894.455
RECEIVE_FREQ_1 =   2022-11-28T01:08:09.398   2216497893.655
RECEIVE_FREQ_1 =   2022-11-28T01:08:19.421   2216497892.155
RECEIVE_FREQ_1 =   2022-11-28T01:08:29.443   2216497890.755
RECEIVE_FREQ_1 =   2022-11-28T01:08:39.466   2216497889.655
RECEIVE_FREQ_1 =   2022-11-28T01:08:49.402   2216497887.955
RECEIVE_FREQ_1 =   2022-11-28T01:08:59.424   2216497886.855
RECEIVE_FREQ_1 =   2022-11-28T01:09:09.446   2216497885.455
RECEIVE_FREQ_1 =   2022-11-28T01:09:19.469   2216497884.455
RECEIVE_FREQ_1 =   2022-11-28T01:09:29.405   2216497883.255
RECEIVE_FREQ_1 =   2022-11-28T01:09:39.427   2216497881.855
RECEIVE_FREQ_1 =   2022-11-28T01:09:49.450   2216497880.255
RECEIVE_FREQ_1 =   2022-11-28T01:09:59.472   2216497879.055
RECEIVE_FREQ_1 =   2022-11-28T01:10:09.408   2216497877.755
RECEIVE_FREQ_1 =   2022-11-28T01:10:19.430   2216497876.355
RECEIVE_FREQ_1 =   2022-11-28T01:10:39.475   2216497873.755
RECEIVE_FREQ_1 =   2022-11-28T01:10:49.411   2216497872.355
RECEIVE_FREQ_1 =   2022-11-28T01:11:09.456   2216497869.255
RECEIVE_FREQ_1 =   2022-11-28T01:11:19.392   2216497868.755
RECEIVE_FREQ_1 =   2022-11-28T01:11:29.414   2216497867.055
RECEIVE_FREQ_1 =   2022-11-28T01:11:59.395   2216497863.355
RECEIVE_FREQ_1 =   2022-11-28T01:12:29.462   2216497858.955
RECEIVE_FREQ_1 =   2022-11-28T01:13:29.424   2216497851.055
RECEIVE_FREQ_1 =   2022-11-28T01:13:39.446   2216497849.555
RECEIVE_FREQ_1 =   2022-11-28T01:13:59.405   2216497846.455
RECEIVE_FREQ_1 =   2022-11-28T01:14:09.427   2216497846.055
RECEIVE_FREQ_1 =   2022-11-28T01:16:29.395   2216497828.555
RECEIVE_FREQ_1 =   2022-11-28T01:16:49.440   2216497826.355
RECEIVE_FREQ_1 =   2022-11-28T01:18:39.427   2216497813.055
RECEIVE_FREQ_1 =   2022-11-28T01:20:09.456   2216497801.855
RECEIVE_FREQ_1 =   2022-11-28T01:20:29.414   2216497798.955
RECEIVE_FREQ_1 =   2022-11-28T01:20:49.459   2216497796.455
RECEIVE_FREQ_1 =   2022-11-28T01:21:49.421   2216497787.955
RECEIVE_FREQ_1 =   2022-11-28T01:22:39.446   2216497783.255
RECEIVE_FREQ_1 =   2022-11-28T01:23:49.430   2216497774.155
RECEIVE_FREQ_1 =   2022-11-28T01:23:59.453   2216497773.355
RECEIVE_FREQ_1 =   2022-11-28T01:24:19.411   2216497770.955
RECEIVE_FREQ_1 =   2022-11-28T01:24:59.414   2216497765.355
RECEIVE_FREQ_1 =   2022-11-28T01:25:19.459   2216497762.955
RECEIVE_FREQ_1 =   2022-11-28T01:25:59.462   2216497757.855
RECEIVE_FREQ_1 =   2022-11-28T01:26:09.485   2216497756.655
RECEIVE_FREQ_1 =   2022-11-28T01:26:19.421   2216497755.155
RECEIVE_FREQ_1 =   2022-11-28T01:26:29.443   2216497754.055
RECEIVE_FREQ_1 =   2022-11-28T01:26:39.466   2216497753.055
RECEIVE_FREQ_1 =   2022-11-28T01:26:49.402   2216497751.755
DATA_STOP
