data/tdm/2022-12-08Z_2022-156A.tdm

CCSDS_TDM_VERS = 2.0
COMMENT TDM ARTEMIS 1 Doppler data by Scott Tilley for 2022-12-08 UTC
COMMENT Signal not demodulated, to low of SNR, centre carrier integrated in 10s by 0.1Hz bin and extracted for peak value.
CREATION_DATE = 2022-12-08Z
ORIGINATOR = SCOTT TILLEY

META_START
COMMENT 
COMMENT 
SYSTEM TIME = UTC
PARTICIPANT_1 = COSPAR 8049
PARTICIPANT_2 = 2022-156A
MODE = SEQUENTIAL
PATH = 2,1
INTEGRATION_INTERVAL = 10
INTEGRATION_REF = MIDDLE
FREQ_OFFSET = 0
TRANSMIT_DELAY_1 = 0
RECEIVE_DELAY_1 = 0
DATA_QUALITY = RAW
META_STOP

DATA_START
RECEIVE_FREQ_1 =   2022-12-09T02:15:02.419   2216505599.8
RECEIVE_FREQ_1 =   2022-12-09T02:15:12.442   2216505599.1
RECEIVE_FREQ_1 =   2022-12-09T02:15:22.464   2216505598.6
RECEIVE_FREQ_1 =   2022-12-09T02:15:32.486   2216505597.6
RECEIVE_FREQ_1 =   2022-12-09T02:15:42.422   2216505596.9
RECEIVE_FREQ_1 =   2022-12-09T02:15:52.445   2216505596.1
RECEIVE_FREQ_1 =   2022-12-09T02:16:02.467   2216505595.8
RECEIVE_FREQ_1 =   2022-12-09T02:16:12.490   2216505595.0
RECEIVE_FREQ_1 =   2022-12-09T02:16:22.426   2216505593.9
RECEIVE_FREQ_1 =   2022-12-09T02:16:32.448   2216505593.3
RECEIVE_FREQ_1 =   2022-12-09T02:16:42.470   2216505592.6
RECEIVE_FREQ_1 =   2022-12-09T02:16:52.493   2216505591.9
RECEIVE_FREQ_1 =   2022-12-09T02:17:02.429   2216505591.1
RECEIVE_FREQ_1 =   2022-12-09T02:17:12.451   2216505590.5
RECEIVE_FREQ_1 =   2022-12-09T02:17:22.474   2216505589.9
RECEIVE_FREQ_1 =   2022-12-09T02:17:32.410   2216505589.0
RECEIVE_FREQ_1 =   2022-12-09T02:17:42.432   2216505588.3
RECEIVE_FREQ_1 =   2022-12-09T02:17:52.454   2216505587.6
RECEIVE_FREQ_1 =   2022-12-09T02:18:02.477   2216505586.8
RECEIVE_FREQ_1 =   2022-12-09T02:18:12.413   2216505586.2
RECEIVE_FREQ_1 =   2022-12-09T02:18:22.435   2216505585.6
RECEIVE_FREQ_1 =   2022-12-09T02:18:32.458   2216505584.7
RECEIVE_FREQ_1 =   2022-12-09T02:18:42.480   2216505583.9
RECEIVE_FREQ_1 =   2022-12-09T02:18:52.416   2216505583.2
RECEIVE_FREQ_1 =   2022-12-09T02:19:02.438   2216505582.6
RECEIVE_FREQ_1 =   2022-12-09T02:19:12.461   2216505581.9
RECEIVE_FREQ_1 =   2022-12-09T02:19:22.483   2216505581.3
RECEIVE_FREQ_1 =   2022-12-09T02:19:32.419   2216505580.6
RECEIVE_FREQ_1 =   2022-12-09T02:19:42.442   2216505579.5
RECEIVE_FREQ_1 =   2022-12-09T02:19:52.464   2216505578.9
RECEIVE_FREQ_1 =   2022-12-09T02:20:02.486   2216505578.2
RECEIVE_FREQ_1 =   2022-12-09T02:20:12.422   2216505577.4
RECEIVE_FREQ_1 =   2022-12-09T02:20:22.445   2216505576.8
RECEIVE_FREQ_1 =   2022-12-09T02:20:32.467   2216505575.9
RECEIVE_FREQ_1 =   2022-12-09T02:20:42.490   2216505575.3
RECEIVE_FREQ_1 =   2022-12-09T02:20:52.426   2216505574.5
RECEIVE_FREQ_1 =   2022-12-09T02:21:02.448   2216505573.7
RECEIVE_FREQ_1 =   2022-12-09T02:21:12.470   2216505573.1
RECEIVE_FREQ_1 =   2022-12-09T02:21:22.493   2216505572.3
RECEIVE_FREQ_1 =   2022-12-09T02:21:32.429   2216505571.6
RECEIVE_FREQ_1 =   2022-12-09T02:21:42.451   2216505570.9
RECEIVE_FREQ_1 =   2022-12-09T02:21:52.474   2216505570.2
RECEIVE_FREQ_1 =   2022-12-09T02:22:02.410   2216505569.4
RECEIVE_FREQ_1 =   2022-12-09T02:22:12.432   2216505568.8
RECEIVE_FREQ_1 =   2022-12-09T02:22:22.454   2216505567.9
RECEIVE_FREQ_1 =   2022-12-09T02:22:32.477   2216505567.6
RECEIVE_FREQ_1 =   2022-12-09T02:22:42.499   2216505566.7
RECEIVE_FREQ_1 =   2022-12-09T02:22:52.435   2216505566.0
RECEIVE_FREQ_1 =   2022-12-09T02:23:02.458   2216505565.4
RECEIVE_FREQ_1 =   2022-12-09T02:23:12.480   2216505564.2
RECEIVE_FREQ_1 =   2022-12-09T02:23:22.416   2216505563.9
RECEIVE_FREQ_1 =   2022-12-09T02:23:32.438   2216505563.0
RECEIVE_FREQ_1 =   2022-12-09T02:23:42.461   2216505562.4
RECEIVE_FREQ_1 =   2022-12-09T02:23:52.483   2216505561.9
RECEIVE_FREQ_1 =   2022-12-09T02:24:02.419   2216505561.2
RECEIVE_FREQ_1 =   2022-12-09T02:24:12.442   2216505560.2
RECEIVE_FREQ_1 =   2022-12-09T02:24:22.464   2216505559.4
RECEIVE_FREQ_1 =   2022-12-09T02:24:32.486   2216505558.9
RECEIVE_FREQ_1 =   2022-12-09T02:24:42.422   2216505558.0
RECEIVE_FREQ_1 =   2022-12-09T02:24:52.445   2216505557.3
RECEIVE_FREQ_1 =   2022-12-09T02:25:02.467   2216505556.7
RECEIVE_FREQ_1 =   2022-12-09T02:25:12.490   2216505555.9
RECEIVE_FREQ_1 =   2022-12-09T02:25:22.426   2216505555.3
RECEIVE_FREQ_1 =   2022-12-09T02:25:32.448   2216505554.7
RECEIVE_FREQ_1 =   2022-12-09T02:25:42.470   2216505553.8
RECEIVE_FREQ_1 =   2022-12-09T02:25:52.406   2216505553.0
RECEIVE_FREQ_1 =   2022-12-09T02:26:02.429   2216505552.4
RECEIVE_FREQ_1 =   2022-12-09T02:26:12.451   2216505551.9
RECEIVE_FREQ_1 =   2022-12-09T02:26:22.474   2216505551.0
RECEIVE_FREQ_1 =   2022-12-09T02:26:32.496   2216505550.3
RECEIVE_FREQ_1 =   2022-12-09T02:26:42.432   2216505549.8
RECEIVE_FREQ_1 =   2022-12-09T02:26:52.454   2216505548.9
RECEIVE_FREQ_1 =   2022-12-09T02:27:02.477   2216505548.3
RECEIVE_FREQ_1 =   2022-12-09T02:27:12.413   2216505547.4
RECEIVE_FREQ_1 =   2022-12-09T02:27:22.435   2216505546.8
RECEIVE_FREQ_1 =   2022-12-09T02:27:32.458   2216505546.1
RECEIVE_FREQ_1 =   2022-12-09T02:27:42.480   2216505545.3
RECEIVE_FREQ_1 =   2022-12-09T02:27:52.416   2216505544.7
RECEIVE_FREQ_1 =   2022-12-09T02:28:02.438   2216505544.0
RECEIVE_FREQ_1 =   2022-12-09T02:28:12.461   2216505543.2
RECEIVE_FREQ_1 =   2022-12-09T02:28:22.483   2216505542.5
RECEIVE_FREQ_1 =   2022-12-09T02:28:32.419   2216505542.1
RECEIVE_FREQ_1 =   2022-12-09T02:28:42.442   2216505541.0
RECEIVE_FREQ_1 =   2022-12-09T02:28:52.464   2216505540.7
RECEIVE_FREQ_1 =   2022-12-09T02:29:02.486   2216505539.6
RECEIVE_FREQ_1 =   2022-12-09T02:29:12.422   2216505539.0
RECEIVE_FREQ_1 =   2022-12-09T02:29:22.445   2216505538.4
RECEIVE_FREQ_1 =   2022-12-09T02:29:32.467   2216505537.8
RECEIVE_FREQ_1 =   2022-12-09T02:29:42.490   2216505537.1
RECEIVE_FREQ_1 =   2022-12-09T02:29:52.426   2216505536.3
RECEIVE_FREQ_1 =   2022-12-09T02:30:02.448   2216505535.5
RECEIVE_FREQ_1 =   2022-12-09T02:30:12.470   2216505534.3
RECEIVE_FREQ_1 =   2022-12-09T02:30:22.493   2216505533.2
RECEIVE_FREQ_1 =   2022-12-09T02:30:32.429   2216505532.6
RECEIVE_FREQ_1 =   2022-12-09T02:30:42.451   2216505531.8
RECEIVE_FREQ_1 =   2022-12-09T02:30:52.474   2216505531.0
RECEIVE_FREQ_1 =   2022-12-09T02:31:02.410   2216505530.5
RECEIVE_FREQ_1 =   2022-12-09T02:31:12.432   2216505529.6
RECEIVE_FREQ_1 =   2022-12-09T02:31:22.454   2216505528.7
RECEIVE_FREQ_1 =   2022-12-09T02:31:32.477   2216505528.1
RECEIVE_FREQ_1 =   2022-12-09T02:31:42.413   2216505527.2
RECEIVE_FREQ_1 =   2022-12-09T02:31:52.435   2216505526.7
RECEIVE_FREQ_1 =   2022-12-09T02:32:02.458   2216505525.8
RECEIVE_FREQ_1 =   2022-12-09T02:32:12.480   2216505524.9
RECEIVE_FREQ_1 =   2022-12-09T02:32:22.416   2216505524.2
RECEIVE_FREQ_1 =   2022-12-09T02:32:32.438   2216505523.4
RECEIVE_FREQ_1 =   2022-12-09T02:32:42.461   2216505522.9
RECEIVE_FREQ_1 =   2022-12-09T02:32:52.483   2216505522.0
RECEIVE_FREQ_1 =   2022-12-09T02:33:02.419   2216505521.3
RECEIVE_FREQ_1 =   2022-12-09T02:33:12.442   2216505520.4
RECEIVE_FREQ_1 =   2022-12-09T02:33:22.464   2216505519.6
RECEIVE_FREQ_1 =   2022-12-09T02:33:32.486   2216505519.0
RECEIVE_FREQ_1 =   2022-12-09T02:33:42.422   2216505518.0
RECEIVE_FREQ_1 =   2022-12-09T02:33:52.445   2216505517.3
RECEIVE_FREQ_1 =   2022-12-09T02:34:02.467   2216505516.3
RECEIVE_FREQ_1 =   2022-12-09T02:34:12.490   2216505516.0
RECEIVE_FREQ_1 =   2022-12-09T02:34:22.426   2216505514.8
RECEIVE_FREQ_1 =   2022-12-09T02:34:32.448   2216505514.4
RECEIVE_FREQ_1 =   2022-12-09T02:34:42.470   2216505513.3
RECEIVE_FREQ_1 =   2022-12-09T02:34:52.493   2216505512.5
RECEIVE_FREQ_1 =   2022-12-09T02:35:02.429   2216505511.7
RECEIVE_FREQ_1 =   2022-12-09T02:35:12.451   2216505511.1
RECEIVE_FREQ_1 =   2022-12-09T02:35:22.474   2216505510.1
RECEIVE_FREQ_1 =   2022-12-09T02:35:32.496   2216505509.4
RECEIVE_FREQ_1 =   2022-12-09T02:35:42.432   2216505508.6
RECEIVE_FREQ_1 =   2022-12-09T02:35:52.454   2216505507.9
RECEIVE_FREQ_1 =   2022-12-09T02:36:02.477   2216505507.1
RECEIVE_FREQ_1 =   2022-12-09T02:36:12.413   2216505506.1
RECEIVE_FREQ_1 =   2022-12-09T02:36:22.435   2216505505.6
RECEIVE_FREQ_1 =   2022-12-09T02:36:32.458   2216505504.7
RECEIVE_FREQ_1 =   2022-12-09T02:36:42.480   2216505503.7
RECEIVE_FREQ_1 =   2022-12-09T02:36:52.416   2216505502.8
RECEIVE_FREQ_1 =   2022-12-09T02:37:02.438   2216505502.1
RECEIVE_FREQ_1 =   2022-12-09T02:37:12.461   2216505501.3
RECEIVE_FREQ_1 =   2022-12-09T02:37:22.483   2216505500.5
RECEIVE_FREQ_1 =   2022-12-09T02:37:32.419   2216505499.7
RECEIVE_FREQ_1 =   2022-12-09T02:37:42.442   2216505498.9
RECEIVE_FREQ_1 =   2022-12-09T02:37:52.464   2216505498.1
RECEIVE_FREQ_1 =   2022-12-09T02:38:02.486   2216505497.0
RECEIVE_FREQ_1 =   2022-12-09T02:38:12.422   2216505496.2
RECEIVE_FREQ_1 =   2022-12-09T02:38:22.445   2216505495.6
RECEIVE_FREQ_1 =   2022-12-09T02:38:32.467   2216505494.5
RECEIVE_FREQ_1 =   2022-12-09T02:38:42.490   2216505493.9
RECEIVE_FREQ_1 =   2022-12-09T02:38:52.426   2216505493.1
RECEIVE_FREQ_1 =   2022-12-09T02:39:02.448   2216505492.2
RECEIVE_FREQ_1 =   2022-12-09T02:39:12.470   2216505491.3
RECEIVE_FREQ_1 =   2022-12-09T02:39:22.493   2216505490.5
RECEIVE_FREQ_1 =   2022-12-09T02:39:32.429   2216505489.6
RECEIVE_FREQ_1 =   2022-12-09T02:39:42.451   2216505488.5
RECEIVE_FREQ_1 =   2022-12-09T02:39:52.474   2216505488.1
RECEIVE_FREQ_1 =   2022-12-09T02:40:02.496   2216505487.0
RECEIVE_FREQ_1 =   2022-12-09T02:40:12.432   2216505486.3
RECEIVE_FREQ_1 =   2022-12-09T02:40:22.454   2216505485.2
RECEIVE_FREQ_1 =   2022-12-09T02:40:32.477   2216505484.6
RECEIVE_FREQ_1 =   2022-12-09T02:40:42.413   2216505483.7
RECEIVE_FREQ_1 =   2022-12-09T02:40:52.435   2216505482.6
RECEIVE_FREQ_1 =   2022-12-09T02:41:02.458   2216505481.8
RECEIVE_FREQ_1 =   2022-12-09T02:41:12.480   2216505480.8
RECEIVE_FREQ_1 =   2022-12-09T02:41:22.416   2216505480.2
RECEIVE_FREQ_1 =   2022-12-09T02:41:32.438   2216505479.4
RECEIVE_FREQ_1 =   2022-12-09T02:41:42.461   2216505478.6
RECEIVE_FREQ_1 =   2022-12-09T02:41:52.483   2216505477.7
RECEIVE_FREQ_1 =   2022-12-09T02:42:02.419   2216505476.6
RECEIVE_FREQ_1 =   2022-12-09T02:42:12.442   2216505476.0
RECEIVE_FREQ_1 =   2022-12-09T02:42:22.464   2216505475.0
RECEIVE_FREQ_1 =   2022-12-09T02:42:32.486   2216505474.2
RECEIVE_FREQ_1 =   2022-12-09T02:42:42.422   2216505473.2
RECEIVE_FREQ_1 =   2022-12-09T02:42:52.445   2216505472.4
RECEIVE_FREQ_1 =   2022-12-09T02:43:02.467   2216505471.2
RECEIVE_FREQ_1 =   2022-12-09T02:43:12.490   2216505470.6
RECEIVE_FREQ_1 =   2022-12-09T02:43:22.426   2216505469.9
RECEIVE_FREQ_1 =   2022-12-09T02:43:32.448   2216505468.4
RECEIVE_FREQ_1 =   2022-12-09T02:43:42.470   2216505467.8
RECEIVE_FREQ_1 =   2022-12-09T02:43:52.493   2216505467.2
RECEIVE_FREQ_1 =   2022-12-09T02:44:02.429   2216505465.7
RECEIVE_FREQ_1 =   2022-12-09T02:44:12.451   2216505465.1
RECEIVE_FREQ_1 =   2022-12-09T02:44:22.474   2216505464.1
RECEIVE_FREQ_1 =   2022-12-09T02:44:32.496   2216505463.3
RECEIVE_FREQ_1 =   2022-12-09T02:44:42.432   2216505462.2
RECEIVE_FREQ_1 =   2022-12-09T02:44:52.454   2216505461.7
RECEIVE_FREQ_1 =   2022-12-09T02:45:02.477   2216505460.5
RECEIVE_FREQ_1 =   2022-12-09T02:45:12.413   2216505459.6
RECEIVE_FREQ_1 =   2022-12-09T02:45:22.435   2216505458.5
RECEIVE_FREQ_1 =   2022-12-09T02:45:32.458   2216505457.8
RECEIVE_FREQ_1 =   2022-12-09T02:45:42.480   2216505457.0
RECEIVE_FREQ_1 =   2022-12-09T02:45:52.416   2216505456.0
RECEIVE_FREQ_1 =   2022-12-09T02:46:02.438   2216505454.7
RECEIVE_FREQ_1 =   2022-12-09T02:46:12.461   2216505454.1
RECEIVE_FREQ_1 =   2022-12-09T02:46:22.483   2216505453.1
RECEIVE_FREQ_1 =   2022-12-09T02:46:32.419   2216505452.5
RECEIVE_FREQ_1 =   2022-12-09T02:46:42.442   2216505451.4
RECEIVE_FREQ_1 =   2022-12-09T02:46:52.464   2216505450.5
RECEIVE_FREQ_1 =   2022-12-09T02:47:02.486   2216505449.5
RECEIVE_FREQ_1 =   2022-12-09T02:47:12.422   2216505448.8
RECEIVE_FREQ_1 =   2022-12-09T02:47:22.445   2216505447.9
RECEIVE_FREQ_1 =   2022-12-09T02:47:32.467   2216505447.4
RECEIVE_FREQ_1 =   2022-12-09T02:47:42.490   2216505446.3
RECEIVE_FREQ_1 =   2022-12-09T02:47:52.426   2216505445.5
RECEIVE_FREQ_1 =   2022-12-09T02:48:02.448   2216505444.4
RECEIVE_FREQ_1 =   2022-12-09T02:48:12.470   2216505444.2
RECEIVE_FREQ_1 =   2022-12-09T02:48:22.493   2216505442.9
RECEIVE_FREQ_1 =   2022-12-09T02:48:32.429   2216505442.1
RECEIVE_FREQ_1 =   2022-12-09T02:48:42.451   2216505441.3
RECEIVE_FREQ_1 =   2022-12-09T02:48:52.474   2216505440.4
RECEIVE_FREQ_1 =   2022-12-09T02:49:02.496   2216505439.7
RECEIVE_FREQ_1 =   2022-12-09T02:49:12.432   2216505439.0
RECEIVE_FREQ_1 =   2022-12-09T02:49:22.454   2216505437.9
RECEIVE_FREQ_1 =   2022-12-09T02:49:32.477   2216505437.3
RECEIVE_FREQ_1 =   2022-12-09T02:49:42.413   2216505436.3
RECEIVE_FREQ_1 =   2022-12-09T02:49:52.435   2216505435.6
RECEIVE_FREQ_1 =   2022-12-09T02:50:02.458   2216505434.8
RECEIVE_FREQ_1 =   2022-12-09T02:50:12.480   2216505433.8
RECEIVE_FREQ_1 =   2022-12-09T02:50:22.416   2216505433.4
RECEIVE_FREQ_1 =   2022-12-09T02:50:32.438   2216505432.2
RECEIVE_FREQ_1 =   2022-12-09T02:50:42.461   2216505431.5
RECEIVE_FREQ_1 =   2022-12-09T02:50:52.483   2216505430.6
RECEIVE_FREQ_1 =   2022-12-09T02:51:02.419   2216505429.8
RECEIVE_FREQ_1 =   2022-12-09T02:51:12.442   2216505428.8
RECEIVE_FREQ_1 =   2022-12-09T02:51:22.464   2216505427.8
RECEIVE_FREQ_1 =   2022-12-09T02:51:32.486   2216505427.1
RECEIVE_FREQ_1 =   2022-12-09T02:51:42.422   2216505426.2
RECEIVE_FREQ_1 =   2022-12-09T02:51:52.445   2216505425.5
RECEIVE_FREQ_1 =   2022-12-09T02:52:02.467   2216505424.9
RECEIVE_FREQ_1 =   2022-12-09T02:52:12.490   2216505423.9
RECEIVE_FREQ_1 =   2022-12-09T02:52:22.426   2216505422.9
RECEIVE_FREQ_1 =   2022-12-09T02:52:32.448   2216505422.0
RECEIVE_FREQ_1 =   2022-12-09T02:52:42.470   2216505421.2
RECEIVE_FREQ_1 =   2022-12-09T02:52:52.406   2216505420.3
RECEIVE_FREQ_1 =   2022-12-09T02:53:02.429   2216505419.5
RECEIVE_FREQ_1 =   2022-12-09T02:53:12.451   2216505418.3
RECEIVE_FREQ_1 =   2022-12-09T02:53:22.474   2216505418.0
RECEIVE_FREQ_1 =   2022-12-09T02:53:32.496   2216505416.8
RECEIVE_FREQ_1 =   2022-12-09T02:53:42.432   2216505416.0
RECEIVE_FREQ_1 =   2022-12-09T02:53:52.454   2216505415.2
RECEIVE_FREQ_1 =   2022-12-09T02:54:02.477   2216505414.1
RECEIVE_FREQ_1 =   2022-12-09T02:54:12.413   2216505413.2
RECEIVE_FREQ_1 =   2022-12-09T02:54:22.435   2216505412.3
RECEIVE_FREQ_1 =   2022-12-09T02:54:32.458   2216505411.3
RECEIVE_FREQ_1 =   2022-12-09T02:54:42.480   2216505410.7
RECEIVE_FREQ_1 =   2022-12-09T02:54:52.416   2216505409.9
RECEIVE_FREQ_1 =   2022-12-09T02:55:02.438   2216505408.9
RECEIVE_FREQ_1 =   2022-12-09T02:55:12.461   2216505408.2
RECEIVE_FREQ_1 =   2022-12-09T02:55:22.483   2216505407.1
RECEIVE_FREQ_1 =   2022-12-09T02:55:32.419   2216505406.1
RECEIVE_FREQ_1 =   2022-12-09T02:55:42.442   2216505405.5
RECEIVE_FREQ_1 =   2022-12-09T02:55:52.464   2216505404.4
RECEIVE_FREQ_1 =   2022-12-09T02:56:02.486   2216505403.5
RECEIVE_FREQ_1 =   2022-12-09T02:56:12.422   2216505402.7
RECEIVE_FREQ_1 =   2022-12-09T02:56:22.445   2216505401.7
RECEIVE_FREQ_1 =   2022-12-09T02:56:32.467   2216505401.0
RECEIVE_FREQ_1 =   2022-12-09T02:56:42.490   2216505399.6
RECEIVE_FREQ_1 =   2022-12-09T02:56:52.426   2216505399.3
RECEIVE_FREQ_1 =   2022-12-09T02:57:02.448   2216505398.0
RECEIVE_FREQ_1 =   2022-12-09T02:57:12.470   2216505397.2
RECEIVE_FREQ_1 =   2022-12-09T02:57:22.493   2216505396.2
RECEIVE_FREQ_1 =   2022-12-09T02:57:32.429   2216505395.4
RECEIVE_FREQ_1 =   2022-12-09T02:57:42.451   2216505394.3
RECEIVE_FREQ_1 =   2022-12-09T02:57:52.474   2216505393.4
RECEIVE_FREQ_1 =   2022-12-09T02:58:02.410   2216505392.6
RECEIVE_FREQ_1 =   2022-12-09T02:58:12.432   2216505391.7
RECEIVE_FREQ_1 =   2022-12-09T02:58:22.454   2216505390.7
RECEIVE_FREQ_1 =   2022-12-09T02:58:32.477   2216505390.0
RECEIVE_FREQ_1 =   2022-12-09T02:58:42.499   2216505389.1
RECEIVE_FREQ_1 =   2022-12-09T02:58:52.435   2216505387.8
RECEIVE_FREQ_1 =   2022-12-09T02:59:02.458   2216505387.1
RECEIVE_FREQ_1 =   2022-12-09T02:59:12.480   2216505386.0
RECEIVE_FREQ_1 =   2022-12-09T02:59:22.416   2216505385.2
RECEIVE_FREQ_1 =   2022-12-09T02:59:32.438   2216505384.4
RECEIVE_FREQ_1 =   2022-12-09T02:59:42.461   2216505383.3
RECEIVE_FREQ_1 =   2022-12-09T02:59:52.483   2216505382.2
RECEIVE_FREQ_1 =   2022-12-09T03:00:02.506   2216505381.5
RECEIVE_FREQ_1 =   2022-12-09T03:00:12.442   2216505380.2
RECEIVE_FREQ_1 =   2022-12-09T03:00:22.464   2216505379.7
RECEIVE_FREQ_1 =   2022-12-09T03:00:32.486   2216505378.5
RECEIVE_FREQ_1 =   2022-12-09T03:00:42.422   2216505377.5
RECEIVE_FREQ_1 =   2022-12-09T03:00:52.445   2216505376.6
RECEIVE_FREQ_1 =   2022-12-09T03:01:02.467   2216505375.7
RECEIVE_FREQ_1 =   2022-12-09T03:01:12.490   2216505374.6
RECEIVE_FREQ_1 =   2022-12-09T03:01:22.426   2216505373.7
RECEIVE_FREQ_1 =   2022-12-09T03:01:32.448   2216505372.8
RECEIVE_FREQ_1 =   2022-12-09T03:01:42.470   2216505371.9
RECEIVE_FREQ_1 =   2022-12-09T03:01:52.406   2216505370.9
RECEIVE_FREQ_1 =   2022-12-09T03:02:02.429   2216505369.9
RECEIVE_FREQ_1 =   2022-12-09T03:02:12.451   2216505368.9
RECEIVE_FREQ_1 =   2022-12-09T03:02:22.474   2216505367.8
RECEIVE_FREQ_1 =   2022-12-09T03:02:32.496   2216505367.0
RECEIVE_FREQ_1 =   2022-12-09T03:02:42.432   2216505365.8
RECEIVE_FREQ_1 =   2022-12-09T03:02:52.454   2216505364.8
RECEIVE_FREQ_1 =   2022-12-09T03:03:02.477   2216505364.3
RECEIVE_FREQ_1 =   2022-12-09T03:03:12.499   2216505363.1
RECEIVE_FREQ_1 =   2022-12-09T03:03:22.435   2216505362.5
RECEIVE_FREQ_1 =   2022-12-09T03:03:32.458   2216505361.5
RECEIVE_FREQ_1 =   2022-12-09T03:03:42.480   2216505360.1
RECEIVE_FREQ_1 =   2022-12-09T03:03:52.416   2216505359.3
RECEIVE_FREQ_1 =   2022-12-09T03:04:02.438   2216505358.4
RECEIVE_FREQ_1 =   2022-12-09T03:04:12.461   2216505357.5
RECEIVE_FREQ_1 =   2022-12-09T03:04:22.483   2216505356.6
RECEIVE_FREQ_1 =   2022-12-09T03:04:32.419   2216505355.6
RECEIVE_FREQ_1 =   2022-12-09T03:04:42.442   2216505354.5
RECEIVE_FREQ_1 =   2022-12-09T03:04:52.464   2216505353.3
RECEIVE_FREQ_1 =   2022-12-09T03:05:02.486   2216505352.4
RECEIVE_FREQ_1 =   2022-12-09T03:05:12.422   2216505351.4
RECEIVE_FREQ_1 =   2022-12-09T03:05:22.445   2216505350.3
RECEIVE_FREQ_1 =   2022-12-09T03:05:32.467   2216505349.3
RECEIVE_FREQ_1 =   2022-12-09T03:05:42.490   2216505348.4
RECEIVE_FREQ_1 =   2022-12-09T03:05:52.426   2216505347.7
RECEIVE_FREQ_1 =   2022-12-09T03:06:02.448   2216505346.7
RECEIVE_FREQ_1 =   2022-12-09T03:06:12.470   2216505345.6
RECEIVE_FREQ_1 =   2022-12-09T03:06:22.493   2216505344.6
RECEIVE_FREQ_1 =   2022-12-09T03:06:32.429   2216505343.6
RECEIVE_FREQ_1 =   2022-12-09T03:06:42.451   2216505342.6
RECEIVE_FREQ_1 =   2022-12-09T03:06:52.474   2216505341.7
RECEIVE_FREQ_1 =   2022-12-09T03:07:02.410   2216505340.5
RECEIVE_FREQ_1 =   2022-12-09T03:07:12.432   2216505339.4
RECEIVE_FREQ_1 =   2022-12-09T03:07:22.454   2216505338.4
RECEIVE_FREQ_1 =   2022-12-09T03:07:32.477   2216505337.0
RECEIVE_FREQ_1 =   2022-12-09T03:07:42.499   2216505336.3
RECEIVE_FREQ_1 =   2022-12-09T03:07:52.435   2216505335.3
RECEIVE_FREQ_1 =   2022-12-09T03:08:02.458   2216505334.3
RECEIVE_FREQ_1 =   2022-12-09T03:08:12.480   2216505333.3
RECEIVE_FREQ_1 =   2022-12-09T03:08:22.416   2216505332.0
RECEIVE_FREQ_1 =   2022-12-09T03:08:32.438   2216505331.0
RECEIVE_FREQ_1 =   2022-12-09T03:08:42.461   2216505329.9
RECEIVE_FREQ_1 =   2022-12-09T03:08:52.483   2216505329.1
RECEIVE_FREQ_1 =   2022-12-09T03:09:02.419   2216505328.1
RECEIVE_FREQ_1 =   2022-12-09T03:09:12.442   2216505326.8
RECEIVE_FREQ_1 =   2022-12-09T03:09:22.464   2216505326.1
RECEIVE_FREQ_1 =   2022-12-09T03:09:32.486   2216505324.7
RECEIVE_FREQ_1 =   2022-12-09T03:09:42.422   2216505323.8
RECEIVE_FREQ_1 =   2022-12-09T03:09:52.445   2216505322.7
RECEIVE_FREQ_1 =   2022-12-09T03:10:02.467   2216505322.1
RECEIVE_FREQ_1 =   2022-12-09T03:10:12.490   2216505321.1
RECEIVE_FREQ_1 =   2022-12-09T03:10:22.426   2216505320.3
RECEIVE_FREQ_1 =   2022-12-09T03:10:32.448   2216505319.4
RECEIVE_FREQ_1 =   2022-12-09T03:10:42.470   2216505318.2
RECEIVE_FREQ_1 =   2022-12-09T03:10:52.493   2216505317.6
RECEIVE_FREQ_1 =   2022-12-09T03:11:02.429   2216505316.7
RECEIVE_FREQ_1 =   2022-12-09T03:11:12.451   2216505315.5
RECEIVE_FREQ_1 =   2022-12-09T03:11:22.474   2216505314.7
RECEIVE_FREQ_1 =   2022-12-09T03:11:32.410   2216505313.5
RECEIVE_FREQ_1 =   2022-12-09T03:11:42.432   2216505312.8
RECEIVE_FREQ_1 =   2022-12-09T03:11:52.454   2216505311.9
RECEIVE_FREQ_1 =   2022-12-09T03:12:02.477   2216505310.8
RECEIVE_FREQ_1 =   2022-12-09T03:12:12.413   2216505310.0
RECEIVE_FREQ_1 =   2022-12-09T03:12:22.435   2216505308.9
RECEIVE_FREQ_1 =   2022-12-09T03:12:32.458   2216505308.1
RECEIVE_FREQ_1 =   2022-12-09T03:12:42.480   2216505306.9
RECEIVE_FREQ_1 =   2022-12-09T03:12:52.416   2216505306.1
RECEIVE_FREQ_1 =   2022-12-09T03:13:02.438   2216505304.8
RECEIVE_FREQ_1 =   2022-12-09T03:13:12.461   2216505304.3
RECEIVE_FREQ_1 =   2022-12-09T03:13:22.483   2216505303.2
RECEIVE_FREQ_1 =   2022-12-09T03:13:32.419   2216505301.9
RECEIVE_FREQ_1 =   2022-12-09T03:13:42.442   2216505301.3
RECEIVE_FREQ_1 =   2022-12-09T03:13:52.464   2216505300.3
RECEIVE_FREQ_1 =   2022-12-09T03:14:02.486   2216505299.4
RECEIVE_FREQ_1 =   2022-12-09T03:14:12.422   2216505298.5
RECEIVE_FREQ_1 =   2022-12-09T03:14:22.445   2216505297.3
RECEIVE_FREQ_1 =   2022-12-09T03:14:32.467   2216505296.4
RECEIVE_FREQ_1 =   2022-12-09T03:14:42.490   2216505295.7
RECEIVE_FREQ_1 =   2022-12-09T03:14:52.426   2216505294.5
RECEIVE_FREQ_1 =   2022-12-09T03:15:02.448   2216505293.5
RECEIVE_FREQ_1 =   2022-12-09T03:15:12.470   2216505292.7
RECEIVE_FREQ_1 =   2022-12-09T03:15:22.406   2216505291.5
RECEIVE_FREQ_1 =   2022-12-09T03:15:32.429   2216505290.8
RECEIVE_FREQ_1 =   2022-12-09T03:15:42.451   2216505289.8
RECEIVE_FREQ_1 =   2022-12-09T03:15:52.474   2216505288.7
RECEIVE_FREQ_1 =   2022-12-09T03:16:02.496   2216505287.7
RECEIVE_FREQ_1 =   2022-12-09T03:16:12.432   2216505286.7
RECEIVE_FREQ_1 =   2022-12-09T03:16:22.454   2216505285.5
RECEIVE_FREQ_1 =   2022-12-09T03:16:32.477   2216505284.6
RECEIVE_FREQ_1 =   2022-12-09T03:16:42.413   2216505283.4
RECEIVE_FREQ_1 =   2022-12-09T03:16:52.435   2216505282.7
RECEIVE_FREQ_1 =   2022-12-09T03:17:02.458   2216505281.9
RECEIVE_FREQ_1 =   2022-12-09T03:17:12.480   2216505280.6
RECEIVE_FREQ_1 =   2022-12-09T03:17:22.416   2216505279.6
RECEIVE_FREQ_1 =   2022-12-09T03:17:32.438   2216505278.7
RECEIVE_FREQ_1 =   2022-12-09T03:17:42.461   2216505277.8
RECEIVE_FREQ_1 =   2022-12-09T03:17:52.483   2216505277.0
RECEIVE_FREQ_1 =   2022-12-09T03:18:02.506   2216505275.7
RECEIVE_FREQ_1 =   2022-12-09T03:18:12.442   2216505274.7
RECEIVE_FREQ_1 =   2022-12-09T03:18:22.464   2216505273.7
RECEIVE_FREQ_1 =   2022-12-09T03:18:32.486   2216505272.8
RECEIVE_FREQ_1 =   2022-12-09T03:18:42.422   2216505271.7
RECEIVE_FREQ_1 =   2022-12-09T03:18:52.445   2216505271.0
RECEIVE_FREQ_1 =   2022-12-09T03:19:02.467   2216505269.6
RECEIVE_FREQ_1 =   2022-12-09T03:19:12.490   2216505268.9
RECEIVE_FREQ_1 =   2022-12-09T03:19:22.426   2216505267.9
RECEIVE_FREQ_1 =   2022-12-09T03:19:32.448   2216505266.7
RECEIVE_FREQ_1 =   2022-12-09T03:19:42.470   2216505266.1
RECEIVE_FREQ_1 =   2022-12-09T03:19:52.406   2216505264.6
RECEIVE_FREQ_1 =   2022-12-09T03:20:02.429   2216505263.7
RECEIVE_FREQ_1 =   2022-12-09T03:20:12.451   2216505262.9
RECEIVE_FREQ_1 =   2022-12-09T03:20:22.474   2216505261.5
RECEIVE_FREQ_1 =   2022-12-09T03:20:32.496   2216505260.4
RECEIVE_FREQ_1 =   2022-12-09T03:20:42.432   2216505259.5
RECEIVE_FREQ_1 =   2022-12-09T03:20:52.454   2216505258.7
RECEIVE_FREQ_1 =   2022-12-09T03:21:02.477   2216505257.6
RECEIVE_FREQ_1 =   2022-12-09T03:21:12.413   2216505256.4
RECEIVE_FREQ_1 =   2022-12-09T03:21:22.435   2216505255.8
RECEIVE_FREQ_1 =   2022-12-09T03:21:32.458   2216505254.5
RECEIVE_FREQ_1 =   2022-12-09T03:21:42.480   2216505253.2
RECEIVE_FREQ_1 =   2022-12-09T03:21:52.416   2216505252.3
RECEIVE_FREQ_1 =   2022-12-09T03:22:02.438   2216505251.5
RECEIVE_FREQ_1 =   2022-12-09T03:22:12.461   2216505250.5
RECEIVE_FREQ_1 =   2022-12-09T03:22:22.483   2216505249.1
RECEIVE_FREQ_1 =   2022-12-09T03:22:32.419   2216505248.2
RECEIVE_FREQ_1 =   2022-12-09T03:22:42.442   2216505247.4
RECEIVE_FREQ_1 =   2022-12-09T03:22:52.464   2216505246.0
RECEIVE_FREQ_1 =   2022-12-09T03:23:02.486   2216505245.0
RECEIVE_FREQ_1 =   2022-12-09T03:23:12.422   2216505244.3
RECEIVE_FREQ_1 =   2022-12-09T03:23:22.445   2216505243.1
RECEIVE_FREQ_1 =   2022-12-09T03:23:32.467   2216505241.7
RECEIVE_FREQ_1 =   2022-12-09T03:23:42.490   2216505241.2
RECEIVE_FREQ_1 =   2022-12-09T03:23:52.426   2216505239.8
RECEIVE_FREQ_1 =   2022-12-09T03:24:02.448   2216505238.8
RECEIVE_FREQ_1 =   2022-12-09T03:24:12.470   2216505237.7
RECEIVE_FREQ_1 =   2022-12-09T03:24:22.493   2216505236.3
RECEIVE_FREQ_1 =   2022-12-09T03:24:32.429   2216505235.8
RECEIVE_FREQ_1 =   2022-12-09T03:24:42.451   2216505234.5
RECEIVE_FREQ_1 =   2022-12-09T03:24:52.474   2216505233.2
RECEIVE_FREQ_1 =   2022-12-09T03:25:02.496   2216505232.3
RECEIVE_FREQ_1 =   2022-12-09T03:25:12.432   2216505231.1
RECEIVE_FREQ_1 =   2022-12-09T03:25:22.454   2216505230.3
RECEIVE_FREQ_1 =   2022-12-09T03:25:32.477   2216505229.2
RECEIVE_FREQ_1 =   2022-12-09T03:25:42.413   2216505227.9
RECEIVE_FREQ_1 =   2022-12-09T03:25:52.435   2216505226.8
RECEIVE_FREQ_1 =   2022-12-09T03:26:02.458   2216505226.1
RECEIVE_FREQ_1 =   2022-12-09T03:26:12.480   2216505224.9
RECEIVE_FREQ_1 =   2022-12-09T03:26:22.416   2216505223.8
RECEIVE_FREQ_1 =   2022-12-09T03:26:32.438   2216505222.8
RECEIVE_FREQ_1 =   2022-12-09T03:26:42.461   2216505221.7
RECEIVE_FREQ_1 =   2022-12-09T03:26:52.483   2216505220.4
RECEIVE_FREQ_1 =   2022-12-09T03:27:02.419   2216505219.4
RECEIVE_FREQ_1 =   2022-12-09T03:27:12.442   2216505218.4
RECEIVE_FREQ_1 =   2022-12-09T03:27:22.464   2216505217.2
RECEIVE_FREQ_1 =   2022-12-09T03:27:32.486   2216505216.5
RECEIVE_FREQ_1 =   2022-12-09T03:27:42.422   2216505215.5
RECEIVE_FREQ_1 =   2022-12-09T03:27:52.445   2216505214.2
RECEIVE_FREQ_1 =   2022-12-09T03:28:02.467   2216505212.8
RECEIVE_FREQ_1 =   2022-12-09T03:28:12.490   2216505211.9
RECEIVE_FREQ_1 =   2022-12-09T03:28:22.426   2216505210.5
RECEIVE_FREQ_1 =   2022-12-09T03:28:32.448   2216505209.6
RECEIVE_FREQ_1 =   2022-12-09T03:28:42.470   2216505208.4
RECEIVE_FREQ_1 =   2022-12-09T03:28:52.406   2216505207.4
RECEIVE_FREQ_1 =   2022-12-09T03:29:02.429   2216505206.5
RECEIVE_FREQ_1 =   2022-12-09T03:29:12.451   2216505205.3
RECEIVE_FREQ_1 =   2022-12-09T03:29:22.474   2216505204.2
RECEIVE_FREQ_1 =   2022-12-09T03:29:32.410   2216505202.9
RECEIVE_FREQ_1 =   2022-12-09T03:29:42.432   2216505202.1
RECEIVE_FREQ_1 =   2022-12-09T03:29:52.454   2216505200.7
RECEIVE_FREQ_1 =   2022-12-09T03:30:02.477   2216505199.5
RECEIVE_FREQ_1 =   2022-12-09T03:30:12.413   2216505198.8
RECEIVE_FREQ_1 =   2022-12-09T03:30:22.435   2216505197.8
RECEIVE_FREQ_1 =   2022-12-09T03:30:32.458   2216505196.4
RECEIVE_FREQ_1 =   2022-12-09T03:30:42.480   2216505195.1
RECEIVE_FREQ_1 =   2022-12-09T03:30:52.416   2216505193.9
RECEIVE_FREQ_1 =   2022-12-09T03:31:02.438   2216505193.1
RECEIVE_FREQ_1 =   2022-12-09T03:31:12.461   2216505192.1
RECEIVE_FREQ_1 =   2022-12-09T03:31:22.483   2216505190.9
RECEIVE_FREQ_1 =   2022-12-09T03:31:32.419   2216505189.7
RECEIVE_FREQ_1 =   2022-12-09T03:31:42.442   2216505188.6
RECEIVE_FREQ_1 =   2022-12-09T03:31:52.464   2216505187.8
RECEIVE_FREQ_1 =   2022-12-09T03:32:02.486   2216505186.4
RECEIVE_FREQ_1 =   2022-12-09T03:32:12.422   2216505185.6
RECEIVE_FREQ_1 =   2022-12-09T03:32:22.445   2216505183.9
RECEIVE_FREQ_1 =   2022-12-09T03:32:32.467   2216505182.9
RECEIVE_FREQ_1 =   2022-12-09T03:32:42.403   2216505182.0
RECEIVE_FREQ_1 =   2022-12-09T03:32:52.426   2216505180.7
RECEIVE_FREQ_1 =   2022-12-09T03:33:02.448   2216505179.7
RECEIVE_FREQ_1 =   2022-12-09T03:33:12.470   2216505178.5
RECEIVE_FREQ_1 =   2022-12-09T03:33:22.406   2216505177.4
RECEIVE_FREQ_1 =   2022-12-09T03:33:32.429   2216505176.3
RECEIVE_FREQ_1 =   2022-12-09T03:33:42.451   2216505174.7
RECEIVE_FREQ_1 =   2022-12-09T03:33:52.474   2216505174.1
RECEIVE_FREQ_1 =   2022-12-09T03:34:02.410   2216505173.0
RECEIVE_FREQ_1 =   2022-12-09T03:34:12.432   2216505171.5
RECEIVE_FREQ_1 =   2022-12-09T03:34:22.454   2216505170.8
RECEIVE_FREQ_1 =   2022-12-09T03:34:32.477   2216505169.7
RECEIVE_FREQ_1 =   2022-12-09T03:34:42.413   2216505168.6
RECEIVE_FREQ_1 =   2022-12-09T03:34:52.435   2216505167.7
RECEIVE_FREQ_1 =   2022-12-09T03:35:02.458   2216505166.5
RECEIVE_FREQ_1 =   2022-12-09T03:35:12.480   2216505165.3
RECEIVE_FREQ_1 =   2022-12-09T03:35:22.416   2216505164.2
RECEIVE_FREQ_1 =   2022-12-09T03:35:32.438   2216505163.2
RECEIVE_FREQ_1 =   2022-12-09T03:35:42.461   2216505162.2
RECEIVE_FREQ_1 =   2022-12-09T03:35:52.483   2216505161.5
RECEIVE_FREQ_1 =   2022-12-09T03:36:02.419   2216505160.2
RECEIVE_FREQ_1 =   2022-12-09T03:36:12.442   2216505159.3
RECEIVE_FREQ_1 =   2022-12-09T03:36:22.464   2216505158.3
RECEIVE_FREQ_1 =   2022-12-09T03:36:32.486   2216505157.0
RECEIVE_FREQ_1 =   2022-12-09T03:36:42.422   2216505156.0
RECEIVE_FREQ_1 =   2022-12-09T03:36:52.445   2216505155.1
RECEIVE_FREQ_1 =   2022-12-09T03:37:02.467   2216505153.8
RECEIVE_FREQ_1 =   2022-12-09T03:37:12.490   2216505152.7
RECEIVE_FREQ_1 =   2022-12-09T03:37:22.426   2216505152.1
RECEIVE_FREQ_1 =   2022-12-09T03:37:32.448   2216505150.6
RECEIVE_FREQ_1 =   2022-12-09T03:37:42.470   2216505149.7
RECEIVE_FREQ_1 =   2022-12-09T03:37:52.493   2216505148.8
RECEIVE_FREQ_1 =   2022-12-09T03:38:02.429   2216505147.6
RECEIVE_FREQ_1 =   2022-12-09T03:38:12.451   2216505146.6
RECEIVE_FREQ_1 =   2022-12-09T03:38:22.474   2216505145.6
RECEIVE_FREQ_1 =   2022-12-09T03:38:32.410   2216505144.2
RECEIVE_FREQ_1 =   2022-12-09T03:38:42.432   2216505143.2
RECEIVE_FREQ_1 =   2022-12-09T03:38:52.454   2216505142.1
RECEIVE_FREQ_1 =   2022-12-09T03:39:02.477   2216505141.4
RECEIVE_FREQ_1 =   2022-12-09T03:39:12.413   2216505140.1
RECEIVE_FREQ_1 =   2022-12-09T03:39:22.435   2216505139.2
RECEIVE_FREQ_1 =   2022-12-09T03:39:32.458   2216505138.1
RECEIVE_FREQ_1 =   2022-12-09T03:39:42.480   2216505136.6
RECEIVE_FREQ_1 =   2022-12-09T03:39:52.416   2216505135.5
RECEIVE_FREQ_1 =   2022-12-09T03:40:02.438   2216505134.4
RECEIVE_FREQ_1 =   2022-12-09T03:40:12.461   2216505133.7
RECEIVE_FREQ_1 =   2022-12-09T03:40:22.483   2216505132.4
RECEIVE_FREQ_1 =   2022-12-09T03:40:32.419   2216505131.8
RECEIVE_FREQ_1 =   2022-12-09T03:40:42.442   2216505130.4
RECEIVE_FREQ_1 =   2022-12-09T03:40:52.464   2216505129.2
RECEIVE_FREQ_1 =   2022-12-09T03:41:02.486   2216505128.4
RECEIVE_FREQ_1 =   2022-12-09T03:41:12.422   2216505126.9
RECEIVE_FREQ_1 =   2022-12-09T03:41:22.445   2216505125.7
RECEIVE_FREQ_1 =   2022-12-09T03:41:32.467   2216505124.9
RECEIVE_FREQ_1 =   2022-12-09T03:41:42.490   2216505123.9
RECEIVE_FREQ_1 =   2022-12-09T03:41:52.426   2216505122.6
RECEIVE_FREQ_1 =   2022-12-09T03:42:02.448   2216505121.7
RECEIVE_FREQ_1 =   2022-12-09T03:42:12.470   2216505120.5
RECEIVE_FREQ_1 =   2022-12-09T03:42:22.406   2216505119.5
RECEIVE_FREQ_1 =   2022-12-09T03:42:32.429   2216505118.3
RECEIVE_FREQ_1 =   2022-12-09T03:42:42.451   2216505117.1
RECEIVE_FREQ_1 =   2022-12-09T03:42:52.474   2216505116.0
RECEIVE_FREQ_1 =   2022-12-09T03:43:02.410   2216505114.8
RECEIVE_FREQ_1 =   2022-12-09T03:43:12.432   2216505114.0
RECEIVE_FREQ_1 =   2022-12-09T03:43:22.454   2216505112.8
RECEIVE_FREQ_1 =   2022-12-09T03:43:32.477   2216505111.5
RECEIVE_FREQ_1 =   2022-12-09T03:43:42.413   2216505110.4
RECEIVE_FREQ_1 =   2022-12-09T03:43:52.435   2216505109.6
RECEIVE_FREQ_1 =   2022-12-09T03:44:02.458   2216505107.9
RECEIVE_FREQ_1 =   2022-12-09T03:44:12.480   2216505107.1
RECEIVE_FREQ_1 =   2022-12-09T03:44:22.416   2216505105.9
RECEIVE_FREQ_1 =   2022-12-09T03:44:32.438   2216505104.7
RECEIVE_FREQ_1 =   2022-12-09T03:44:42.461   2216505103.6
RECEIVE_FREQ_1 =   2022-12-09T03:44:52.483   2216505102.4
RECEIVE_FREQ_1 =   2022-12-09T03:45:02.419   2216505101.4
RECEIVE_FREQ_1 =   2022-12-09T03:45:12.442   2216505100.6
RECEIVE_FREQ_1 =   2022-12-09T03:45:22.464   2216505098.9
RECEIVE_FREQ_1 =   2022-12-09T03:45:32.486   2216505098.2
RECEIVE_FREQ_1 =   2022-12-09T03:45:42.422   2216505097.5
RECEIVE_FREQ_1 =   2022-12-09T03:45:52.445   2216505095.9
RECEIVE_FREQ_1 =   2022-12-09T03:46:02.467   2216505094.8
RECEIVE_FREQ_1 =   2022-12-09T03:46:12.490   2216505093.6
RECEIVE_FREQ_1 =   2022-12-09T03:46:22.426   2216505092.7
RECEIVE_FREQ_1 =   2022-12-09T03:46:32.448   2216505091.2
RECEIVE_FREQ_1 =   2022-12-09T03:46:42.470   2216505090.5
RECEIVE_FREQ_1 =   2022-12-09T03:46:52.406   2216505089.2
RECEIVE_FREQ_1 =   2022-12-09T03:47:02.429   2216505088.2
RECEIVE_FREQ_1 =   2022-12-09T03:47:12.451   2216505086.9
RECEIVE_FREQ_1 =   2022-12-09T03:47:22.474   2216505085.7
RECEIVE_FREQ_1 =   2022-12-09T03:47:32.410   2216505084.5
RECEIVE_FREQ_1 =   2022-12-09T03:47:42.432   2216505083.8
RECEIVE_FREQ_1 =   2022-12-09T03:47:52.454   2216505082.3
RECEIVE_FREQ_1 =   2022-12-09T03:48:02.477   2216505081.3
RECEIVE_FREQ_1 =   2022-12-09T03:48:12.413   2216505080.2
RECEIVE_FREQ_1 =   2022-12-09T03:48:22.435   2216505078.9
RECEIVE_FREQ_1 =   2022-12-09T03:48:32.458   2216505078.0
RECEIVE_FREQ_1 =   2022-12-09T03:48:42.480   2216505076.9
RECEIVE_FREQ_1 =   2022-12-09T03:48:52.416   2216505075.3
RECEIVE_FREQ_1 =   2022-12-09T03:49:02.438   2216505074.2
RECEIVE_FREQ_1 =   2022-12-09T03:49:12.461   2216505073.0
RECEIVE_FREQ_1 =   2022-12-09T03:49:22.483   2216505071.8
RECEIVE_FREQ_1 =   2022-12-09T03:49:32.419   2216505070.8
RECEIVE_FREQ_1 =   2022-12-09T03:49:42.442   2216505069.9
RECEIVE_FREQ_1 =   2022-12-09T03:49:52.464   2216505068.7
RECEIVE_FREQ_1 =   2022-12-09T03:50:02.486   2216505067.3
RECEIVE_FREQ_1 =   2022-12-09T03:50:12.422   2216505066.4
RECEIVE_FREQ_1 =   2022-12-09T03:50:22.445   2216505065.1
RECEIVE_FREQ_1 =   2022-12-09T03:50:32.467   2216505064.1
RECEIVE_FREQ_1 =   2022-12-09T03:50:42.403   2216505062.7
RECEIVE_FREQ_1 =   2022-12-09T03:50:52.426   2216505061.5
RECEIVE_FREQ_1 =   2022-12-09T03:51:02.448   2216505060.6
RECEIVE_FREQ_1 =   2022-12-09T03:51:12.470   2216505059.0
RECEIVE_FREQ_1 =   2022-12-09T03:51:22.493   2216505058.2
RECEIVE_FREQ_1 =   2022-12-09T03:51:32.429   2216505056.9
RECEIVE_FREQ_1 =   2022-12-09T03:51:42.451   2216505055.7
RECEIVE_FREQ_1 =   2022-12-09T03:51:52.474   2216505054.6
RECEIVE_FREQ_1 =   2022-12-09T03:52:02.496   2216505053.4
RECEIVE_FREQ_1 =   2022-12-09T03:52:12.432   2216505052.0
RECEIVE_FREQ_1 =   2022-12-09T03:52:22.454   2216505051.0
RECEIVE_FREQ_1 =   2022-12-09T03:52:32.477   2216505049.8
RECEIVE_FREQ_1 =   2022-12-09T03:52:42.413   2216505048.5
RECEIVE_FREQ_1 =   2022-12-09T03:52:52.435   2216505047.5
RECEIVE_FREQ_1 =   2022-12-09T03:53:02.458   2216505046.3
RECEIVE_FREQ_1 =   2022-12-09T03:53:12.480   2216505045.2
RECEIVE_FREQ_1 =   2022-12-09T03:53:22.416   2216505043.8
RECEIVE_FREQ_1 =   2022-12-09T03:53:32.438   2216505042.6
RECEIVE_FREQ_1 =   2022-12-09T03:53:42.461   2216505041.4
RECEIVE_FREQ_1 =   2022-12-09T03:53:52.483   2216505040.2
RECEIVE_FREQ_1 =   2022-12-09T03:54:02.419   2216505039.2
RECEIVE_FREQ_1 =   2022-12-09T03:54:12.442   2216505038.0
RECEIVE_FREQ_1 =   2022-12-09T03:54:22.464   2216505036.8
RECEIVE_FREQ_1 =   2022-12-09T03:54:32.486   2216505035.9
RECEIVE_FREQ_1 =   2022-12-09T03:54:42.422   2216505034.6
RECEIVE_FREQ_1 =   2022-12-09T03:54:52.445   2216505033.7
RECEIVE_FREQ_1 =   2022-12-09T03:55:02.467   2216505032.1
RECEIVE_FREQ_1 =   2022-12-09T03:55:12.490   2216505030.6
RECEIVE_FREQ_1 =   2022-12-09T03:55:22.426   2216505029.8
RECEIVE_FREQ_1 =   2022-12-09T03:55:32.448   2216505028.7
RECEIVE_FREQ_1 =   2022-12-09T03:55:42.470   2216505027.1
RECEIVE_FREQ_1 =   2022-12-09T03:55:52.406   2216505026.1
RECEIVE_FREQ_1 =   2022-12-09T03:56:02.429   2216505025.0
RECEIVE_FREQ_1 =   2022-12-09T03:56:12.451   2216505023.7
RECEIVE_FREQ_1 =   2022-12-09T03:56:22.474   2216505022.3
RECEIVE_FREQ_1 =   2022-12-09T03:56:32.410   2216505021.2
RECEIVE_FREQ_1 =   2022-12-09T03:56:42.432   2216505019.7
RECEIVE_FREQ_1 =   2022-12-09T03:56:52.454   2216505019.0
RECEIVE_FREQ_1 =   2022-12-09T03:57:02.477   2216505017.8
RECEIVE_FREQ_1 =   2022-12-09T03:57:12.499   2216505016.6
RECEIVE_FREQ_1 =   2022-12-09T03:57:22.435   2216505015.1
RECEIVE_FREQ_1 =   2022-12-09T03:57:32.458   2216505014.0
RECEIVE_FREQ_1 =   2022-12-09T03:57:42.480   2216505012.5
RECEIVE_FREQ_1 =   2022-12-09T03:57:52.416   2216505011.6
RECEIVE_FREQ_1 =   2022-12-09T03:58:02.438   2216505010.6
RECEIVE_FREQ_1 =   2022-12-09T03:58:12.461   2216505009.1
RECEIVE_FREQ_1 =   2022-12-09T03:58:22.483   2216505007.9
RECEIVE_FREQ_1 =   2022-12-09T03:58:32.419   2216505006.7
RECEIVE_FREQ_1 =   2022-12-09T03:58:42.442   2216505005.5
RECEIVE_FREQ_1 =   2022-12-09T03:58:52.464   2216505004.3
RECEIVE_FREQ_1 =   2022-12-09T03:59:02.486   2216505003.0
RECEIVE_FREQ_1 =   2022-12-09T03:59:12.422   2216505002.0
RECEIVE_FREQ_1 =   2022-12-09T03:59:22.445   2216505000.5
RECEIVE_FREQ_1 =   2022-12-09T03:59:32.467   2216504999.5
RECEIVE_FREQ_1 =   2022-12-09T03:59:42.403   2216504998.2
RECEIVE_FREQ_1 =   2022-12-09T03:59:52.426   2216504996.8
RECEIVE_FREQ_1 =   2022-12-09T04:00:02.448   2216504995.2
RECEIVE_FREQ_1 =   2022-12-09T04:00:12.470   2216504994.4
RECEIVE_FREQ_1 =   2022-12-09T04:00:22.493   2216504993.3
RECEIVE_FREQ_1 =   2022-12-09T04:00:32.429   2216504991.9
RECEIVE_FREQ_1 =   2022-12-09T04:00:42.451   2216504990.6
RECEIVE_FREQ_1 =   2022-12-09T04:00:52.474   2216504989.6
RECEIVE_FREQ_1 =   2022-12-09T04:01:02.410   2216504988.0
RECEIVE_FREQ_1 =   2022-12-09T04:01:12.432   2216504987.3
RECEIVE_FREQ_1 =   2022-12-09T04:01:22.454   2216504985.7
RECEIVE_FREQ_1 =   2022-12-09T04:01:32.477   2216504984.7
RECEIVE_FREQ_1 =   2022-12-09T04:01:42.413   2216504983.4
RECEIVE_FREQ_1 =   2022-12-09T04:01:52.435   2216504982.3
RECEIVE_FREQ_1 =   2022-12-09T04:02:02.458   2216504981.1
RECEIVE_FREQ_1 =   2022-12-09T04:02:12.480   2216504979.7
RECEIVE_FREQ_1 =   2022-12-09T04:02:22.416   2216504978.5
RECEIVE_FREQ_1 =   2022-12-09T04:02:32.438   2216504977.8
RECEIVE_FREQ_1 =   2022-12-09T04:02:42.461   2216504976.2
RECEIVE_FREQ_1 =   2022-12-09T04:02:52.483   2216504975.4
RECEIVE_FREQ_1 =   2022-12-09T04:03:02.419   2216504974.3
RECEIVE_FREQ_1 =   2022-12-09T04:03:12.442   2216504972.8
RECEIVE_FREQ_1 =   2022-12-09T04:03:22.464   2216504972.0
RECEIVE_FREQ_1 =   2022-12-09T04:03:32.486   2216504970.8
RECEIVE_FREQ_1 =   2022-12-09T04:03:42.422   2216504969.4
RECEIVE_FREQ_1 =   2022-12-09T04:03:52.445   2216504968.6
RECEIVE_FREQ_1 =   2022-12-09T04:04:02.467   2216504967.5
RECEIVE_FREQ_1 =   2022-12-09T04:04:12.490   2216504965.9
RECEIVE_FREQ_1 =   2022-12-09T04:04:22.426   2216504964.9
RECEIVE_FREQ_1 =   2022-12-09T04:04:32.448   2216504963.7
RECEIVE_FREQ_1 =   2022-12-09T04:04:42.470   2216504962.6
RECEIVE_FREQ_1 =   2022-12-09T04:04:52.493   2216504961.4
RECEIVE_FREQ_1 =   2022-12-09T04:05:02.429   2216504960.0
RECEIVE_FREQ_1 =   2022-12-09T04:05:12.451   2216504958.9
RECEIVE_FREQ_1 =   2022-12-09T04:05:22.474   2216504957.9
RECEIVE_FREQ_1 =   2022-12-09T04:05:32.410   2216504956.9
RECEIVE_FREQ_1 =   2022-12-09T04:05:42.432   2216504955.6
RECEIVE_FREQ_1 =   2022-12-09T04:05:52.454   2216504954.6
RECEIVE_FREQ_1 =   2022-12-09T04:06:02.477   2216504953.1
RECEIVE_FREQ_1 =   2022-12-09T04:06:12.413   2216504952.0
RECEIVE_FREQ_1 =   2022-12-09T04:06:22.435   2216504950.8
RECEIVE_FREQ_1 =   2022-12-09T04:06:32.458   2216504949.6
RECEIVE_FREQ_1 =   2022-12-09T04:06:42.480   2216504948.6
RECEIVE_FREQ_1 =   2022-12-09T04:06:52.416   2216504947.6
RECEIVE_FREQ_1 =   2022-12-09T04:07:02.438   2216504946.3
RECEIVE_FREQ_1 =   2022-12-09T04:07:12.461   2216504945.1
RECEIVE_FREQ_1 =   2022-12-09T04:07:22.483   2216504943.8
RECEIVE_FREQ_1 =   2022-12-09T04:07:32.419   2216504942.4
RECEIVE_FREQ_1 =   2022-12-09T04:07:42.442   2216504941.6
RECEIVE_FREQ_1 =   2022-12-09T04:07:52.464   2216504940.4
RECEIVE_FREQ_1 =   2022-12-09T04:08:02.486   2216504939.2
RECEIVE_FREQ_1 =   2022-12-09T04:08:12.422   2216504937.8
RECEIVE_FREQ_1 =   2022-12-09T04:08:22.445   2216504936.6
RECEIVE_FREQ_1 =   2022-12-09T04:08:32.467   2216504935.9
RECEIVE_FREQ_1 =   2022-12-09T04:08:42.490   2216504934.2
RECEIVE_FREQ_1 =   2022-12-09T04:08:52.426   2216504933.3
RECEIVE_FREQ_1 =   2022-12-09T04:09:02.448   2216504931.9
RECEIVE_FREQ_1 =   2022-12-09T04:09:12.470   2216504930.5
RECEIVE_FREQ_1 =   2022-12-09T04:09:22.493   2216504929.4
RECEIVE_FREQ_1 =   2022-12-09T04:09:32.429   2216504928.3
RECEIVE_FREQ_1 =   2022-12-09T04:09:42.451   2216504926.8
RECEIVE_FREQ_1 =   2022-12-09T04:09:52.474   2216504926.3
RECEIVE_FREQ_1 =   2022-12-09T04:10:02.410   2216504924.8
RECEIVE_FREQ_1 =   2022-12-09T04:10:12.432   2216504923.6
RECEIVE_FREQ_1 =   2022-12-09T04:10:22.454   2216504922.6
RECEIVE_FREQ_1 =   2022-12-09T04:10:32.477   2216504921.1
RECEIVE_FREQ_1 =   2022-12-09T04:10:42.413   2216504920.2
RECEIVE_FREQ_1 =   2022-12-09T04:10:52.435   2216504918.9
RECEIVE_FREQ_1 =   2022-12-09T04:11:02.458   2216504917.4
RECEIVE_FREQ_1 =   2022-12-09T04:11:12.480   2216504916.4
RECEIVE_FREQ_1 =   2022-12-09T04:11:22.416   2216504915.0
RECEIVE_FREQ_1 =   2022-12-09T04:11:32.438   2216504914.1
RECEIVE_FREQ_1 =   2022-12-09T04:11:42.461   2216504912.6
RECEIVE_FREQ_1 =   2022-12-09T04:11:52.483   2216504911.5
RECEIVE_FREQ_1 =   2022-12-09T04:12:02.419   2216504910.1
RECEIVE_FREQ_1 =   2022-12-09T04:12:12.442   2216504909.1
RECEIVE_FREQ_1 =   2022-12-09T04:12:22.464   2216504907.6
RECEIVE_FREQ_1 =   2022-12-09T04:12:32.486   2216504906.7
RECEIVE_FREQ_1 =   2022-12-09T04:12:42.422   2216504905.8
RECEIVE_FREQ_1 =   2022-12-09T04:12:52.445   2216504904.2
RECEIVE_FREQ_1 =   2022-12-09T04:13:02.467   2216504903.4
RECEIVE_FREQ_1 =   2022-12-09T04:13:12.490   2216504901.9
RECEIVE_FREQ_1 =   2022-12-09T04:13:22.426   2216504900.7
RECEIVE_FREQ_1 =   2022-12-09T04:13:32.448   2216504899.7
RECEIVE_FREQ_1 =   2022-12-09T04:13:42.470   2216504898.1
RECEIVE_FREQ_1 =   2022-12-09T04:13:52.406   2216504897.1
RECEIVE_FREQ_1 =   2022-12-09T04:14:02.429   2216504895.7
RECEIVE_FREQ_1 =   2022-12-09T04:14:12.451   2216504894.8
RECEIVE_FREQ_1 =   2022-12-09T04:14:22.474   2216504893.4
RECEIVE_FREQ_1 =   2022-12-09T04:14:32.410   2216504892.3
RECEIVE_FREQ_1 =   2022-12-09T04:14:42.432   2216504891.0
RECEIVE_FREQ_1 =   2022-12-09T04:14:52.454   2216504889.8
RECEIVE_FREQ_1 =   2022-12-09T04:15:02.477   2216504888.5
RECEIVE_FREQ_1 =   2022-12-09T04:15:12.413   2216504887.0
RECEIVE_FREQ_1 =   2022-12-09T04:15:22.435   2216504885.9
RECEIVE_FREQ_1 =   2022-12-09T04:15:32.458   2216504884.9
RECEIVE_FREQ_1 =   2022-12-09T04:15:42.480   2216504883.6
RECEIVE_FREQ_1 =   2022-12-09T04:15:52.416   2216504882.3
RECEIVE_FREQ_1 =   2022-12-09T04:16:02.438   2216504881.0
RECEIVE_FREQ_1 =   2022-12-09T04:16:12.461   2216504880.0
RECEIVE_FREQ_1 =   2022-12-09T04:16:22.483   2216504878.6
RECEIVE_FREQ_1 =   2022-12-09T04:16:32.419   2216504877.4
RECEIVE_FREQ_1 =   2022-12-09T04:16:42.442   2216504876.2
RECEIVE_FREQ_1 =   2022-12-09T04:16:52.464   2216504874.9
RECEIVE_FREQ_1 =   2022-12-09T04:17:02.486   2216504873.6
RECEIVE_FREQ_1 =   2022-12-09T04:17:12.422   2216504872.2
RECEIVE_FREQ_1 =   2022-12-09T04:17:22.445   2216504871.1
RECEIVE_FREQ_1 =   2022-12-09T04:17:32.467   2216504869.8
RECEIVE_FREQ_1 =   2022-12-09T04:17:42.490   2216504868.7
RECEIVE_FREQ_1 =   2022-12-09T04:17:52.426   2216504867.5
RECEIVE_FREQ_1 =   2022-12-09T04:18:02.448   2216504866.4
RECEIVE_FREQ_1 =   2022-12-09T04:18:12.470   2216504864.8
RECEIVE_FREQ_1 =   2022-12-09T04:18:22.406   2216504863.9
RECEIVE_FREQ_1 =   2022-12-09T04:18:32.429   2216504862.1
RECEIVE_FREQ_1 =   2022-12-09T04:18:42.451   2216504860.7
RECEIVE_FREQ_1 =   2022-12-09T04:18:52.474   2216504859.5
RECEIVE_FREQ_1 =   2022-12-09T04:19:02.410   2216504858.8
RECEIVE_FREQ_1 =   2022-12-09T04:19:12.432   2216504857.5
RECEIVE_FREQ_1 =   2022-12-09T04:19:22.454   2216504856.5
RECEIVE_FREQ_1 =   2022-12-09T04:19:32.477   2216504854.9
RECEIVE_FREQ_1 =   2022-12-09T04:19:42.413   2216504853.6
RECEIVE_FREQ_1 =   2022-12-09T04:19:52.435   2216504852.4
RECEIVE_FREQ_1 =   2022-12-09T04:20:02.458   2216504851.3
RECEIVE_FREQ_1 =   2022-12-09T04:20:12.480   2216504850.0
RECEIVE_FREQ_1 =   2022-12-09T04:20:22.416   2216504848.6
RECEIVE_FREQ_1 =   2022-12-09T04:20:32.438   2216504847.3
RECEIVE_FREQ_1 =   2022-12-09T04:20:42.461   2216504845.8
RECEIVE_FREQ_1 =   2022-12-09T04:20:52.483   2216504844.8
RECEIVE_FREQ_1 =   2022-12-09T04:21:02.419   2216504843.4
RECEIVE_FREQ_1 =   2022-12-09T04:21:12.442   2216504842.1
RECEIVE_FREQ_1 =   2022-12-09T04:21:22.464   2216504841.2
RECEIVE_FREQ_1 =   2022-12-09T04:21:32.486   2216504839.8
RECEIVE_FREQ_1 =   2022-12-09T04:21:42.422   2216504838.7
RECEIVE_FREQ_1 =   2022-12-09T04:21:52.445   2216504837.4
RECEIVE_FREQ_1 =   2022-12-09T04:22:02.467   2216504836.2
RECEIVE_FREQ_1 =   2022-12-09T04:22:12.490   2216504834.8
RECEIVE_FREQ_1 =   2022-12-09T04:22:22.426   2216504833.5
RECEIVE_FREQ_1 =   2022-12-09T04:22:32.448   2216504832.3
RECEIVE_FREQ_1 =   2022-12-09T04:22:42.470   2216504830.7
RECEIVE_FREQ_1 =   2022-12-09T04:22:52.493   2216504829.7
RECEIVE_FREQ_1 =   2022-12-09T04:23:02.429   2216504828.1
RECEIVE_FREQ_1 =   2022-12-09T04:23:12.451   2216504827.0
RECEIVE_FREQ_1 =   2022-12-09T04:23:22.474   2216504825.8
RECEIVE_FREQ_1 =   2022-12-09T04:23:32.410   2216504824.5
RECEIVE_FREQ_1 =   2022-12-09T04:23:42.432   2216504823.2
RECEIVE_FREQ_1 =   2022-12-09T04:23:52.454   2216504822.4
RECEIVE_FREQ_1 =   2022-12-09T04:24:02.477   2216504820.8
RECEIVE_FREQ_1 =   2022-12-09T04:24:12.413   2216504819.5
RECEIVE_FREQ_1 =   2022-12-09T04:24:22.435   2216504818.2
RECEIVE_FREQ_1 =   2022-12-09T04:24:32.458   2216504817.2
RECEIVE_FREQ_1 =   2022-12-09T04:24:42.480   2216504815.8
RECEIVE_FREQ_1 =   2022-12-09T04:24:52.416   2216504814.4
RECEIVE_FREQ_1 =   2022-12-09T04:25:02.438   2216504813.2
RECEIVE_FREQ_1 =   2022-12-09T04:25:12.461   2216504812.2
RECEIVE_FREQ_1 =   2022-12-09T04:25:22.483   2216504810.6
RECEIVE_FREQ_1 =   2022-12-09T04:25:32.419   2216504809.1
RECEIVE_FREQ_1 =   2022-12-09T04:25:42.442   2216504807.9
RECEIVE_FREQ_1 =   2022-12-09T04:25:52.464   2216504806.6
RECEIVE_FREQ_1 =   2022-12-09T04:26:02.486   2216504805.2
RECEIVE_FREQ_1 =   2022-12-09T04:26:12.422   2216504804.0
RECEIVE_FREQ_1 =   2022-12-09T04:26:22.445   2216504803.0
RECEIVE_FREQ_1 =   2022-12-09T04:26:32.467   2216504801.5
RECEIVE_FREQ_1 =   2022-12-09T04:26:42.403   2216504800.1
RECEIVE_FREQ_1 =   2022-12-09T04:26:52.426   2216504798.7
RECEIVE_FREQ_1 =   2022-12-09T04:27:02.448   2216504797.4
RECEIVE_FREQ_1 =   2022-12-09T04:27:12.470   2216504796.2
RECEIVE_FREQ_1 =   2022-12-09T04:27:22.406   2216504795.4
RECEIVE_FREQ_1 =   2022-12-09T04:27:32.429   2216504793.5
RECEIVE_FREQ_1 =   2022-12-09T04:27:42.451   2216504792.4
RECEIVE_FREQ_1 =   2022-12-09T04:27:52.474   2216504791.1
RECEIVE_FREQ_1 =   2022-12-09T04:28:02.410   2216504790.0
RECEIVE_FREQ_1 =   2022-12-09T04:28:12.432   2216504788.8
RECEIVE_FREQ_1 =   2022-12-09T04:28:22.454   2216504787.5
RECEIVE_FREQ_1 =   2022-12-09T04:28:32.477   2216504786.0
RECEIVE_FREQ_1 =   2022-12-09T04:28:42.413   2216504784.6
RECEIVE_FREQ_1 =   2022-12-09T04:28:52.435   2216504783.4
RECEIVE_FREQ_1 =   2022-12-09T04:29:02.458   2216504782.2
RECEIVE_FREQ_1 =   2022-12-09T04:29:12.480   2216504780.9
RECEIVE_FREQ_1 =   2022-12-09T04:29:22.416   2216504779.2
RECEIVE_FREQ_1 =   2022-12-09T04:29:32.438   2216504778.3
RECEIVE_FREQ_1 =   2022-12-09T04:29:42.461   2216504776.7
RECEIVE_FREQ_1 =   2022-12-09T04:29:52.483   2216504775.6
RECEIVE_FREQ_1 =   2022-12-09T04:30:02.419   2216504773.9
RECEIVE_FREQ_1 =   2022-12-09T04:30:12.442   2216504772.8
RECEIVE_FREQ_1 =   2022-12-09T04:30:22.464   2216504771.3
RECEIVE_FREQ_1 =   2022-12-09T04:30:32.486   2216504770.3
RECEIVE_FREQ_1 =   2022-12-09T04:30:42.422   2216504769.1
RECEIVE_FREQ_1 =   2022-12-09T04:30:52.445   2216504767.9
RECEIVE_FREQ_1 =   2022-12-09T04:31:02.467   2216504766.5
RECEIVE_FREQ_1 =   2022-12-09T04:31:12.490   2216504765.3
RECEIVE_FREQ_1 =   2022-12-09T04:31:22.426   2216504763.8
RECEIVE_FREQ_1 =   2022-12-09T04:31:32.448   2216504762.2
RECEIVE_FREQ_1 =   2022-12-09T04:31:42.470   2216504761.2
RECEIVE_FREQ_1 =   2022-12-09T04:31:52.406   2216504760.1
RECEIVE_FREQ_1 =   2022-12-09T04:32:02.429   2216504758.7
RECEIVE_FREQ_1 =   2022-12-09T04:32:12.451   2216504757.3
RECEIVE_FREQ_1 =   2022-12-09T04:32:22.474   2216504756.2
RECEIVE_FREQ_1 =   2022-12-09T04:32:32.410   2216504754.8
RECEIVE_FREQ_1 =   2022-12-09T04:32:42.432   2216504753.6
RECEIVE_FREQ_1 =   2022-12-09T04:32:52.454   2216504752.0
RECEIVE_FREQ_1 =   2022-12-09T04:33:02.477   2216504750.8
RECEIVE_FREQ_1 =   2022-12-09T04:33:12.499   2216504749.1
RECEIVE_FREQ_1 =   2022-12-09T04:33:22.435   2216504748.2
RECEIVE_FREQ_1 =   2022-12-09T04:33:32.458   2216504746.5
RECEIVE_FREQ_1 =   2022-12-09T04:33:42.480   2216504745.3
RECEIVE_FREQ_1 =   2022-12-09T04:33:52.416   2216504744.0
RECEIVE_FREQ_1 =   2022-12-09T04:34:02.438   2216504742.9
RECEIVE_FREQ_1 =   2022-12-09T04:34:12.461   2216504741.2
RECEIVE_FREQ_1 =   2022-12-09T04:34:22.483   2216504739.9
RECEIVE_FREQ_1 =   2022-12-09T04:34:32.419   2216504739.0
RECEIVE_FREQ_1 =   2022-12-09T04:34:42.442   2216504737.6
RECEIVE_FREQ_1 =   2022-12-09T04:34:52.464   2216504736.2
RECEIVE_FREQ_1 =   2022-12-09T04:35:02.486   2216504734.9
RECEIVE_FREQ_1 =   2022-12-09T04:35:12.422   2216504733.9
RECEIVE_FREQ_1 =   2022-12-09T04:35:22.445   2216504732.7
RECEIVE_FREQ_1 =   2022-12-09T04:35:32.467   2216504731.6
RECEIVE_FREQ_1 =   2022-12-09T04:35:42.403   2216504730.0
RECEIVE_FREQ_1 =   2022-12-09T04:35:52.426   2216504728.8
RECEIVE_FREQ_1 =   2022-12-09T04:36:02.448   2216504727.4
RECEIVE_FREQ_1 =   2022-12-09T04:36:12.470   2216504726.4
RECEIVE_FREQ_1 =   2022-12-09T04:36:22.406   2216504725.1
RECEIVE_FREQ_1 =   2022-12-09T04:36:32.429   2216504723.8
RECEIVE_FREQ_1 =   2022-12-09T04:36:42.451   2216504722.4
RECEIVE_FREQ_1 =   2022-12-09T04:36:52.474   2216504721.4
RECEIVE_FREQ_1 =   2022-12-09T04:37:02.496   2216504719.9
RECEIVE_FREQ_1 =   2022-12-09T04:37:12.432   2216504718.7
RECEIVE_FREQ_1 =   2022-12-09T04:37:22.454   2216504717.3
RECEIVE_FREQ_1 =   2022-12-09T04:37:32.477   2216504716.4
RECEIVE_FREQ_1 =   2022-12-09T04:37:42.413   2216504714.8
RECEIVE_FREQ_1 =   2022-12-09T04:37:52.435   2216504713.3
RECEIVE_FREQ_1 =   2022-12-09T04:38:02.458   2216504712.1
RECEIVE_FREQ_1 =   2022-12-09T04:38:12.480   2216504711.4
RECEIVE_FREQ_1 =   2022-12-09T04:38:22.502   2216504709.7
RECEIVE_FREQ_1 =   2022-12-09T04:38:32.438   2216504708.6
RECEIVE_FREQ_1 =   2022-12-09T04:38:42.461   2216504707.1
RECEIVE_FREQ_1 =   2022-12-09T04:38:52.483   2216504706.3
RECEIVE_FREQ_1 =   2022-12-09T04:39:02.419   2216504704.7
RECEIVE_FREQ_1 =   2022-12-09T04:39:12.442   2216504703.5
RECEIVE_FREQ_1 =   2022-12-09T04:39:22.464   2216504702.4
RECEIVE_FREQ_1 =   2022-12-09T04:39:32.486   2216504701.0
RECEIVE_FREQ_1 =   2022-12-09T04:39:42.422   2216504699.5
RECEIVE_FREQ_1 =   2022-12-09T04:39:52.445   2216504698.2
RECEIVE_FREQ_1 =   2022-12-09T04:40:02.467   2216504696.9
RECEIVE_FREQ_1 =   2022-12-09T04:40:12.490   2216504695.7
RECEIVE_FREQ_1 =   2022-12-09T04:40:22.426   2216504694.4
RECEIVE_FREQ_1 =   2022-12-09T04:40:32.448   2216504693.1
RECEIVE_FREQ_1 =   2022-12-09T04:40:42.470   2216504691.9
RECEIVE_FREQ_1 =   2022-12-09T04:40:52.493   2216504690.5
RECEIVE_FREQ_1 =   2022-12-09T04:41:02.429   2216504689.6
RECEIVE_FREQ_1 =   2022-12-09T04:41:12.451   2216504688.4
RECEIVE_FREQ_1 =   2022-12-09T04:41:22.474   2216504687.2
RECEIVE_FREQ_1 =   2022-12-09T04:41:32.496   2216504685.6
RECEIVE_FREQ_1 =   2022-12-09T04:41:42.432   2216504684.4
RECEIVE_FREQ_1 =   2022-12-09T04:41:52.454   2216504683.2
RECEIVE_FREQ_1 =   2022-12-09T04:42:02.477   2216504681.6
RECEIVE_FREQ_1 =   2022-12-09T04:42:12.413   2216504680.2
RECEIVE_FREQ_1 =   2022-12-09T04:42:22.435   2216504679.6
RECEIVE_FREQ_1 =   2022-12-09T04:42:32.458   2216504677.8
RECEIVE_FREQ_1 =   2022-12-09T04:42:42.480   2216504676.3
RECEIVE_FREQ_1 =   2022-12-09T04:42:52.416   2216504675.5
RECEIVE_FREQ_1 =   2022-12-09T04:43:02.438   2216504674.0
RECEIVE_FREQ_1 =   2022-12-09T04:43:12.461   2216504672.9
RECEIVE_FREQ_1 =   2022-12-09T04:43:22.483   2216504671.7
RECEIVE_FREQ_1 =   2022-12-09T04:43:32.419   2216504670.2
RECEIVE_FREQ_1 =   2022-12-09T04:43:42.442   2216504668.8
RECEIVE_FREQ_1 =   2022-12-09T04:43:52.464   2216504667.6
RECEIVE_FREQ_1 =   2022-12-09T04:44:02.486   2216504666.1
RECEIVE_FREQ_1 =   2022-12-09T04:44:12.422   2216504665.0
RECEIVE_FREQ_1 =   2022-12-09T04:44:22.445   2216504663.4
RECEIVE_FREQ_1 =   2022-12-09T04:44:32.467   2216504662.6
RECEIVE_FREQ_1 =   2022-12-09T04:44:42.403   2216504660.8
RECEIVE_FREQ_1 =   2022-12-09T04:44:52.426   2216504659.7
RECEIVE_FREQ_1 =   2022-12-09T04:45:02.448   2216504658.3
RECEIVE_FREQ_1 =   2022-12-09T04:45:12.470   2216504657.2
RECEIVE_FREQ_1 =   2022-12-09T04:45:22.406   2216504656.0
RECEIVE_FREQ_1 =   2022-12-09T04:45:32.429   2216504654.6
RECEIVE_FREQ_1 =   2022-12-09T04:45:42.451   2216504653.3
RECEIVE_FREQ_1 =   2022-12-09T04:45:52.474   2216504652.1
RECEIVE_FREQ_1 =   2022-12-09T04:46:02.410   2216504650.8
RECEIVE_FREQ_1 =   2022-12-09T04:46:12.432   2216504649.4
RECEIVE_FREQ_1 =   2022-12-09T04:46:22.454   2216504647.9
RECEIVE_FREQ_1 =   2022-12-09T04:46:32.477   2216504647.0
RECEIVE_FREQ_1 =   2022-12-09T04:46:42.413   2216504645.5
RECEIVE_FREQ_1 =   2022-12-09T04:46:52.435   2216504644.3
RECEIVE_FREQ_1 =   2022-12-09T04:47:02.458   2216504642.7
RECEIVE_FREQ_1 =   2022-12-09T04:47:12.480   2216504641.7
RECEIVE_FREQ_1 =   2022-12-09T04:47:22.416   2216504640.1
RECEIVE_FREQ_1 =   2022-12-09T04:47:32.438   2216504638.7
RECEIVE_FREQ_1 =   2022-12-09T04:47:42.461   2216504637.6
RECEIVE_FREQ_1 =   2022-12-09T04:47:52.483   2216504636.3
RECEIVE_FREQ_1 =   2022-12-09T04:48:02.419   2216504635.0
RECEIVE_FREQ_1 =   2022-12-09T04:48:12.442   2216504633.7
RECEIVE_FREQ_1 =   2022-12-09T04:48:22.464   2216504632.4
RECEIVE_FREQ_1 =   2022-12-09T04:48:32.486   2216504631.0
RECEIVE_FREQ_1 =   2022-12-09T04:48:42.422   2216504629.7
RECEIVE_FREQ_1 =   2022-12-09T04:48:52.445   2216504628.6
RECEIVE_FREQ_1 =   2022-12-09T04:49:02.467   2216504627.0
RECEIVE_FREQ_1 =   2022-12-09T04:49:12.490   2216504625.6
RECEIVE_FREQ_1 =   2022-12-09T04:49:22.426   2216504624.9
RECEIVE_FREQ_1 =   2022-12-09T04:49:32.448   2216504622.9
RECEIVE_FREQ_1 =   2022-12-09T04:49:42.470   2216504621.5
RECEIVE_FREQ_1 =   2022-12-09T04:49:52.493   2216504620.5
RECEIVE_FREQ_1 =   2022-12-09T04:50:02.429   2216504619.6
RECEIVE_FREQ_1 =   2022-12-09T04:50:12.451   2216504617.8
RECEIVE_FREQ_1 =   2022-12-09T04:50:22.474   2216504616.8
RECEIVE_FREQ_1 =   2022-12-09T04:50:32.410   2216504615.3
RECEIVE_FREQ_1 =   2022-12-09T04:50:42.432   2216504614.1
RECEIVE_FREQ_1 =   2022-12-09T04:50:52.454   2216504612.8
RECEIVE_FREQ_1 =   2022-12-09T04:51:02.477   2216504611.5
RECEIVE_FREQ_1 =   2022-12-09T04:51:12.413   2216504610.0
RECEIVE_FREQ_1 =   2022-12-09T04:51:22.435   2216504608.9
RECEIVE_FREQ_1 =   2022-12-09T04:51:32.458   2216504607.3
RECEIVE_FREQ_1 =   2022-12-09T04:51:42.480   2216504606.3
RECEIVE_FREQ_1 =   2022-12-09T04:51:52.416   2216504604.8
RECEIVE_FREQ_1 =   2022-12-09T04:52:02.438   2216504603.0
RECEIVE_FREQ_1 =   2022-12-09T04:52:12.461   2216504601.8
RECEIVE_FREQ_1 =   2022-12-09T04:52:22.483   2216504600.4
RECEIVE_FREQ_1 =   2022-12-09T04:52:32.419   2216504599.5
RECEIVE_FREQ_1 =   2022-12-09T04:52:42.442   2216504598.3
RECEIVE_FREQ_1 =   2022-12-09T04:52:52.464   2216504596.8
RECEIVE_FREQ_1 =   2022-12-09T04:53:02.486   2216504595.7
RECEIVE_FREQ_1 =   2022-12-09T04:53:12.422   2216504594.3
RECEIVE_FREQ_1 =   2022-12-09T04:53:22.445   2216504592.8
RECEIVE_FREQ_1 =   2022-12-09T04:53:32.467   2216504591.4
RECEIVE_FREQ_1 =   2022-12-09T04:53:42.490   2216504589.8
RECEIVE_FREQ_1 =   2022-12-09T04:53:52.426   2216504588.7
RECEIVE_FREQ_1 =   2022-12-09T04:54:02.448   2216504587.7
RECEIVE_FREQ_1 =   2022-12-09T04:54:12.470   2216504586.0
RECEIVE_FREQ_1 =   2022-12-09T04:54:22.406   2216504584.7
RECEIVE_FREQ_1 =   2022-12-09T04:54:32.429   2216504583.6
RECEIVE_FREQ_1 =   2022-12-09T04:54:42.451   2216504582.5
RECEIVE_FREQ_1 =   2022-12-09T04:54:52.474   2216504580.8
RECEIVE_FREQ_1 =   2022-12-09T04:55:02.410   2216504579.3
RECEIVE_FREQ_1 =   2022-12-09T04:55:12.432   2216504578.3
RECEIVE_FREQ_1 =   2022-12-09T04:55:22.454   2216504576.8
RECEIVE_FREQ_1 =   2022-12-09T04:55:32.477   2216504575.3
RECEIVE_FREQ_1 =   2022-12-09T04:55:42.413   2216504574.2
RECEIVE_FREQ_1 =   2022-12-09T04:55:52.435   2216504572.7
RECEIVE_FREQ_1 =   2022-12-09T04:56:02.458   2216504571.7
RECEIVE_FREQ_1 =   2022-12-09T04:56:12.480   2216504570.8
RECEIVE_FREQ_1 =   2022-12-09T04:56:22.416   2216504569.5
RECEIVE_FREQ_1 =   2022-12-09T04:56:32.438   2216504567.9
RECEIVE_FREQ_1 =   2022-12-09T04:56:42.461   2216504566.4
RECEIVE_FREQ_1 =   2022-12-09T04:56:52.483   2216504564.9
RECEIVE_FREQ_1 =   2022-12-09T04:57:02.419   2216504564.1
RECEIVE_FREQ_1 =   2022-12-09T04:57:12.442   2216504562.3
RECEIVE_FREQ_1 =   2022-12-09T04:57:22.464   2216504561.4
RECEIVE_FREQ_1 =   2022-12-09T04:57:32.486   2216504560.0
RECEIVE_FREQ_1 =   2022-12-09T04:57:42.422   2216504558.1
RECEIVE_FREQ_1 =   2022-12-09T04:57:52.445   2216504556.9
RECEIVE_FREQ_1 =   2022-12-09T04:58:02.467   2216504555.4
RECEIVE_FREQ_1 =   2022-12-09T04:58:12.490   2216504554.4
RECEIVE_FREQ_1 =   2022-12-09T04:58:22.426   2216504552.9
RECEIVE_FREQ_1 =   2022-12-09T04:58:32.448   2216504552.1
RECEIVE_FREQ_1 =   2022-12-09T04:58:42.470   2216504550.4
RECEIVE_FREQ_1 =   2022-12-09T04:58:52.493   2216504549.1
RECEIVE_FREQ_1 =   2022-12-09T04:59:02.429   2216504547.7
RECEIVE_FREQ_1 =   2022-12-09T04:59:12.451   2216504546.2
RECEIVE_FREQ_1 =   2022-12-09T04:59:22.474   2216504545.1
RECEIVE_FREQ_1 =   2022-12-09T04:59:32.410   2216504543.6
RECEIVE_FREQ_1 =   2022-12-09T04:59:42.432   2216504542.2
RECEIVE_FREQ_1 =   2022-12-09T04:59:52.454   2216504540.9
RECEIVE_FREQ_1 =   2022-12-09T05:00:02.477   2216504539.4
RECEIVE_FREQ_1 =   2022-12-09T05:00:12.413   2216504538.3
RECEIVE_FREQ_1 =   2022-12-09T05:00:22.435   2216504536.6
RECEIVE_FREQ_1 =   2022-12-09T05:00:32.458   2216504535.4
RECEIVE_FREQ_1 =   2022-12-09T05:00:42.480   2216504534.1
RECEIVE_FREQ_1 =   2022-12-09T05:00:52.416   2216504532.9
RECEIVE_FREQ_1 =   2022-12-09T05:01:02.438   2216504531.6
RECEIVE_FREQ_1 =   2022-12-09T05:01:12.461   2216504530.3
RECEIVE_FREQ_1 =   2022-12-09T05:01:22.483   2216504528.6
RECEIVE_FREQ_1 =   2022-12-09T05:01:32.419   2216504527.2
RECEIVE_FREQ_1 =   2022-12-09T05:01:42.442   2216504526.1
RECEIVE_FREQ_1 =   2022-12-09T05:01:52.464   2216504525.0
RECEIVE_FREQ_1 =   2022-12-09T05:02:02.486   2216504523.7
RECEIVE_FREQ_1 =   2022-12-09T05:02:12.422   2216504522.1
RECEIVE_FREQ_1 =   2022-12-09T05:02:22.445   2216504521.1
RECEIVE_FREQ_1 =   2022-12-09T05:02:32.467   2216504519.2
RECEIVE_FREQ_1 =   2022-12-09T05:02:42.490   2216504518.4
RECEIVE_FREQ_1 =   2022-12-09T05:02:52.426   2216504516.8
RECEIVE_FREQ_1 =   2022-12-09T05:03:02.448   2216504515.6
RECEIVE_FREQ_1 =   2022-12-09T05:03:12.470   2216504513.8
RECEIVE_FREQ_1 =   2022-12-09T05:03:22.406   2216504512.7
RECEIVE_FREQ_1 =   2022-12-09T05:03:32.429   2216504511.6
RECEIVE_FREQ_1 =   2022-12-09T05:03:42.451   2216504510.1
RECEIVE_FREQ_1 =   2022-12-09T05:03:52.474   2216504508.6
RECEIVE_FREQ_1 =   2022-12-09T05:04:02.496   2216504507.2
RECEIVE_FREQ_1 =   2022-12-09T05:04:12.432   2216504505.7
RECEIVE_FREQ_1 =   2022-12-09T05:04:22.454   2216504504.5
RECEIVE_FREQ_1 =   2022-12-09T05:04:32.477   2216504502.9
RECEIVE_FREQ_1 =   2022-12-09T05:04:42.413   2216504502.0
RECEIVE_FREQ_1 =   2022-12-09T05:04:52.435   2216504500.7
RECEIVE_FREQ_1 =   2022-12-09T05:05:02.458   2216504499.5
RECEIVE_FREQ_1 =   2022-12-09T05:05:12.480   2216504498.1
RECEIVE_FREQ_1 =   2022-12-09T05:05:22.416   2216504496.2
RECEIVE_FREQ_1 =   2022-12-09T05:05:32.438   2216504495.0
RECEIVE_FREQ_1 =   2022-12-09T05:05:42.461   2216504494.0
