data/tdm/2022-12-04Z_2022-156A.tdm

CCSDS_TDM_VERS = 2.0
COMMENT TDM ARTEMIS 1 Doppler data by Scott Tilley for 2022-12-04 UTC
COMMENT Signal not demodulated, to low of SNR, centre carrier integrated in 10s by 0.1Hz bin and extracted for peak value.
CREATION_DATE = 2022-12-04Z
ORIGINATOR = SCOTT TILLEY

META_START
COMMENT 
COMMENT 
SYSTEM TIME = UTC
PARTICIPANT_1 = COSPAR 8049
PARTICIPANT_2 = 2022-156A
MODE = SEQUENTIAL
PATH = 2,1
INTEGRATION_INTERVAL = 10
INTEGRATION_REF = MIDDLE
FREQ_OFFSET = 0
TRANSMIT_DELAY_1 = 0
RECEIVE_DELAY_1 = 0
DATA_QUALITY = RAW
META_STOP

DATA_START
RECEIVE_FREQ_1 =   2022-12-05T00:17:22.330   2216500077.1
RECEIVE_FREQ_1 =   2022-12-05T00:18:02.333   2216500074.4
RECEIVE_FREQ_1 =   2022-12-05T00:18:52.272   2216500070.9
RECEIVE_FREQ_1 =   2022-12-05T00:19:02.294   2216500070.1
RECEIVE_FREQ_1 =   2022-12-05T00:19:12.317   2216500069.7
RECEIVE_FREQ_1 =   2022-12-05T00:19:22.339   2216500068.8
RECEIVE_FREQ_1 =   2022-12-05T00:19:32.275   2216500068.1
RECEIVE_FREQ_1 =   2022-12-05T00:19:42.298   2216500067.4
RECEIVE_FREQ_1 =   2022-12-05T00:19:52.320   2216500066.7
RECEIVE_FREQ_1 =   2022-12-05T00:23:02.314   2216500053.3
RECEIVE_FREQ_1 =   2022-12-05T00:23:12.336   2216500052.5
RECEIVE_FREQ_1 =   2022-12-05T00:23:22.272   2216500051.7
RECEIVE_FREQ_1 =   2022-12-05T00:23:32.294   2216500051.0
RECEIVE_FREQ_1 =   2022-12-05T00:24:12.298   2216500048.3
RECEIVE_FREQ_1 =   2022-12-05T00:24:32.342   2216500046.6
RECEIVE_FREQ_1 =   2022-12-05T00:24:42.278   2216500046.1
RECEIVE_FREQ_1 =   2022-12-05T00:25:12.259   2216500043.9
RECEIVE_FREQ_1 =   2022-12-05T00:25:22.282   2216500043.2
RECEIVE_FREQ_1 =   2022-12-05T00:25:32.304   2216500042.6
RECEIVE_FREQ_1 =   2022-12-05T00:25:42.326   2216500041.8
RECEIVE_FREQ_1 =   2022-12-05T00:25:52.349   2216500041.3
RECEIVE_FREQ_1 =   2022-12-05T00:26:12.307   2216500039.7
RECEIVE_FREQ_1 =   2022-12-05T00:26:32.266   2216500038.3
RECEIVE_FREQ_1 =   2022-12-05T00:26:42.288   2216500037.4
RECEIVE_FREQ_1 =   2022-12-05T00:26:52.310   2216500036.9
RECEIVE_FREQ_1 =   2022-12-05T00:27:12.269   2216500035.4
RECEIVE_FREQ_1 =   2022-12-05T00:27:22.291   2216500034.6
RECEIVE_FREQ_1 =   2022-12-05T00:27:32.314   2216500034.0
RECEIVE_FREQ_1 =   2022-12-05T00:27:42.336   2216500033.2
RECEIVE_FREQ_1 =   2022-12-05T00:27:52.358   2216500032.4
RECEIVE_FREQ_1 =   2022-12-05T00:28:02.294   2216500031.8
RECEIVE_FREQ_1 =   2022-12-05T00:28:12.317   2216500031.0
RECEIVE_FREQ_1 =   2022-12-05T00:28:42.298   2216500029.0
RECEIVE_FREQ_1 =   2022-12-05T00:28:52.320   2216500028.2
RECEIVE_FREQ_1 =   2022-12-05T00:29:02.342   2216500027.7
RECEIVE_FREQ_1 =   2022-12-05T00:29:12.278   2216500027.0
RECEIVE_FREQ_1 =   2022-12-05T00:29:32.323   2216500025.4
RECEIVE_FREQ_1 =   2022-12-05T00:29:42.259   2216500024.7
RECEIVE_FREQ_1 =   2022-12-05T00:30:02.304   2216500023.5
RECEIVE_FREQ_1 =   2022-12-05T00:30:12.326   2216500022.5
RECEIVE_FREQ_1 =   2022-12-05T00:30:22.262   2216500021.8
RECEIVE_FREQ_1 =   2022-12-05T00:30:32.285   2216500020.8
RECEIVE_FREQ_1 =   2022-12-05T00:30:42.307   2216500020.6
RECEIVE_FREQ_1 =   2022-12-05T00:31:02.352   2216500018.8
RECEIVE_FREQ_1 =   2022-12-05T00:31:12.288   2216500018.0
RECEIVE_FREQ_1 =   2022-12-05T00:31:42.269   2216500016.0
RECEIVE_FREQ_1 =   2022-12-05T00:31:52.378   2216500015.3
RECEIVE_FREQ_1 =   2022-12-05T00:32:32.294   2216500012.7
RECEIVE_FREQ_1 =   2022-12-05T00:33:22.320   2216500008.8
RECEIVE_FREQ_1 =   2022-12-05T00:33:32.342   2216500007.9
RECEIVE_FREQ_1 =   2022-12-05T00:35:12.307   2216499999.9
RECEIVE_FREQ_1 =   2022-12-05T00:36:22.291   2216499993.6
RECEIVE_FREQ_1 =   2022-12-05T00:36:32.314   2216499992.9
RECEIVE_FREQ_1 =   2022-12-05T00:39:32.285   2216499977.5
RECEIVE_FREQ_1 =   2022-12-05T00:40:12.288   2216499974.0
RECEIVE_FREQ_1 =   2022-12-05T00:40:42.355   2216499971.6
RECEIVE_FREQ_1 =   2022-12-05T00:41:22.272   2216499968.1
RECEIVE_FREQ_1 =   2022-12-05T00:41:32.294   2216499967.4
RECEIVE_FREQ_1 =   2022-12-05T00:42:02.275   2216499964.8
RECEIVE_FREQ_1 =   2022-12-05T00:42:42.278   2216499961.4
RECEIVE_FREQ_1 =   2022-12-05T00:43:02.323   2216499959.7
RECEIVE_FREQ_1 =   2022-12-05T00:43:12.346   2216499958.5
RECEIVE_FREQ_1 =   2022-12-05T00:43:22.368   2216499957.7
RECEIVE_FREQ_1 =   2022-12-05T00:43:42.326   2216499956.3
RECEIVE_FREQ_1 =   2022-12-05T00:43:52.349   2216499955.5
RECEIVE_FREQ_1 =   2022-12-05T00:44:02.285   2216499954.4
RECEIVE_FREQ_1 =   2022-12-05T00:44:32.266   2216499952.1
RECEIVE_FREQ_1 =   2022-12-05T00:44:42.288   2216499951.3
RECEIVE_FREQ_1 =   2022-12-05T00:45:22.291   2216499947.8
RECEIVE_FREQ_1 =   2022-12-05T00:46:02.294   2216499944.6
RECEIVE_FREQ_1 =   2022-12-05T00:46:12.317   2216499943.5
RECEIVE_FREQ_1 =   2022-12-05T00:46:22.339   2216499942.9
RECEIVE_FREQ_1 =   2022-12-05T00:46:42.298   2216499940.9
RECEIVE_FREQ_1 =   2022-12-05T00:46:52.320   2216499940.2
RECEIVE_FREQ_1 =   2022-12-05T00:47:12.278   2216499938.4
RECEIVE_FREQ_1 =   2022-12-05T00:47:22.301   2216499937.5
RECEIVE_FREQ_1 =   2022-12-05T00:47:32.323   2216499936.6
RECEIVE_FREQ_1 =   2022-12-05T00:47:42.259   2216499935.6
RECEIVE_FREQ_1 =   2022-12-05T00:47:52.282   2216499935.0
RECEIVE_FREQ_1 =   2022-12-05T00:48:02.304   2216499934.0
RECEIVE_FREQ_1 =   2022-12-05T00:48:12.326   2216499933.4
RECEIVE_FREQ_1 =   2022-12-05T00:48:22.349   2216499932.3
RECEIVE_FREQ_1 =   2022-12-05T00:48:32.285   2216499931.2
RECEIVE_FREQ_1 =   2022-12-05T00:48:42.307   2216499930.7
RECEIVE_FREQ_1 =   2022-12-05T00:48:52.330   2216499929.8
RECEIVE_FREQ_1 =   2022-12-05T00:49:02.266   2216499928.9
RECEIVE_FREQ_1 =   2022-12-05T00:49:12.288   2216499928.1
RECEIVE_FREQ_1 =   2022-12-05T00:49:22.310   2216499927.3
RECEIVE_FREQ_1 =   2022-12-05T00:49:32.333   2216499926.3
RECEIVE_FREQ_1 =   2022-12-05T00:49:42.269   2216499925.6
RECEIVE_FREQ_1 =   2022-12-05T00:49:52.291   2216499924.8
RECEIVE_FREQ_1 =   2022-12-05T00:50:02.314   2216499923.7
RECEIVE_FREQ_1 =   2022-12-05T00:50:12.336   2216499923.1
RECEIVE_FREQ_1 =   2022-12-05T00:50:22.272   2216499922.0
RECEIVE_FREQ_1 =   2022-12-05T00:50:32.294   2216499921.2
RECEIVE_FREQ_1 =   2022-12-05T00:50:42.317   2216499920.3
RECEIVE_FREQ_1 =   2022-12-05T00:50:52.339   2216499919.6
RECEIVE_FREQ_1 =   2022-12-05T00:51:02.275   2216499918.7
RECEIVE_FREQ_1 =   2022-12-05T00:51:12.298   2216499917.5
RECEIVE_FREQ_1 =   2022-12-05T00:51:22.320   2216499917.0
RECEIVE_FREQ_1 =   2022-12-05T00:51:32.342   2216499915.9
RECEIVE_FREQ_1 =   2022-12-05T00:51:42.278   2216499915.3
RECEIVE_FREQ_1 =   2022-12-05T00:51:52.301   2216499914.4
RECEIVE_FREQ_1 =   2022-12-05T00:52:02.323   2216499913.6
RECEIVE_FREQ_1 =   2022-12-05T00:52:12.346   2216499912.6
RECEIVE_FREQ_1 =   2022-12-05T00:52:22.282   2216499911.7
RECEIVE_FREQ_1 =   2022-12-05T00:52:42.326   2216499910.0
RECEIVE_FREQ_1 =   2022-12-05T00:52:52.262   2216499909.4
RECEIVE_FREQ_1 =   2022-12-05T00:53:02.285   2216499908.4
RECEIVE_FREQ_1 =   2022-12-05T00:53:12.307   2216499907.6
RECEIVE_FREQ_1 =   2022-12-05T00:53:22.330   2216499906.4
RECEIVE_FREQ_1 =   2022-12-05T00:53:32.352   2216499905.8
RECEIVE_FREQ_1 =   2022-12-05T00:53:42.288   2216499904.8
RECEIVE_FREQ_1 =   2022-12-05T00:53:52.310   2216499903.9
RECEIVE_FREQ_1 =   2022-12-05T00:54:02.333   2216499903.2
RECEIVE_FREQ_1 =   2022-12-05T00:54:12.269   2216499902.3
RECEIVE_FREQ_1 =   2022-12-05T00:54:22.291   2216499901.3
RECEIVE_FREQ_1 =   2022-12-05T00:54:32.314   2216499900.7
RECEIVE_FREQ_1 =   2022-12-05T00:54:42.336   2216499899.7
RECEIVE_FREQ_1 =   2022-12-05T00:54:52.272   2216499899.0
RECEIVE_FREQ_1 =   2022-12-05T00:55:02.294   2216499898.2
RECEIVE_FREQ_1 =   2022-12-05T00:55:12.317   2216499897.1
RECEIVE_FREQ_1 =   2022-12-05T00:55:22.339   2216499896.4
RECEIVE_FREQ_1 =   2022-12-05T00:55:32.275   2216499895.4
RECEIVE_FREQ_1 =   2022-12-05T00:55:42.298   2216499894.7
RECEIVE_FREQ_1 =   2022-12-05T00:55:52.320   2216499893.8
RECEIVE_FREQ_1 =   2022-12-05T00:56:02.342   2216499893.0
RECEIVE_FREQ_1 =   2022-12-05T00:56:12.365   2216499892.2
RECEIVE_FREQ_1 =   2022-12-05T00:56:22.301   2216499891.3
RECEIVE_FREQ_1 =   2022-12-05T00:56:32.323   2216499890.2
RECEIVE_FREQ_1 =   2022-12-05T00:56:42.346   2216499889.3
RECEIVE_FREQ_1 =   2022-12-05T00:56:52.282   2216499888.0
RECEIVE_FREQ_1 =   2022-12-05T00:57:02.304   2216499887.3
RECEIVE_FREQ_1 =   2022-12-05T00:57:12.326   2216499886.2
RECEIVE_FREQ_1 =   2022-12-05T00:57:22.349   2216499885.1
RECEIVE_FREQ_1 =   2022-12-05T00:57:32.285   2216499884.2
RECEIVE_FREQ_1 =   2022-12-05T00:57:42.307   2216499883.1
RECEIVE_FREQ_1 =   2022-12-05T00:57:52.330   2216499882.3
RECEIVE_FREQ_1 =   2022-12-05T00:58:02.266   2216499881.5
RECEIVE_FREQ_1 =   2022-12-05T00:58:12.288   2216499880.3
RECEIVE_FREQ_1 =   2022-12-05T00:58:22.310   2216499879.5
RECEIVE_FREQ_1 =   2022-12-05T00:58:32.333   2216499878.5
RECEIVE_FREQ_1 =   2022-12-05T00:58:42.269   2216499877.4
RECEIVE_FREQ_1 =   2022-12-05T00:58:52.291   2216499876.5
RECEIVE_FREQ_1 =   2022-12-05T00:59:02.314   2216499875.5
RECEIVE_FREQ_1 =   2022-12-05T00:59:12.336   2216499874.4
RECEIVE_FREQ_1 =   2022-12-05T00:59:22.272   2216499873.5
RECEIVE_FREQ_1 =   2022-12-05T00:59:32.294   2216499872.5
RECEIVE_FREQ_1 =   2022-12-05T00:59:42.317   2216499871.5
RECEIVE_FREQ_1 =   2022-12-05T00:59:52.339   2216499870.4
RECEIVE_FREQ_1 =   2022-12-05T01:00:02.362   2216499869.1
RECEIVE_FREQ_1 =   2022-12-05T01:00:12.298   2216499868.4
RECEIVE_FREQ_1 =   2022-12-05T01:00:22.320   2216499867.5
RECEIVE_FREQ_1 =   2022-12-05T01:00:32.342   2216499866.4
RECEIVE_FREQ_1 =   2022-12-05T01:00:42.278   2216499865.7
RECEIVE_FREQ_1 =   2022-12-05T01:00:52.301   2216499864.8
RECEIVE_FREQ_1 =   2022-12-05T01:01:02.323   2216499863.7
RECEIVE_FREQ_1 =   2022-12-05T01:01:12.259   2216499862.8
RECEIVE_FREQ_1 =   2022-12-05T01:01:22.282   2216499861.6
RECEIVE_FREQ_1 =   2022-12-05T01:01:32.304   2216499860.7
RECEIVE_FREQ_1 =   2022-12-05T01:01:42.326   2216499859.4
RECEIVE_FREQ_1 =   2022-12-05T01:01:52.349   2216499858.5
RECEIVE_FREQ_1 =   2022-12-05T01:02:02.285   2216499857.4
RECEIVE_FREQ_1 =   2022-12-05T01:02:12.307   2216499856.6
RECEIVE_FREQ_1 =   2022-12-05T01:02:22.330   2216499855.6
RECEIVE_FREQ_1 =   2022-12-05T01:02:32.698   2216499854.7
RECEIVE_FREQ_1 =   2022-12-05T01:02:42.634   2216499853.7
RECEIVE_FREQ_1 =   2022-12-05T01:02:52.656   2216499852.8
RECEIVE_FREQ_1 =   2022-12-05T01:03:02.592   2216499851.5
RECEIVE_FREQ_1 =   2022-12-05T01:03:12.614   2216499850.9
RECEIVE_FREQ_1 =   2022-12-05T01:03:22.637   2216499849.9
RECEIVE_FREQ_1 =   2022-12-05T01:03:32.659   2216499848.8
RECEIVE_FREQ_1 =   2022-12-05T01:03:42.595   2216499847.8
RECEIVE_FREQ_1 =   2022-12-05T01:03:52.618   2216499846.7
RECEIVE_FREQ_1 =   2022-12-05T01:04:02.640   2216499845.6
RECEIVE_FREQ_1 =   2022-12-05T01:04:12.662   2216499844.9
RECEIVE_FREQ_1 =   2022-12-05T01:04:22.598   2216499843.7
RECEIVE_FREQ_1 =   2022-12-05T01:04:32.621   2216499842.9
RECEIVE_FREQ_1 =   2022-12-05T01:04:42.643   2216499842.0
RECEIVE_FREQ_1 =   2022-12-05T01:04:52.666   2216499841.0
RECEIVE_FREQ_1 =   2022-12-05T01:05:02.602   2216499839.9
RECEIVE_FREQ_1 =   2022-12-05T01:05:12.624   2216499838.6
RECEIVE_FREQ_1 =   2022-12-05T01:05:22.646   2216499837.7
RECEIVE_FREQ_1 =   2022-12-05T01:05:32.582   2216499836.9
RECEIVE_FREQ_1 =   2022-12-05T01:05:42.605   2216499835.7
RECEIVE_FREQ_1 =   2022-12-05T01:05:52.627   2216499834.6
RECEIVE_FREQ_1 =   2022-12-05T01:06:02.650   2216499833.7
RECEIVE_FREQ_1 =   2022-12-05T01:06:12.672   2216499832.8
RECEIVE_FREQ_1 =   2022-12-05T01:06:22.694   2216499831.9
RECEIVE_FREQ_1 =   2022-12-05T01:06:32.630   2216499830.8
RECEIVE_FREQ_1 =   2022-12-05T01:06:42.653   2216499829.9
RECEIVE_FREQ_1 =   2022-12-05T01:06:52.589   2216499829.0
RECEIVE_FREQ_1 =   2022-12-05T01:07:02.611   2216499827.8
RECEIVE_FREQ_1 =   2022-12-05T01:07:12.634   2216499827.0
RECEIVE_FREQ_1 =   2022-12-05T01:07:22.656   2216499825.8
RECEIVE_FREQ_1 =   2022-12-05T01:07:32.678   2216499825.2
RECEIVE_FREQ_1 =   2022-12-05T01:07:42.614   2216499823.7
RECEIVE_FREQ_1 =   2022-12-05T01:07:52.637   2216499823.0
RECEIVE_FREQ_1 =   2022-12-05T01:08:02.659   2216499822.0
RECEIVE_FREQ_1 =   2022-12-05T01:08:12.595   2216499821.2
RECEIVE_FREQ_1 =   2022-12-05T01:08:22.618   2216499820.2
RECEIVE_FREQ_1 =   2022-12-05T01:08:32.640   2216499819.2
RECEIVE_FREQ_1 =   2022-12-05T01:08:42.576   2216499818.0
RECEIVE_FREQ_1 =   2022-12-05T01:08:52.598   2216499816.8
RECEIVE_FREQ_1 =   2022-12-05T01:09:02.621   2216499815.9
RECEIVE_FREQ_1 =   2022-12-05T01:09:12.643   2216499815.0
RECEIVE_FREQ_1 =   2022-12-05T01:09:22.579   2216499814.1
RECEIVE_FREQ_1 =   2022-12-05T01:09:32.602   2216499813.2
RECEIVE_FREQ_1 =   2022-12-05T01:09:42.624   2216499811.9
RECEIVE_FREQ_1 =   2022-12-05T01:09:52.646   2216499810.8
RECEIVE_FREQ_1 =   2022-12-05T01:10:02.582   2216499810.3
RECEIVE_FREQ_1 =   2022-12-05T01:10:12.605   2216499809.3
RECEIVE_FREQ_1 =   2022-12-05T01:10:22.627   2216499807.9
RECEIVE_FREQ_1 =   2022-12-05T01:10:32.650   2216499807.1
RECEIVE_FREQ_1 =   2022-12-05T01:10:42.586   2216499806.1
RECEIVE_FREQ_1 =   2022-12-05T01:10:52.608   2216499805.1
RECEIVE_FREQ_1 =   2022-12-05T01:11:02.630   2216499804.1
RECEIVE_FREQ_1 =   2022-12-05T01:11:12.566   2216499803.3
RECEIVE_FREQ_1 =   2022-12-05T01:11:22.589   2216499802.3
RECEIVE_FREQ_1 =   2022-12-05T01:11:32.611   2216499801.0
RECEIVE_FREQ_1 =   2022-12-05T01:11:42.634   2216499800.2
RECEIVE_FREQ_1 =   2022-12-05T01:11:52.656   2216499799.2
RECEIVE_FREQ_1 =   2022-12-05T01:12:02.592   2216499797.9
RECEIVE_FREQ_1 =   2022-12-05T01:12:12.614   2216499797.1
RECEIVE_FREQ_1 =   2022-12-05T01:12:22.637   2216499796.4
RECEIVE_FREQ_1 =   2022-12-05T01:12:32.573   2216499795.1
RECEIVE_FREQ_1 =   2022-12-05T01:12:42.595   2216499794.2
RECEIVE_FREQ_1 =   2022-12-05T01:12:52.618   2216499793.3
RECEIVE_FREQ_1 =   2022-12-05T01:13:02.640   2216499792.1
RECEIVE_FREQ_1 =   2022-12-05T01:13:12.576   2216499791.1
RECEIVE_FREQ_1 =   2022-12-05T01:13:22.598   2216499790.3
RECEIVE_FREQ_1 =   2022-12-05T01:13:32.621   2216499789.0
RECEIVE_FREQ_1 =   2022-12-05T01:13:42.643   2216499788.1
RECEIVE_FREQ_1 =   2022-12-05T01:13:52.579   2216499787.5
RECEIVE_FREQ_1 =   2022-12-05T01:14:02.602   2216499786.2
RECEIVE_FREQ_1 =   2022-12-05T01:14:12.624   2216499785.3
RECEIVE_FREQ_1 =   2022-12-05T01:14:22.646   2216499784.6
RECEIVE_FREQ_1 =   2022-12-05T01:14:32.582   2216499783.5
RECEIVE_FREQ_1 =   2022-12-05T01:14:42.605   2216499782.3
RECEIVE_FREQ_1 =   2022-12-05T01:14:52.627   2216499781.4
RECEIVE_FREQ_1 =   2022-12-05T01:15:02.650   2216499780.5
RECEIVE_FREQ_1 =   2022-12-05T01:15:12.672   2216499779.4
RECEIVE_FREQ_1 =   2022-12-05T01:15:22.608   2216499778.6
RECEIVE_FREQ_1 =   2022-12-05T01:15:32.630   2216499777.3
RECEIVE_FREQ_1 =   2022-12-05T01:15:42.653   2216499776.3
RECEIVE_FREQ_1 =   2022-12-05T01:15:52.589   2216499775.3
RECEIVE_FREQ_1 =   2022-12-05T01:16:02.611   2216499774.2
RECEIVE_FREQ_1 =   2022-12-05T01:16:12.634   2216499773.4
RECEIVE_FREQ_1 =   2022-12-05T01:16:22.656   2216499772.5
RECEIVE_FREQ_1 =   2022-12-05T01:16:32.592   2216499771.3
RECEIVE_FREQ_1 =   2022-12-05T01:16:42.614   2216499770.7
RECEIVE_FREQ_1 =   2022-12-05T01:16:52.637   2216499769.5
RECEIVE_FREQ_1 =   2022-12-05T01:17:02.573   2216499768.3
RECEIVE_FREQ_1 =   2022-12-05T01:17:12.595   2216499767.5
RECEIVE_FREQ_1 =   2022-12-05T01:17:22.618   2216499766.3
RECEIVE_FREQ_1 =   2022-12-05T01:17:32.640   2216499765.6
RECEIVE_FREQ_1 =   2022-12-05T01:17:42.576   2216499764.3
RECEIVE_FREQ_1 =   2022-12-05T01:17:52.598   2216499763.4
RECEIVE_FREQ_1 =   2022-12-05T01:18:02.621   2216499762.7
RECEIVE_FREQ_1 =   2022-12-05T01:18:12.643   2216499761.4
RECEIVE_FREQ_1 =   2022-12-05T01:18:22.579   2216499760.6
RECEIVE_FREQ_1 =   2022-12-05T01:18:32.602   2216499759.2
RECEIVE_FREQ_1 =   2022-12-05T01:18:42.624   2216499758.6
RECEIVE_FREQ_1 =   2022-12-05T01:18:52.646   2216499757.7
RECEIVE_FREQ_1 =   2022-12-05T01:19:02.582   2216499756.5
RECEIVE_FREQ_1 =   2022-12-05T01:19:12.605   2216499755.2
RECEIVE_FREQ_1 =   2022-12-05T01:19:22.627   2216499754.2
RECEIVE_FREQ_1 =   2022-12-05T01:19:32.650   2216499752.8
RECEIVE_FREQ_1 =   2022-12-05T01:19:42.672   2216499751.9
RECEIVE_FREQ_1 =   2022-12-05T01:19:52.608   2216499750.9
RECEIVE_FREQ_1 =   2022-12-05T01:20:02.630   2216499749.6
RECEIVE_FREQ_1 =   2022-12-05T01:20:12.653   2216499748.5
RECEIVE_FREQ_1 =   2022-12-05T01:20:22.589   2216499747.5
RECEIVE_FREQ_1 =   2022-12-05T01:20:32.611   2216499746.4
RECEIVE_FREQ_1 =   2022-12-05T01:20:42.634   2216499745.5
RECEIVE_FREQ_1 =   2022-12-05T01:20:52.656   2216499744.2
RECEIVE_FREQ_1 =   2022-12-05T01:21:02.592   2216499742.7
RECEIVE_FREQ_1 =   2022-12-05T01:21:12.614   2216499741.8
RECEIVE_FREQ_1 =   2022-12-05T01:21:22.637   2216499740.6
RECEIVE_FREQ_1 =   2022-12-05T01:21:32.573   2216499739.4
RECEIVE_FREQ_1 =   2022-12-05T01:21:42.595   2216499738.4
RECEIVE_FREQ_1 =   2022-12-05T01:21:52.618   2216499737.5
RECEIVE_FREQ_1 =   2022-12-05T01:22:02.640   2216499736.1
RECEIVE_FREQ_1 =   2022-12-05T01:22:12.576   2216499735.1
RECEIVE_FREQ_1 =   2022-12-05T01:22:22.598   2216499734.0
RECEIVE_FREQ_1 =   2022-12-05T01:22:32.621   2216499732.8
RECEIVE_FREQ_1 =   2022-12-05T01:22:42.643   2216499732.0
RECEIVE_FREQ_1 =   2022-12-05T01:22:52.579   2216499730.7
RECEIVE_FREQ_1 =   2022-12-05T01:23:02.602   2216499729.5
RECEIVE_FREQ_1 =   2022-12-05T01:23:12.624   2216499728.6
RECEIVE_FREQ_1 =   2022-12-05T01:23:22.646   2216499727.5
RECEIVE_FREQ_1 =   2022-12-05T01:23:32.582   2216499726.0
RECEIVE_FREQ_1 =   2022-12-05T01:23:42.605   2216499725.1
RECEIVE_FREQ_1 =   2022-12-05T01:23:52.627   2216499723.9
RECEIVE_FREQ_1 =   2022-12-05T01:24:02.650   2216499722.8
RECEIVE_FREQ_1 =   2022-12-05T01:24:12.586   2216499722.0
RECEIVE_FREQ_1 =   2022-12-05T01:24:22.608   2216499720.9
RECEIVE_FREQ_1 =   2022-12-05T01:24:32.630   2216499719.3
RECEIVE_FREQ_1 =   2022-12-05T01:24:42.653   2216499718.7
RECEIVE_FREQ_1 =   2022-12-05T01:24:52.589   2216499717.2
RECEIVE_FREQ_1 =   2022-12-05T01:25:02.611   2216499716.1
RECEIVE_FREQ_1 =   2022-12-05T01:25:12.634   2216499715.0
RECEIVE_FREQ_1 =   2022-12-05T01:25:22.656   2216499713.9
RECEIVE_FREQ_1 =   2022-12-05T01:25:32.592   2216499712.9
RECEIVE_FREQ_1 =   2022-12-05T01:25:42.614   2216499711.8
RECEIVE_FREQ_1 =   2022-12-05T01:25:52.637   2216499710.4
RECEIVE_FREQ_1 =   2022-12-05T01:26:02.573   2216499709.6
RECEIVE_FREQ_1 =   2022-12-05T01:26:12.595   2216499708.4
RECEIVE_FREQ_1 =   2022-12-05T01:26:22.618   2216499707.3
RECEIVE_FREQ_1 =   2022-12-05T01:26:32.640   2216499706.1
RECEIVE_FREQ_1 =   2022-12-05T01:26:42.576   2216499704.7
RECEIVE_FREQ_1 =   2022-12-05T01:26:52.598   2216499703.9
RECEIVE_FREQ_1 =   2022-12-05T01:27:02.621   2216499702.7
RECEIVE_FREQ_1 =   2022-12-05T01:27:12.643   2216499701.7
RECEIVE_FREQ_1 =   2022-12-05T01:27:22.579   2216499700.5
RECEIVE_FREQ_1 =   2022-12-05T01:27:32.602   2216499699.3
RECEIVE_FREQ_1 =   2022-12-05T01:27:42.624   2216499698.0
RECEIVE_FREQ_1 =   2022-12-05T01:27:52.646   2216499697.3
RECEIVE_FREQ_1 =   2022-12-05T01:28:02.669   2216499695.7
RECEIVE_FREQ_1 =   2022-12-05T01:28:12.691   2216499694.6
RECEIVE_FREQ_1 =   2022-12-05T01:28:22.627   2216499693.8
RECEIVE_FREQ_1 =   2022-12-05T01:28:32.650   2216499692.7
RECEIVE_FREQ_1 =   2022-12-05T01:28:42.586   2216499691.7
RECEIVE_FREQ_1 =   2022-12-05T01:28:52.608   2216499690.7
RECEIVE_FREQ_1 =   2022-12-05T01:29:02.630   2216499689.2
RECEIVE_FREQ_1 =   2022-12-05T01:29:12.566   2216499688.3
RECEIVE_FREQ_1 =   2022-12-05T01:29:22.589   2216499687.0
RECEIVE_FREQ_1 =   2022-12-05T01:29:32.611   2216499685.8
RECEIVE_FREQ_1 =   2022-12-05T01:29:42.634   2216499684.7
RECEIVE_FREQ_1 =   2022-12-05T01:29:52.656   2216499683.4
RECEIVE_FREQ_1 =   2022-12-05T01:30:02.592   2216499682.9
RECEIVE_FREQ_1 =   2022-12-05T01:30:12.614   2216499681.6
RECEIVE_FREQ_1 =   2022-12-05T01:30:22.637   2216499680.2
RECEIVE_FREQ_1 =   2022-12-05T01:30:32.573   2216499679.3
RECEIVE_FREQ_1 =   2022-12-05T01:30:42.595   2216499678.0
RECEIVE_FREQ_1 =   2022-12-05T01:30:52.618   2216499676.8
RECEIVE_FREQ_1 =   2022-12-05T01:31:02.640   2216499675.9
RECEIVE_FREQ_1 =   2022-12-05T01:31:12.576   2216499674.6
RECEIVE_FREQ_1 =   2022-12-05T01:31:22.598   2216499673.7
RECEIVE_FREQ_1 =   2022-12-05T01:31:32.621   2216499672.5
RECEIVE_FREQ_1 =   2022-12-05T01:31:42.643   2216499671.4
RECEIVE_FREQ_1 =   2022-12-05T01:31:52.579   2216499670.3
RECEIVE_FREQ_1 =   2022-12-05T01:32:02.602   2216499669.2
RECEIVE_FREQ_1 =   2022-12-05T01:32:12.624   2216499668.0
RECEIVE_FREQ_1 =   2022-12-05T01:32:22.560   2216499667.2
RECEIVE_FREQ_1 =   2022-12-05T01:32:32.582   2216499665.8
RECEIVE_FREQ_1 =   2022-12-05T01:32:42.605   2216499664.8
RECEIVE_FREQ_1 =   2022-12-05T01:32:52.627   2216499663.6
RECEIVE_FREQ_1 =   2022-12-05T01:33:02.650   2216499662.6
RECEIVE_FREQ_1 =   2022-12-05T01:33:12.586   2216499661.1
RECEIVE_FREQ_1 =   2022-12-05T01:33:22.608   2216499660.5
RECEIVE_FREQ_1 =   2022-12-05T01:33:32.630   2216499659.1
RECEIVE_FREQ_1 =   2022-12-05T01:33:42.653   2216499657.8
RECEIVE_FREQ_1 =   2022-12-05T01:33:52.589   2216499657.1
RECEIVE_FREQ_1 =   2022-12-05T01:34:02.611   2216499655.8
RECEIVE_FREQ_1 =   2022-12-05T01:34:12.634   2216499654.7
RECEIVE_FREQ_1 =   2022-12-05T01:34:22.570   2216499653.6
RECEIVE_FREQ_1 =   2022-12-05T01:34:32.592   2216499652.6
RECEIVE_FREQ_1 =   2022-12-05T01:34:42.614   2216499651.4
RECEIVE_FREQ_1 =   2022-12-05T01:34:52.637   2216499650.3
RECEIVE_FREQ_1 =   2022-12-05T01:35:02.573   2216499649.0
RECEIVE_FREQ_1 =   2022-12-05T01:35:12.595   2216499647.9
RECEIVE_FREQ_1 =   2022-12-05T01:35:22.618   2216499647.1
RECEIVE_FREQ_1 =   2022-12-05T01:35:32.640   2216499645.9
RECEIVE_FREQ_1 =   2022-12-05T01:35:42.576   2216499644.6
RECEIVE_FREQ_1 =   2022-12-05T01:35:52.598   2216499643.9
RECEIVE_FREQ_1 =   2022-12-05T01:36:02.621   2216499642.2
RECEIVE_FREQ_1 =   2022-12-05T01:36:12.643   2216499641.4
RECEIVE_FREQ_1 =   2022-12-05T01:36:22.579   2216499640.0
RECEIVE_FREQ_1 =   2022-12-05T01:36:32.602   2216499639.0
RECEIVE_FREQ_1 =   2022-12-05T01:36:42.624   2216499637.9
RECEIVE_FREQ_1 =   2022-12-05T01:36:52.560   2216499636.6
RECEIVE_FREQ_1 =   2022-12-05T01:37:02.582   2216499635.8
RECEIVE_FREQ_1 =   2022-12-05T01:37:12.605   2216499634.4
RECEIVE_FREQ_1 =   2022-12-05T01:37:22.627   2216499633.1
RECEIVE_FREQ_1 =   2022-12-05T01:37:32.650   2216499632.3
RECEIVE_FREQ_1 =   2022-12-05T01:37:42.586   2216499631.0
RECEIVE_FREQ_1 =   2022-12-05T01:37:52.608   2216499630.4
RECEIVE_FREQ_1 =   2022-12-05T01:38:02.630   2216499628.8
RECEIVE_FREQ_1 =   2022-12-05T01:38:12.653   2216499627.9
RECEIVE_FREQ_1 =   2022-12-05T01:38:22.589   2216499626.7
RECEIVE_FREQ_1 =   2022-12-05T01:38:32.611   2216499625.5
RECEIVE_FREQ_1 =   2022-12-05T01:38:42.634   2216499624.7
RECEIVE_FREQ_1 =   2022-12-05T01:38:52.570   2216499623.4
RECEIVE_FREQ_1 =   2022-12-05T01:39:02.592   2216499622.5
RECEIVE_FREQ_1 =   2022-12-05T01:39:12.614   2216499621.0
RECEIVE_FREQ_1 =   2022-12-05T01:39:22.637   2216499620.1
RECEIVE_FREQ_1 =   2022-12-05T01:39:32.573   2216499619.1
RECEIVE_FREQ_1 =   2022-12-05T01:39:42.595   2216499617.8
RECEIVE_FREQ_1 =   2022-12-05T01:39:52.618   2216499616.5
RECEIVE_FREQ_1 =   2022-12-05T01:40:02.640   2216499615.8
RECEIVE_FREQ_1 =   2022-12-05T01:40:12.576   2216499614.6
RECEIVE_FREQ_1 =   2022-12-05T01:40:22.598   2216499613.5
RECEIVE_FREQ_1 =   2022-12-05T01:40:32.621   2216499612.0
RECEIVE_FREQ_1 =   2022-12-05T01:40:42.643   2216499611.2
RECEIVE_FREQ_1 =   2022-12-05T01:40:52.579   2216499609.7
RECEIVE_FREQ_1 =   2022-12-05T01:41:02.602   2216499608.7
RECEIVE_FREQ_1 =   2022-12-05T01:41:12.624   2216499607.4
RECEIVE_FREQ_1 =   2022-12-05T01:41:22.646   2216499606.3
RECEIVE_FREQ_1 =   2022-12-05T01:41:32.669   2216499604.9
RECEIVE_FREQ_1 =   2022-12-05T01:41:42.605   2216499603.6
RECEIVE_FREQ_1 =   2022-12-05T01:41:52.627   2216499602.5
RECEIVE_FREQ_1 =   2022-12-05T01:42:02.563   2216499601.2
RECEIVE_FREQ_1 =   2022-12-05T01:42:12.586   2216499600.1
RECEIVE_FREQ_1 =   2022-12-05T01:42:22.608   2216499598.5
RECEIVE_FREQ_1 =   2022-12-05T01:42:32.630   2216499597.3
RECEIVE_FREQ_1 =   2022-12-05T01:42:42.566   2216499596.2
RECEIVE_FREQ_1 =   2022-12-05T01:42:52.589   2216499595.0
RECEIVE_FREQ_1 =   2022-12-05T01:43:02.611   2216499593.8
RECEIVE_FREQ_1 =   2022-12-05T01:43:12.634   2216499592.3
RECEIVE_FREQ_1 =   2022-12-05T01:43:22.656   2216499591.4
RECEIVE_FREQ_1 =   2022-12-05T01:43:32.592   2216499589.6
RECEIVE_FREQ_1 =   2022-12-05T01:43:42.614   2216499588.7
RECEIVE_FREQ_1 =   2022-12-05T01:43:52.637   2216499587.4
RECEIVE_FREQ_1 =   2022-12-05T01:44:02.573   2216499586.4
RECEIVE_FREQ_1 =   2022-12-05T01:44:12.595   2216499585.1
RECEIVE_FREQ_1 =   2022-12-05T01:44:22.618   2216499583.9
RECEIVE_FREQ_1 =   2022-12-05T01:44:32.640   2216499582.3
RECEIVE_FREQ_1 =   2022-12-05T01:44:42.576   2216499581.1
RECEIVE_FREQ_1 =   2022-12-05T01:44:52.598   2216499579.7
RECEIVE_FREQ_1 =   2022-12-05T01:45:02.621   2216499579.0
RECEIVE_FREQ_1 =   2022-12-05T01:45:12.643   2216499577.9
RECEIVE_FREQ_1 =   2022-12-05T01:45:22.579   2216499576.2
RECEIVE_FREQ_1 =   2022-12-05T01:45:32.602   2216499575.1
RECEIVE_FREQ_1 =   2022-12-05T01:45:42.624   2216499573.9
RECEIVE_FREQ_1 =   2022-12-05T01:45:52.560   2216499572.8
RECEIVE_FREQ_1 =   2022-12-05T01:46:02.582   2216499571.3
RECEIVE_FREQ_1 =   2022-12-05T01:46:12.605   2216499570.1
RECEIVE_FREQ_1 =   2022-12-05T01:46:22.627   2216499568.7
RECEIVE_FREQ_1 =   2022-12-05T01:46:32.650   2216499567.9
RECEIVE_FREQ_1 =   2022-12-05T01:46:42.586   2216499566.4
RECEIVE_FREQ_1 =   2022-12-05T01:46:52.608   2216499564.9
RECEIVE_FREQ_1 =   2022-12-05T01:47:02.630   2216499564.2
RECEIVE_FREQ_1 =   2022-12-05T01:47:12.653   2216499562.9
RECEIVE_FREQ_1 =   2022-12-05T01:47:22.589   2216499561.5
RECEIVE_FREQ_1 =   2022-12-05T01:47:32.611   2216499560.2
RECEIVE_FREQ_1 =   2022-12-05T01:47:42.634   2216499559.0
RECEIVE_FREQ_1 =   2022-12-05T01:47:52.656   2216499557.9
RECEIVE_FREQ_1 =   2022-12-05T01:48:02.592   2216499556.5
RECEIVE_FREQ_1 =   2022-12-05T01:48:12.614   2216499555.2
RECEIVE_FREQ_1 =   2022-12-05T01:48:22.637   2216499553.9
RECEIVE_FREQ_1 =   2022-12-05T01:48:32.573   2216499552.9
RECEIVE_FREQ_1 =   2022-12-05T01:48:42.595   2216499551.6
RECEIVE_FREQ_1 =   2022-12-05T01:48:52.618   2216499550.2
RECEIVE_FREQ_1 =   2022-12-05T01:49:02.640   2216499549.2
RECEIVE_FREQ_1 =   2022-12-05T01:49:12.576   2216499548.0
RECEIVE_FREQ_1 =   2022-12-05T01:49:22.598   2216499546.6
RECEIVE_FREQ_1 =   2022-12-05T01:49:32.621   2216499545.2
RECEIVE_FREQ_1 =   2022-12-05T01:49:42.643   2216499544.2
RECEIVE_FREQ_1 =   2022-12-05T01:49:52.579   2216499542.5
RECEIVE_FREQ_1 =   2022-12-05T01:50:02.602   2216499541.8
RECEIVE_FREQ_1 =   2022-12-05T01:50:12.624   2216499540.6
RECEIVE_FREQ_1 =   2022-12-05T01:50:22.646   2216499539.2
RECEIVE_FREQ_1 =   2022-12-05T01:50:32.582   2216499537.8
RECEIVE_FREQ_1 =   2022-12-05T01:50:42.605   2216499536.8
RECEIVE_FREQ_1 =   2022-12-05T01:50:52.627   2216499535.5
RECEIVE_FREQ_1 =   2022-12-05T01:51:02.650   2216499534.2
RECEIVE_FREQ_1 =   2022-12-05T01:51:12.586   2216499532.5
RECEIVE_FREQ_1 =   2022-12-05T01:51:22.608   2216499531.8
RECEIVE_FREQ_1 =   2022-12-05T01:51:32.630   2216499530.5
RECEIVE_FREQ_1 =   2022-12-05T01:51:42.653   2216499529.0
RECEIVE_FREQ_1 =   2022-12-05T01:51:52.589   2216499527.9
RECEIVE_FREQ_1 =   2022-12-05T01:52:02.611   2216499527.0
RECEIVE_FREQ_1 =   2022-12-05T01:52:12.634   2216499525.6
RECEIVE_FREQ_1 =   2022-12-05T01:52:22.656   2216499524.4
RECEIVE_FREQ_1 =   2022-12-05T01:52:32.592   2216499523.1
RECEIVE_FREQ_1 =   2022-12-05T01:52:42.614   2216499522.0
RECEIVE_FREQ_1 =   2022-12-05T01:52:52.637   2216499520.5
RECEIVE_FREQ_1 =   2022-12-05T01:53:02.659   2216499519.6
RECEIVE_FREQ_1 =   2022-12-05T01:53:12.682   2216499518.2
RECEIVE_FREQ_1 =   2022-12-05T01:53:22.618   2216499516.6
RECEIVE_FREQ_1 =   2022-12-05T01:53:32.640   2216499515.8
RECEIVE_FREQ_1 =   2022-12-05T01:53:42.576   2216499514.3
RECEIVE_FREQ_1 =   2022-12-05T01:53:52.598   2216499513.2
RECEIVE_FREQ_1 =   2022-12-05T01:54:02.621   2216499511.9
RECEIVE_FREQ_1 =   2022-12-05T01:54:12.643   2216499510.8
RECEIVE_FREQ_1 =   2022-12-05T01:54:22.579   2216499509.2
RECEIVE_FREQ_1 =   2022-12-05T01:54:32.602   2216499508.3
RECEIVE_FREQ_1 =   2022-12-05T01:54:42.624   2216499507.0
RECEIVE_FREQ_1 =   2022-12-05T01:54:52.646   2216499505.5
RECEIVE_FREQ_1 =   2022-12-05T01:55:02.669   2216499504.3
RECEIVE_FREQ_1 =   2022-12-05T01:55:12.605   2216499503.1
RECEIVE_FREQ_1 =   2022-12-05T01:55:22.627   2216499501.9
RECEIVE_FREQ_1 =   2022-12-05T01:55:32.650   2216499500.8
RECEIVE_FREQ_1 =   2022-12-05T01:55:42.672   2216499499.5
RECEIVE_FREQ_1 =   2022-12-05T01:55:52.608   2216499498.2
RECEIVE_FREQ_1 =   2022-12-05T01:56:02.630   2216499497.2
RECEIVE_FREQ_1 =   2022-12-05T01:56:12.653   2216499495.9
RECEIVE_FREQ_1 =   2022-12-05T01:56:22.589   2216499494.6
RECEIVE_FREQ_1 =   2022-12-05T01:56:32.611   2216499493.7
RECEIVE_FREQ_1 =   2022-12-05T01:56:42.634   2216499492.2
RECEIVE_FREQ_1 =   2022-12-05T01:56:52.656   2216499490.9
RECEIVE_FREQ_1 =   2022-12-05T01:57:02.678   2216499489.7
RECEIVE_FREQ_1 =   2022-12-05T01:57:12.614   2216499488.7
RECEIVE_FREQ_1 =   2022-12-05T01:57:22.637   2216499487.5
RECEIVE_FREQ_1 =   2022-12-05T01:57:32.659   2216499485.7
RECEIVE_FREQ_1 =   2022-12-05T01:57:42.682   2216499484.6
RECEIVE_FREQ_1 =   2022-12-05T01:57:52.618   2216499483.7
RECEIVE_FREQ_1 =   2022-12-05T01:58:02.640   2216499482.2
RECEIVE_FREQ_1 =   2022-12-05T01:58:12.662   2216499481.2
RECEIVE_FREQ_1 =   2022-12-05T01:58:22.598   2216499479.7
RECEIVE_FREQ_1 =   2022-12-05T01:58:32.621   2216499478.7
RECEIVE_FREQ_1 =   2022-12-05T01:58:42.643   2216499477.4
RECEIVE_FREQ_1 =   2022-12-05T01:58:52.666   2216499476.4
RECEIVE_FREQ_1 =   2022-12-05T01:59:02.602   2216499474.6
RECEIVE_FREQ_1 =   2022-12-05T01:59:12.624   2216499473.6
RECEIVE_FREQ_1 =   2022-12-05T01:59:22.646   2216499472.2
RECEIVE_FREQ_1 =   2022-12-05T01:59:32.669   2216499471.1
RECEIVE_FREQ_1 =   2022-12-05T01:59:42.605   2216499470.0
RECEIVE_FREQ_1 =   2022-12-05T01:59:52.627   2216499468.8
RECEIVE_FREQ_1 =   2022-12-05T02:00:02.650   2216499467.4
RECEIVE_FREQ_1 =   2022-12-05T02:00:12.672   2216499466.2
RECEIVE_FREQ_1 =   2022-12-05T02:00:22.608   2216499465.2
RECEIVE_FREQ_1 =   2022-12-05T02:00:32.630   2216499463.8
RECEIVE_FREQ_1 =   2022-12-05T02:00:42.653   2216499462.8
RECEIVE_FREQ_1 =   2022-12-05T02:00:52.675   2216499461.4
RECEIVE_FREQ_1 =   2022-12-05T02:01:02.698   2216499460.2
RECEIVE_FREQ_1 =   2022-12-05T02:01:12.720   2216499458.7
RECEIVE_FREQ_1 =   2022-12-05T02:01:22.656   2216499457.6
RECEIVE_FREQ_1 =   2022-12-05T02:01:32.678   2216499456.4
RECEIVE_FREQ_1 =   2022-12-05T02:01:42.701   2216499455.1
RECEIVE_FREQ_1 =   2022-12-05T02:01:52.637   2216499453.9
RECEIVE_FREQ_1 =   2022-12-05T02:02:02.659   2216499453.0
RECEIVE_FREQ_1 =   2022-12-05T02:02:12.595   2216499451.3
RECEIVE_FREQ_1 =   2022-12-05T02:02:22.618   2216499450.1
RECEIVE_FREQ_1 =   2022-12-05T02:02:32.640   2216499448.8
RECEIVE_FREQ_1 =   2022-12-05T02:02:42.662   2216499447.1
RECEIVE_FREQ_1 =   2022-12-05T02:02:52.598   2216499445.9
RECEIVE_FREQ_1 =   2022-12-05T02:03:02.621   2216499444.7
RECEIVE_FREQ_1 =   2022-12-05T02:03:12.643   2216499443.2
RECEIVE_FREQ_1 =   2022-12-05T02:03:22.666   2216499442.1
RECEIVE_FREQ_1 =   2022-12-05T02:03:32.602   2216499440.5
RECEIVE_FREQ_1 =   2022-12-05T02:03:42.624   2216499439.2
RECEIVE_FREQ_1 =   2022-12-05T02:03:52.646   2216499438.0
RECEIVE_FREQ_1 =   2022-12-05T02:04:02.669   2216499436.6
RECEIVE_FREQ_1 =   2022-12-05T02:04:12.605   2216499435.0
RECEIVE_FREQ_1 =   2022-12-05T02:04:22.627   2216499433.4
RECEIVE_FREQ_1 =   2022-12-05T02:04:32.650   2216499432.7
RECEIVE_FREQ_1 =   2022-12-05T02:04:42.672   2216499431.1
RECEIVE_FREQ_1 =   2022-12-05T02:04:52.608   2216499429.8
RECEIVE_FREQ_1 =   2022-12-05T02:05:02.630   2216499428.2
RECEIVE_FREQ_1 =   2022-12-05T02:05:12.653   2216499426.8
RECEIVE_FREQ_1 =   2022-12-05T02:05:22.589   2216499425.3
RECEIVE_FREQ_1 =   2022-12-05T02:05:32.611   2216499424.1
RECEIVE_FREQ_1 =   2022-12-05T02:05:42.634   2216499423.0
RECEIVE_FREQ_1 =   2022-12-05T02:05:52.656   2216499421.6
RECEIVE_FREQ_1 =   2022-12-05T02:06:02.678   2216499420.3
RECEIVE_FREQ_1 =   2022-12-05T02:06:12.614   2216499418.8
RECEIVE_FREQ_1 =   2022-12-05T02:06:22.637   2216499417.2
RECEIVE_FREQ_1 =   2022-12-05T02:06:32.659   2216499416.2
RECEIVE_FREQ_1 =   2022-12-05T02:06:42.595   2216499414.6
RECEIVE_FREQ_1 =   2022-12-05T02:06:52.618   2216499413.4
RECEIVE_FREQ_1 =   2022-12-05T02:07:02.640   2216499412.2
RECEIVE_FREQ_1 =   2022-12-05T02:07:12.662   2216499410.5
RECEIVE_FREQ_1 =   2022-12-05T02:07:22.598   2216499409.2
RECEIVE_FREQ_1 =   2022-12-05T02:07:32.621   2216499408.0
RECEIVE_FREQ_1 =   2022-12-05T02:07:42.643   2216499406.5
RECEIVE_FREQ_1 =   2022-12-05T02:07:52.666   2216499405.1
RECEIVE_FREQ_1 =   2022-12-05T02:08:02.602   2216499404.2
RECEIVE_FREQ_1 =   2022-12-05T02:08:12.624   2216499402.4
RECEIVE_FREQ_1 =   2022-12-05T02:08:22.646   2216499401.4
RECEIVE_FREQ_1 =   2022-12-05T02:08:32.669   2216499399.8
RECEIVE_FREQ_1 =   2022-12-05T02:08:42.605   2216499398.7
RECEIVE_FREQ_1 =   2022-12-05T02:08:52.627   2216499397.1
RECEIVE_FREQ_1 =   2022-12-05T02:09:02.650   2216499396.0
RECEIVE_FREQ_1 =   2022-12-05T02:09:12.672   2216499394.8
RECEIVE_FREQ_1 =   2022-12-05T02:09:22.608   2216499393.2
RECEIVE_FREQ_1 =   2022-12-05T02:09:32.630   2216499391.5
RECEIVE_FREQ_1 =   2022-12-05T02:09:42.653   2216499390.3
RECEIVE_FREQ_1 =   2022-12-05T02:09:52.589   2216499389.0
RECEIVE_FREQ_1 =   2022-12-05T02:10:02.611   2216499387.5
RECEIVE_FREQ_1 =   2022-12-05T02:10:12.634   2216499386.3
RECEIVE_FREQ_1 =   2022-12-05T02:10:22.656   2216499385.0
RECEIVE_FREQ_1 =   2022-12-05T02:10:32.592   2216499383.5
RECEIVE_FREQ_1 =   2022-12-05T02:10:42.614   2216499382.5
RECEIVE_FREQ_1 =   2022-12-05T02:10:52.637   2216499380.9
RECEIVE_FREQ_1 =   2022-12-05T02:11:02.659   2216499379.7
RECEIVE_FREQ_1 =   2022-12-05T02:11:12.595   2216499378.2
RECEIVE_FREQ_1 =   2022-12-05T02:11:22.618   2216499376.6
RECEIVE_FREQ_1 =   2022-12-05T02:11:32.640   2216499375.6
RECEIVE_FREQ_1 =   2022-12-05T02:11:42.662   2216499374.1
RECEIVE_FREQ_1 =   2022-12-05T02:11:52.598   2216499372.7
RECEIVE_FREQ_1 =   2022-12-05T02:12:02.621   2216499371.6
RECEIVE_FREQ_1 =   2022-12-05T02:12:12.643   2216499370.3
RECEIVE_FREQ_1 =   2022-12-05T02:12:22.579   2216499369.1
RECEIVE_FREQ_1 =   2022-12-05T02:12:32.602   2216499367.2
RECEIVE_FREQ_1 =   2022-12-05T02:12:42.624   2216499365.8
RECEIVE_FREQ_1 =   2022-12-05T02:12:52.646   2216499364.8
RECEIVE_FREQ_1 =   2022-12-05T02:13:02.582   2216499363.4
RECEIVE_FREQ_1 =   2022-12-05T02:13:12.605   2216499361.9
RECEIVE_FREQ_1 =   2022-12-05T02:13:22.627   2216499360.9
RECEIVE_FREQ_1 =   2022-12-05T02:13:32.650   2216499359.2
RECEIVE_FREQ_1 =   2022-12-05T02:13:42.672   2216499358.0
RECEIVE_FREQ_1 =   2022-12-05T02:13:52.608   2216499356.6
RECEIVE_FREQ_1 =   2022-12-05T02:14:02.630   2216499355.3
RECEIVE_FREQ_1 =   2022-12-05T02:14:12.653   2216499354.1
RECEIVE_FREQ_1 =   2022-12-05T02:14:22.589   2216499352.4
RECEIVE_FREQ_1 =   2022-12-05T02:14:32.611   2216499351.2
RECEIVE_FREQ_1 =   2022-12-05T02:14:42.634   2216499349.8
RECEIVE_FREQ_1 =   2022-12-05T02:14:52.656   2216499348.5
RECEIVE_FREQ_1 =   2022-12-05T02:15:02.592   2216499347.1
RECEIVE_FREQ_1 =   2022-12-05T02:15:12.614   2216499346.0
RECEIVE_FREQ_1 =   2022-12-05T02:15:22.637   2216499344.8
RECEIVE_FREQ_1 =   2022-12-05T02:15:32.659   2216499343.2
RECEIVE_FREQ_1 =   2022-12-05T02:15:42.595   2216499342.3
RECEIVE_FREQ_1 =   2022-12-05T02:15:52.618   2216499340.5
RECEIVE_FREQ_1 =   2022-12-05T02:16:02.640   2216499339.3
RECEIVE_FREQ_1 =   2022-12-05T02:16:12.662   2216499338.0
RECEIVE_FREQ_1 =   2022-12-05T02:16:22.598   2216499336.4
RECEIVE_FREQ_1 =   2022-12-05T02:16:32.621   2216499334.8
RECEIVE_FREQ_1 =   2022-12-05T02:16:42.643   2216499333.7
RECEIVE_FREQ_1 =   2022-12-05T02:16:52.666   2216499332.4
RECEIVE_FREQ_1 =   2022-12-05T02:17:02.688   2216499331.1
RECEIVE_FREQ_1 =   2022-12-05T02:17:12.624   2216499329.8
RECEIVE_FREQ_1 =   2022-12-05T02:17:22.646   2216499328.3
RECEIVE_FREQ_1 =   2022-12-05T02:17:32.582   2216499327.0
RECEIVE_FREQ_1 =   2022-12-05T02:17:42.605   2216499325.6
RECEIVE_FREQ_1 =   2022-12-05T02:17:52.627   2216499324.3
RECEIVE_FREQ_1 =   2022-12-05T02:18:02.650   2216499323.0
RECEIVE_FREQ_1 =   2022-12-05T02:18:12.586   2216499321.5
RECEIVE_FREQ_1 =   2022-12-05T02:18:22.608   2216499320.3
RECEIVE_FREQ_1 =   2022-12-05T02:18:32.630   2216499319.1
RECEIVE_FREQ_1 =   2022-12-05T02:18:42.653   2216499318.0
RECEIVE_FREQ_1 =   2022-12-05T02:18:52.589   2216499316.2
RECEIVE_FREQ_1 =   2022-12-05T02:19:02.611   2216499314.9
RECEIVE_FREQ_1 =   2022-12-05T02:19:12.634   2216499313.4
RECEIVE_FREQ_1 =   2022-12-05T02:19:22.656   2216499312.2
RECEIVE_FREQ_1 =   2022-12-05T02:19:32.592   2216499310.8
RECEIVE_FREQ_1 =   2022-12-05T02:19:42.614   2216499309.8
RECEIVE_FREQ_1 =   2022-12-05T02:19:52.637   2216499307.9
RECEIVE_FREQ_1 =   2022-12-05T02:20:02.659   2216499306.5
RECEIVE_FREQ_1 =   2022-12-05T02:20:12.595   2216499305.8
RECEIVE_FREQ_1 =   2022-12-05T02:20:22.618   2216499304.4
RECEIVE_FREQ_1 =   2022-12-05T02:20:32.640   2216499302.9
RECEIVE_FREQ_1 =   2022-12-05T02:20:42.662   2216499301.4
RECEIVE_FREQ_1 =   2022-12-05T02:20:52.598   2216499299.8
RECEIVE_FREQ_1 =   2022-12-05T02:21:02.621   2216499298.8
RECEIVE_FREQ_1 =   2022-12-05T02:21:12.643   2216499297.6
RECEIVE_FREQ_1 =   2022-12-05T02:21:22.666   2216499296.2
RECEIVE_FREQ_1 =   2022-12-05T02:21:32.602   2216499295.1
RECEIVE_FREQ_1 =   2022-12-05T02:21:42.624   2216499293.6
RECEIVE_FREQ_1 =   2022-12-05T02:21:52.646   2216499292.1
RECEIVE_FREQ_1 =   2022-12-05T02:22:02.582   2216499290.6
RECEIVE_FREQ_1 =   2022-12-05T02:22:12.605   2216499289.2
RECEIVE_FREQ_1 =   2022-12-05T02:22:22.627   2216499287.8
RECEIVE_FREQ_1 =   2022-12-05T02:22:32.650   2216499286.8
RECEIVE_FREQ_1 =   2022-12-05T02:22:42.672   2216499285.2
RECEIVE_FREQ_1 =   2022-12-05T02:22:52.608   2216499284.5
RECEIVE_FREQ_1 =   2022-12-05T02:23:02.630   2216499282.8
RECEIVE_FREQ_1 =   2022-12-05T02:23:12.653   2216499281.5
RECEIVE_FREQ_1 =   2022-12-05T02:23:22.589   2216499279.7
RECEIVE_FREQ_1 =   2022-12-05T02:23:32.611   2216499278.6
RECEIVE_FREQ_1 =   2022-12-05T02:23:42.634   2216499277.0
RECEIVE_FREQ_1 =   2022-12-05T02:23:52.656   2216499275.6
RECEIVE_FREQ_1 =   2022-12-05T02:24:02.592   2216499273.6
RECEIVE_FREQ_1 =   2022-12-05T02:24:12.614   2216499272.5
RECEIVE_FREQ_1 =   2022-12-05T02:24:22.637   2216499271.4
RECEIVE_FREQ_1 =   2022-12-05T02:24:32.659   2216499269.7
RECEIVE_FREQ_1 =   2022-12-05T02:24:42.595   2216499268.3
RECEIVE_FREQ_1 =   2022-12-05T02:24:52.618   2216499267.3
RECEIVE_FREQ_1 =   2022-12-05T02:25:02.640   2216499265.3
RECEIVE_FREQ_1 =   2022-12-05T02:25:12.662   2216499263.9
RECEIVE_FREQ_1 =   2022-12-05T02:25:22.598   2216499262.5
RECEIVE_FREQ_1 =   2022-12-05T02:25:32.621   2216499261.3
RECEIVE_FREQ_1 =   2022-12-05T02:25:42.643   2216499259.3
RECEIVE_FREQ_1 =   2022-12-05T02:25:52.666   2216499258.2
RECEIVE_FREQ_1 =   2022-12-05T02:26:02.602   2216499256.7
RECEIVE_FREQ_1 =   2022-12-05T02:26:12.624   2216499255.2
RECEIVE_FREQ_1 =   2022-12-05T02:26:22.646   2216499253.4
RECEIVE_FREQ_1 =   2022-12-05T02:26:32.669   2216499252.5
RECEIVE_FREQ_1 =   2022-12-05T02:26:42.605   2216499250.8
RECEIVE_FREQ_1 =   2022-12-05T02:26:52.627   2216499249.2
RECEIVE_FREQ_1 =   2022-12-05T02:27:02.650   2216499248.0
RECEIVE_FREQ_1 =   2022-12-05T02:27:12.672   2216499246.8
RECEIVE_FREQ_1 =   2022-12-05T02:27:22.608   2216499245.2
RECEIVE_FREQ_1 =   2022-12-05T02:27:32.630   2216499243.6
RECEIVE_FREQ_1 =   2022-12-05T02:27:42.653   2216499241.8
RECEIVE_FREQ_1 =   2022-12-05T02:27:52.675   2216499240.7
RECEIVE_FREQ_1 =   2022-12-05T02:28:02.611   2216499239.1
RECEIVE_FREQ_1 =   2022-12-05T02:28:12.634   2216499237.7
RECEIVE_FREQ_1 =   2022-12-05T02:28:22.656   2216499235.9
RECEIVE_FREQ_1 =   2022-12-05T02:28:32.592   2216499234.8
RECEIVE_FREQ_1 =   2022-12-05T02:28:42.614   2216499233.4
RECEIVE_FREQ_1 =   2022-12-05T02:28:52.637   2216499231.5
RECEIVE_FREQ_1 =   2022-12-05T02:29:02.659   2216499230.3
RECEIVE_FREQ_1 =   2022-12-05T02:29:12.595   2216499228.8
RECEIVE_FREQ_1 =   2022-12-05T02:29:22.618   2216499227.2
RECEIVE_FREQ_1 =   2022-12-05T02:29:32.640   2216499225.7
RECEIVE_FREQ_1 =   2022-12-05T02:29:42.662   2216499224.4
RECEIVE_FREQ_1 =   2022-12-05T02:29:52.598   2216499223.3
RECEIVE_FREQ_1 =   2022-12-05T02:30:02.621   2216499221.4
RECEIVE_FREQ_1 =   2022-12-05T02:30:12.643   2216499220.0
RECEIVE_FREQ_1 =   2022-12-05T02:30:22.666   2216499218.8
RECEIVE_FREQ_1 =   2022-12-05T02:30:32.602   2216499217.2
RECEIVE_FREQ_1 =   2022-12-05T02:30:42.624   2216499215.9
RECEIVE_FREQ_1 =   2022-12-05T02:30:52.646   2216499214.3
RECEIVE_FREQ_1 =   2022-12-05T02:31:02.582   2216499212.7
RECEIVE_FREQ_1 =   2022-12-05T02:31:12.605   2216499211.2
RECEIVE_FREQ_1 =   2022-12-05T02:31:22.627   2216499209.8
RECEIVE_FREQ_1 =   2022-12-05T02:31:32.650   2216499208.5
RECEIVE_FREQ_1 =   2022-12-05T02:31:42.586   2216499206.8
RECEIVE_FREQ_1 =   2022-12-05T02:31:52.608   2216499205.4
RECEIVE_FREQ_1 =   2022-12-05T02:32:02.630   2216499204.3
RECEIVE_FREQ_1 =   2022-12-05T02:32:12.653   2216499202.6
RECEIVE_FREQ_1 =   2022-12-05T02:32:22.589   2216499201.3
RECEIVE_FREQ_1 =   2022-12-05T02:32:32.611   2216499199.7
RECEIVE_FREQ_1 =   2022-12-05T02:32:42.634   2216499198.3
RECEIVE_FREQ_1 =   2022-12-05T02:32:52.656   2216499196.7
RECEIVE_FREQ_1 =   2022-12-05T02:33:02.592   2216499195.5
RECEIVE_FREQ_1 =   2022-12-05T02:33:12.614   2216499193.8
RECEIVE_FREQ_1 =   2022-12-05T02:33:22.637   2216499192.2
RECEIVE_FREQ_1 =   2022-12-05T02:33:32.659   2216499191.1
RECEIVE_FREQ_1 =   2022-12-05T02:33:42.595   2216499189.8
RECEIVE_FREQ_1 =   2022-12-05T02:33:52.618   2216499187.9
RECEIVE_FREQ_1 =   2022-12-05T02:34:02.640   2216499186.4
RECEIVE_FREQ_1 =   2022-12-05T02:34:12.662   2216499185.2
RECEIVE_FREQ_1 =   2022-12-05T02:34:22.598   2216499183.7
RECEIVE_FREQ_1 =   2022-12-05T02:34:32.621   2216499182.2
RECEIVE_FREQ_1 =   2022-12-05T02:34:42.643   2216499181.1
RECEIVE_FREQ_1 =   2022-12-05T02:34:52.666   2216499179.2
RECEIVE_FREQ_1 =   2022-12-05T02:35:02.602   2216499178.0
RECEIVE_FREQ_1 =   2022-12-05T02:35:12.624   2216499176.3
RECEIVE_FREQ_1 =   2022-12-05T02:35:22.646   2216499175.0
RECEIVE_FREQ_1 =   2022-12-05T02:35:32.582   2216499173.8
RECEIVE_FREQ_1 =   2022-12-05T02:35:42.605   2216499172.1
RECEIVE_FREQ_1 =   2022-12-05T02:35:52.627   2216499170.7
RECEIVE_FREQ_1 =   2022-12-05T02:36:02.650   2216499169.5
RECEIVE_FREQ_1 =   2022-12-05T02:36:12.586   2216499167.8
RECEIVE_FREQ_1 =   2022-12-05T02:36:22.608   2216499166.6
RECEIVE_FREQ_1 =   2022-12-05T02:36:32.630   2216499164.9
RECEIVE_FREQ_1 =   2022-12-05T02:36:42.653   2216499163.3
RECEIVE_FREQ_1 =   2022-12-05T02:36:52.589   2216499161.9
RECEIVE_FREQ_1 =   2022-12-05T02:37:02.611   2216499160.4
RECEIVE_FREQ_1 =   2022-12-05T02:37:12.634   2216499159.0
RECEIVE_FREQ_1 =   2022-12-05T02:37:22.656   2216499158.0
RECEIVE_FREQ_1 =   2022-12-05T02:37:32.678   2216499156.1
RECEIVE_FREQ_1 =   2022-12-05T02:37:42.614   2216499154.7
RECEIVE_FREQ_1 =   2022-12-05T02:37:52.637   2216499153.6
RECEIVE_FREQ_1 =   2022-12-05T02:38:02.659   2216499151.8
RECEIVE_FREQ_1 =   2022-12-05T02:38:12.682   2216499150.6
RECEIVE_FREQ_1 =   2022-12-05T02:38:22.618   2216499149.0
RECEIVE_FREQ_1 =   2022-12-05T02:38:32.640   2216499147.5
RECEIVE_FREQ_1 =   2022-12-05T02:38:42.662   2216499145.7
RECEIVE_FREQ_1 =   2022-12-05T02:38:52.685   2216499144.5
RECEIVE_FREQ_1 =   2022-12-05T02:39:02.621   2216499143.5
RECEIVE_FREQ_1 =   2022-12-05T02:39:12.643   2216499141.8
RECEIVE_FREQ_1 =   2022-12-05T02:39:22.666   2216499140.3
RECEIVE_FREQ_1 =   2022-12-05T02:39:32.688   2216499138.9
RECEIVE_FREQ_1 =   2022-12-05T02:39:42.624   2216499137.6
RECEIVE_FREQ_1 =   2022-12-05T02:39:52.646   2216499136.0
RECEIVE_FREQ_1 =   2022-12-05T02:40:02.669   2216499134.2
RECEIVE_FREQ_1 =   2022-12-05T02:40:12.691   2216499133.0
RECEIVE_FREQ_1 =   2022-12-05T02:40:22.627   2216499131.6
RECEIVE_FREQ_1 =   2022-12-05T02:40:32.650   2216499130.1
RECEIVE_FREQ_1 =   2022-12-05T02:40:42.672   2216499128.5
RECEIVE_FREQ_1 =   2022-12-05T02:40:52.608   2216499127.2
RECEIVE_FREQ_1 =   2022-12-05T02:41:02.630   2216499126.0
RECEIVE_FREQ_1 =   2022-12-05T02:41:12.653   2216499124.4
RECEIVE_FREQ_1 =   2022-12-05T02:41:22.675   2216499123.0
RECEIVE_FREQ_1 =   2022-12-05T02:41:32.698   2216499121.3
RECEIVE_FREQ_1 =   2022-12-05T02:41:42.634   2216499120.6
RECEIVE_FREQ_1 =   2022-12-05T02:41:52.656   2216499118.8
RECEIVE_FREQ_1 =   2022-12-05T02:42:02.678   2216499117.2
RECEIVE_FREQ_1 =   2022-12-05T02:42:12.701   2216499115.6
RECEIVE_FREQ_1 =   2022-12-05T02:42:22.723   2216499114.3
RECEIVE_FREQ_1 =   2022-12-05T02:42:32.659   2216499113.1
RECEIVE_FREQ_1 =   2022-12-05T02:42:42.682   2216499111.5
RECEIVE_FREQ_1 =   2022-12-05T02:42:52.618   2216499110.1
RECEIVE_FREQ_1 =   2022-12-05T02:43:02.640   2216499108.9
RECEIVE_FREQ_1 =   2022-12-05T02:43:12.662   2216499107.3
RECEIVE_FREQ_1 =   2022-12-05T02:43:22.685   2216499105.9
RECEIVE_FREQ_1 =   2022-12-05T02:43:32.621   2216499104.3
RECEIVE_FREQ_1 =   2022-12-05T02:43:42.730   2216499103.2
RECEIVE_FREQ_1 =   2022-12-05T02:43:52.666   2216499101.7
RECEIVE_FREQ_1 =   2022-12-05T02:44:02.602   2216499100.1
RECEIVE_FREQ_1 =   2022-12-05T02:44:12.624   2216499098.7
RECEIVE_FREQ_1 =   2022-12-05T02:44:22.646   2216499096.9
RECEIVE_FREQ_1 =   2022-12-05T02:44:32.669   2216499095.0
RECEIVE_FREQ_1 =   2022-12-05T02:44:42.691   2216499093.5
RECEIVE_FREQ_1 =   2022-12-05T02:44:52.714   2216499092.2
RECEIVE_FREQ_1 =   2022-12-05T02:45:02.650   2216499090.8
RECEIVE_FREQ_1 =   2022-12-05T02:45:12.672   2216499088.8
RECEIVE_FREQ_1 =   2022-12-05T02:45:22.608   2216499087.8
RECEIVE_FREQ_1 =   2022-12-05T02:45:32.630   2216499086.1
RECEIVE_FREQ_1 =   2022-12-05T02:45:42.653   2216499084.7
RECEIVE_FREQ_1 =   2022-12-05T02:45:52.675   2216499083.0
RECEIVE_FREQ_1 =   2022-12-05T02:46:02.611   2216499081.2
RECEIVE_FREQ_1 =   2022-12-05T02:46:12.634   2216499079.8
RECEIVE_FREQ_1 =   2022-12-05T02:46:22.656   2216499078.1
RECEIVE_FREQ_1 =   2022-12-05T02:46:32.678   2216499076.5
RECEIVE_FREQ_1 =   2022-12-05T02:46:42.701   2216499075.1
RECEIVE_FREQ_1 =   2022-12-05T02:46:52.637   2216499073.6
RECEIVE_FREQ_1 =   2022-12-05T02:47:02.659   2216499071.6
RECEIVE_FREQ_1 =   2022-12-05T02:47:12.595   2216499070.5
RECEIVE_FREQ_1 =   2022-12-05T02:47:22.618   2216499068.9
RECEIVE_FREQ_1 =   2022-12-05T02:47:32.640   2216499067.2
RECEIVE_FREQ_1 =   2022-12-05T02:47:42.662   2216499065.7
RECEIVE_FREQ_1 =   2022-12-05T02:47:52.685   2216499064.2
RECEIVE_FREQ_1 =   2022-12-05T02:48:02.621   2216499062.3
RECEIVE_FREQ_1 =   2022-12-05T02:48:12.643   2216499060.7
RECEIVE_FREQ_1 =   2022-12-05T02:48:22.666   2216499059.3
RECEIVE_FREQ_1 =   2022-12-05T02:48:32.688   2216499057.7
RECEIVE_FREQ_1 =   2022-12-05T02:48:42.624   2216499056.7
RECEIVE_FREQ_1 =   2022-12-05T02:48:52.646   2216499054.7
RECEIVE_FREQ_1 =   2022-12-05T02:49:02.669   2216499053.3
RECEIVE_FREQ_1 =   2022-12-05T02:49:12.605   2216499051.4
RECEIVE_FREQ_1 =   2022-12-05T02:49:22.627   2216499050.4
RECEIVE_FREQ_1 =   2022-12-05T02:49:32.650   2216499048.9
RECEIVE_FREQ_1 =   2022-12-05T02:49:42.672   2216499046.7
RECEIVE_FREQ_1 =   2022-12-05T02:49:52.694   2216499045.5
RECEIVE_FREQ_1 =   2022-12-05T02:50:02.717   2216499043.7
RECEIVE_FREQ_1 =   2022-12-05T02:50:12.653   2216499042.2
RECEIVE_FREQ_1 =   2022-12-05T02:50:22.675   2216499040.8
RECEIVE_FREQ_1 =   2022-12-05T02:50:32.698   2216499039.6
RECEIVE_FREQ_1 =   2022-12-05T02:50:42.634   2216499037.8
RECEIVE_FREQ_1 =   2022-12-05T02:50:52.656   2216499036.4
RECEIVE_FREQ_1 =   2022-12-05T02:51:02.678   2216499034.6
RECEIVE_FREQ_1 =   2022-12-05T02:51:12.614   2216499032.8
RECEIVE_FREQ_1 =   2022-12-05T02:51:22.637   2216499031.7
RECEIVE_FREQ_1 =   2022-12-05T02:51:32.659   2216499029.9
RECEIVE_FREQ_1 =   2022-12-05T02:51:42.682   2216499028.3
RECEIVE_FREQ_1 =   2022-12-05T02:51:52.618   2216499026.4
RECEIVE_FREQ_1 =   2022-12-05T02:52:02.640   2216499025.0
RECEIVE_FREQ_1 =   2022-12-05T02:52:12.662   2216499023.6
RECEIVE_FREQ_1 =   2022-12-05T02:52:22.685   2216499021.9
RECEIVE_FREQ_1 =   2022-12-05T02:52:32.621   2216499020.5
RECEIVE_FREQ_1 =   2022-12-05T02:52:42.643   2216499018.8
RECEIVE_FREQ_1 =   2022-12-05T02:52:52.666   2216499017.5
RECEIVE_FREQ_1 =   2022-12-05T02:53:02.688   2216499016.1
RECEIVE_FREQ_1 =   2022-12-05T02:53:12.624   2216499014.3
RECEIVE_FREQ_1 =   2022-12-05T02:53:22.646   2216499012.7
RECEIVE_FREQ_1 =   2022-12-05T02:53:32.669   2216499011.2
RECEIVE_FREQ_1 =   2022-12-05T02:53:42.691   2216499009.9
RECEIVE_FREQ_1 =   2022-12-05T02:53:52.627   2216499008.3
RECEIVE_FREQ_1 =   2022-12-05T02:54:02.650   2216499006.4
RECEIVE_FREQ_1 =   2022-12-05T02:54:12.672   2216499004.9
RECEIVE_FREQ_1 =   2022-12-05T02:54:22.694   2216499003.5
RECEIVE_FREQ_1 =   2022-12-05T02:54:32.630   2216499002.4
RECEIVE_FREQ_1 =   2022-12-05T02:54:42.653   2216499000.2
RECEIVE_FREQ_1 =   2022-12-05T02:54:52.675   2216498998.9
RECEIVE_FREQ_1 =   2022-12-05T02:55:02.698   2216498997.4
RECEIVE_FREQ_1 =   2022-12-05T02:55:12.634   2216498995.6
RECEIVE_FREQ_1 =   2022-12-05T02:55:22.656   2216498994.2
RECEIVE_FREQ_1 =   2022-12-05T02:55:32.678   2216498992.7
RECEIVE_FREQ_1 =   2022-12-05T02:55:42.614   2216498991.1
RECEIVE_FREQ_1 =   2022-12-05T02:55:52.637   2216498989.2
RECEIVE_FREQ_1 =   2022-12-05T02:56:02.659   2216498988.1
RECEIVE_FREQ_1 =   2022-12-05T02:56:12.595   2216498986.5
RECEIVE_FREQ_1 =   2022-12-05T02:56:22.618   2216498985.1
RECEIVE_FREQ_1 =   2022-12-05T02:56:32.640   2216498983.5
RECEIVE_FREQ_1 =   2022-12-05T02:56:42.662   2216498981.8
RECEIVE_FREQ_1 =   2022-12-05T02:56:52.685   2216498980.5
RECEIVE_FREQ_1 =   2022-12-05T02:57:02.707   2216498978.8
RECEIVE_FREQ_1 =   2022-12-05T02:57:12.643   2216498977.3
RECEIVE_FREQ_1 =   2022-12-05T02:57:22.666   2216498975.7
RECEIVE_FREQ_1 =   2022-12-05T02:57:32.688   2216498974.1
RECEIVE_FREQ_1 =   2022-12-05T02:57:42.624   2216498972.6
RECEIVE_FREQ_1 =   2022-12-05T02:57:52.646   2216498971.1
RECEIVE_FREQ_1 =   2022-12-05T02:58:02.669   2216498969.6
RECEIVE_FREQ_1 =   2022-12-05T02:58:12.605   2216498967.7
RECEIVE_FREQ_1 =   2022-12-05T02:58:22.627   2216498966.1
RECEIVE_FREQ_1 =   2022-12-05T02:58:32.650   2216498965.4
RECEIVE_FREQ_1 =   2022-12-05T02:58:42.672   2216498963.1
RECEIVE_FREQ_1 =   2022-12-05T02:58:52.608   2216498961.9
RECEIVE_FREQ_1 =   2022-12-05T02:59:02.630   2216498960.5
RECEIVE_FREQ_1 =   2022-12-05T02:59:12.653   2216498959.0
RECEIVE_FREQ_1 =   2022-12-05T02:59:22.675   2216498957.3
RECEIVE_FREQ_1 =   2022-12-05T02:59:32.611   2216498955.8
RECEIVE_FREQ_1 =   2022-12-05T02:59:42.634   2216498954.3
RECEIVE_FREQ_1 =   2022-12-05T02:59:52.656   2216498952.6
RECEIVE_FREQ_1 =   2022-12-05T03:00:02.678   2216498951.1
RECEIVE_FREQ_1 =   2022-12-05T03:00:12.614   2216498949.9
RECEIVE_FREQ_1 =   2022-12-05T03:00:22.637   2216498948.4
RECEIVE_FREQ_1 =   2022-12-05T03:00:32.659   2216498946.5
RECEIVE_FREQ_1 =   2022-12-05T03:00:42.682   2216498944.9
RECEIVE_FREQ_1 =   2022-12-05T03:00:52.618   2216498943.1
RECEIVE_FREQ_1 =   2022-12-05T03:01:02.640   2216498942.0
RECEIVE_FREQ_1 =   2022-12-05T03:01:12.662   2216498940.5
RECEIVE_FREQ_1 =   2022-12-05T03:01:22.685   2216498938.8
RECEIVE_FREQ_1 =   2022-12-05T03:01:32.707   2216498937.6
RECEIVE_FREQ_1 =   2022-12-05T03:01:42.643   2216498936.2
RECEIVE_FREQ_1 =   2022-12-05T03:01:52.666   2216498934.6
RECEIVE_FREQ_1 =   2022-12-05T03:02:02.688   2216498933.0
RECEIVE_FREQ_1 =   2022-12-05T03:02:12.624   2216498931.2
RECEIVE_FREQ_1 =   2022-12-05T03:02:22.646   2216498929.8
RECEIVE_FREQ_1 =   2022-12-05T03:02:32.669   2216498928.0
RECEIVE_FREQ_1 =   2022-12-05T03:02:42.605   2216498926.8
RECEIVE_FREQ_1 =   2022-12-05T03:02:52.627   2216498925.1
RECEIVE_FREQ_1 =   2022-12-05T03:03:02.650   2216498923.7
RECEIVE_FREQ_1 =   2022-12-05T03:03:12.672   2216498921.9
RECEIVE_FREQ_1 =   2022-12-05T03:03:22.694   2216498920.6
RECEIVE_FREQ_1 =   2022-12-05T03:03:32.717   2216498919.2
RECEIVE_FREQ_1 =   2022-12-05T03:03:42.653   2216498917.3
RECEIVE_FREQ_1 =   2022-12-05T03:03:52.675   2216498916.2
RECEIVE_FREQ_1 =   2022-12-05T03:04:02.611   2216498914.4
RECEIVE_FREQ_1 =   2022-12-05T03:04:12.634   2216498912.9
RECEIVE_FREQ_1 =   2022-12-05T03:04:22.656   2216498911.6
RECEIVE_FREQ_1 =   2022-12-05T03:04:32.678   2216498909.9
RECEIVE_FREQ_1 =   2022-12-05T03:04:42.614   2216498908.1
RECEIVE_FREQ_1 =   2022-12-05T03:04:52.637   2216498906.9
RECEIVE_FREQ_1 =   2022-12-05T03:05:02.659   2216498905.6
RECEIVE_FREQ_1 =   2022-12-05T03:05:12.595   2216498903.5
RECEIVE_FREQ_1 =   2022-12-05T03:05:22.618   2216498902.1
RECEIVE_FREQ_1 =   2022-12-05T03:05:32.640   2216498900.2
RECEIVE_FREQ_1 =   2022-12-05T03:05:42.662   2216498898.5
RECEIVE_FREQ_1 =   2022-12-05T03:05:52.685   2216498896.8
RECEIVE_FREQ_1 =   2022-12-05T03:06:02.621   2216498895.2
RECEIVE_FREQ_1 =   2022-12-05T03:06:12.643   2216498893.5
RECEIVE_FREQ_1 =   2022-12-05T03:06:22.666   2216498892.0
RECEIVE_FREQ_1 =   2022-12-05T03:06:32.688   2216498890.7
RECEIVE_FREQ_1 =   2022-12-05T03:06:42.624   2216498888.5
RECEIVE_FREQ_1 =   2022-12-05T03:06:52.646   2216498887.1
RECEIVE_FREQ_1 =   2022-12-05T03:07:02.669   2216498885.4
RECEIVE_FREQ_1 =   2022-12-05T03:07:12.691   2216498883.8
RECEIVE_FREQ_1 =   2022-12-05T03:07:22.627   2216498882.2
RECEIVE_FREQ_1 =   2022-12-05T03:07:32.650   2216498880.4
RECEIVE_FREQ_1 =   2022-12-05T03:07:42.672   2216498878.8
RECEIVE_FREQ_1 =   2022-12-05T03:07:52.608   2216498876.8
RECEIVE_FREQ_1 =   2022-12-05T03:08:02.630   2216498875.1
RECEIVE_FREQ_1 =   2022-12-05T03:08:12.653   2216498873.8
RECEIVE_FREQ_1 =   2022-12-05T03:08:22.675   2216498872.3
RECEIVE_FREQ_1 =   2022-12-05T03:08:32.611   2216498870.7
RECEIVE_FREQ_1 =   2022-12-05T03:08:42.634   2216498868.7
RECEIVE_FREQ_1 =   2022-12-05T03:08:52.656   2216498867.1
RECEIVE_FREQ_1 =   2022-12-05T03:09:02.592   2216498865.5
RECEIVE_FREQ_1 =   2022-12-05T03:09:12.614   2216498863.8
RECEIVE_FREQ_1 =   2022-12-05T03:09:22.637   2216498862.3
RECEIVE_FREQ_1 =   2022-12-05T03:09:32.659   2216498860.6
RECEIVE_FREQ_1 =   2022-12-05T03:09:42.682   2216498859.1
RECEIVE_FREQ_1 =   2022-12-05T03:09:52.704   2216498857.3
RECEIVE_FREQ_1 =   2022-12-05T03:10:02.640   2216498855.9
RECEIVE_FREQ_1 =   2022-12-05T03:10:12.662   2216498853.8
RECEIVE_FREQ_1 =   2022-12-05T03:10:22.685   2216498852.3
RECEIVE_FREQ_1 =   2022-12-05T03:10:32.621   2216498850.7
RECEIVE_FREQ_1 =   2022-12-05T03:10:42.643   2216498849.0
RECEIVE_FREQ_1 =   2022-12-05T03:10:52.666   2216498847.5
RECEIVE_FREQ_1 =   2022-12-05T03:11:02.688   2216498845.4
RECEIVE_FREQ_1 =   2022-12-05T03:11:12.624   2216498844.0
RECEIVE_FREQ_1 =   2022-12-05T03:11:22.646   2216498842.4
RECEIVE_FREQ_1 =   2022-12-05T03:11:32.669   2216498841.0
RECEIVE_FREQ_1 =   2022-12-05T03:11:42.691   2216498839.1
RECEIVE_FREQ_1 =   2022-12-05T03:11:52.627   2216498837.5
RECEIVE_FREQ_1 =   2022-12-05T03:12:02.650   2216498836.1
RECEIVE_FREQ_1 =   2022-12-05T03:12:12.672   2216498834.2
RECEIVE_FREQ_1 =   2022-12-05T03:12:22.608   2216498832.8
RECEIVE_FREQ_1 =   2022-12-05T03:12:32.630   2216498831.1
RECEIVE_FREQ_1 =   2022-12-05T03:12:42.653   2216498829.5
RECEIVE_FREQ_1 =   2022-12-05T03:12:52.675   2216498827.9
RECEIVE_FREQ_1 =   2022-12-05T03:13:02.611   2216498825.8
RECEIVE_FREQ_1 =   2022-12-05T03:13:12.634   2216498824.7
RECEIVE_FREQ_1 =   2022-12-05T03:13:22.656   2216498822.8
RECEIVE_FREQ_1 =   2022-12-05T03:13:32.678   2216498821.3
RECEIVE_FREQ_1 =   2022-12-05T03:13:42.701   2216498819.4
RECEIVE_FREQ_1 =   2022-12-05T03:13:52.637   2216498818.3
RECEIVE_FREQ_1 =   2022-12-05T03:14:02.659   2216498816.1
RECEIVE_FREQ_1 =   2022-12-05T03:14:12.682   2216498814.3
RECEIVE_FREQ_1 =   2022-12-05T03:14:22.618   2216498813.0
RECEIVE_FREQ_1 =   2022-12-05T03:14:32.640   2216498811.2
RECEIVE_FREQ_1 =   2022-12-05T03:14:42.662   2216498809.5
RECEIVE_FREQ_1 =   2022-12-05T03:14:52.685   2216498808.4
RECEIVE_FREQ_1 =   2022-12-05T03:15:02.621   2216498806.7
RECEIVE_FREQ_1 =   2022-12-05T03:15:12.643   2216498807.3
RECEIVE_FREQ_1 =   2022-12-05T03:15:22.666   2216498805.5
RECEIVE_FREQ_1 =   2022-12-05T03:15:32.602   2216498804.0
RECEIVE_FREQ_1 =   2022-12-05T03:15:42.624   2216498802.6
RECEIVE_FREQ_1 =   2022-12-05T03:15:52.646   2216498800.8
RECEIVE_FREQ_1 =   2022-12-05T03:16:02.669   2216498799.1
RECEIVE_FREQ_1 =   2022-12-05T03:16:12.605   2216498797.4
RECEIVE_FREQ_1 =   2022-12-05T03:16:22.627   2216498795.5
RECEIVE_FREQ_1 =   2022-12-05T03:16:32.650   2216498793.9
RECEIVE_FREQ_1 =   2022-12-05T03:16:42.672   2216498792.7
RECEIVE_FREQ_1 =   2022-12-05T03:16:52.694   2216498791.1
RECEIVE_FREQ_1 =   2022-12-05T03:17:02.630   2216498788.9
RECEIVE_FREQ_1 =   2022-12-05T03:17:12.653   2216498787.3
RECEIVE_FREQ_1 =   2022-12-05T03:17:22.675   2216498786.0
RECEIVE_FREQ_1 =   2022-12-05T03:17:32.611   2216498784.6
RECEIVE_FREQ_1 =   2022-12-05T03:17:42.634   2216498781.9
RECEIVE_FREQ_1 =   2022-12-05T03:17:52.656   2216498780.9
RECEIVE_FREQ_1 =   2022-12-05T03:18:02.678   2216498779.1
RECEIVE_FREQ_1 =   2022-12-05T03:18:12.701   2216498777.6
RECEIVE_FREQ_1 =   2022-12-05T03:18:22.637   2216498775.9
RECEIVE_FREQ_1 =   2022-12-05T03:18:32.659   2216498774.2
RECEIVE_FREQ_1 =   2022-12-05T03:18:42.682   2216498772.6
RECEIVE_FREQ_1 =   2022-12-05T03:18:52.704   2216498770.5
RECEIVE_FREQ_1 =   2022-12-05T03:19:02.640   2216498769.2
RECEIVE_FREQ_1 =   2022-12-05T03:19:12.662   2216498767.0
RECEIVE_FREQ_1 =   2022-12-05T03:19:22.685   2216498765.6
RECEIVE_FREQ_1 =   2022-12-05T03:19:32.621   2216498764.2
RECEIVE_FREQ_1 =   2022-12-05T03:19:42.643   2216498762.4
RECEIVE_FREQ_1 =   2022-12-05T03:19:52.666   2216498760.3
RECEIVE_FREQ_1 =   2022-12-05T03:20:02.688   2216498758.8
RECEIVE_FREQ_1 =   2022-12-05T03:20:12.624   2216498757.4
RECEIVE_FREQ_1 =   2022-12-05T03:20:22.646   2216498755.7
RECEIVE_FREQ_1 =   2022-12-05T03:20:32.669   2216498753.8
RECEIVE_FREQ_1 =   2022-12-05T03:20:42.691   2216498752.4
RECEIVE_FREQ_1 =   2022-12-05T03:20:52.627   2216498750.2
RECEIVE_FREQ_1 =   2022-12-05T03:21:02.650   2216498748.8
RECEIVE_FREQ_1 =   2022-12-05T03:21:12.672   2216498747.3
RECEIVE_FREQ_1 =   2022-12-05T03:21:22.608   2216498745.9
RECEIVE_FREQ_1 =   2022-12-05T03:21:32.630   2216498744.0
RECEIVE_FREQ_1 =   2022-12-05T03:21:42.653   2216498741.9
RECEIVE_FREQ_1 =   2022-12-05T03:21:52.675   2216498740.1
RECEIVE_FREQ_1 =   2022-12-05T03:22:02.611   2216498738.6
RECEIVE_FREQ_1 =   2022-12-05T03:22:12.634   2216498736.8
RECEIVE_FREQ_1 =   2022-12-05T03:22:22.656   2216498735.4
RECEIVE_FREQ_1 =   2022-12-05T03:22:32.678   2216498733.4
RECEIVE_FREQ_1 =   2022-12-05T03:22:42.614   2216498732.2
RECEIVE_FREQ_1 =   2022-12-05T03:22:52.637   2216498729.9
RECEIVE_FREQ_1 =   2022-12-05T03:23:02.659   2216498728.4
RECEIVE_FREQ_1 =   2022-12-05T03:23:12.595   2216498726.8
RECEIVE_FREQ_1 =   2022-12-05T03:23:22.618   2216498725.0
RECEIVE_FREQ_1 =   2022-12-05T03:23:32.640   2216498723.4
RECEIVE_FREQ_1 =   2022-12-05T03:23:42.662   2216498721.4
RECEIVE_FREQ_1 =   2022-12-05T03:23:52.685   2216498719.9
RECEIVE_FREQ_1 =   2022-12-05T03:24:02.621   2216498718.2
RECEIVE_FREQ_1 =   2022-12-05T03:24:12.643   2216498716.2
RECEIVE_FREQ_1 =   2022-12-05T03:24:22.666   2216498714.5
RECEIVE_FREQ_1 =   2022-12-05T03:24:32.602   2216498712.8
RECEIVE_FREQ_1 =   2022-12-05T03:24:42.624   2216498711.2
RECEIVE_FREQ_1 =   2022-12-05T03:24:52.646   2216498709.7
RECEIVE_FREQ_1 =   2022-12-05T03:25:02.669   2216498707.6
RECEIVE_FREQ_1 =   2022-12-05T03:25:12.605   2216498706.0
RECEIVE_FREQ_1 =   2022-12-05T03:25:22.627   2216498704.5
RECEIVE_FREQ_1 =   2022-12-05T03:25:32.650   2216498702.7
RECEIVE_FREQ_1 =   2022-12-05T03:25:42.672   2216498701.2
