data/tdm/2022-12-05Z_2022-156A.tdm

CCSDS_TDM_VERS = 2.0
COMMENT TDM ARTEMIS 1 Doppler data by Scott Tilley for 2022-12-05 UTC
COMMENT Signal not demodulated, to low of SNR, centre carrier integrated in 10s by 0.1Hz bin and extracted for peak value.
CREATION_DATE = 2022-12-05Z
ORIGINATOR = SCOTT TILLEY

META_START
COMMENT 
COMMENT 
SYSTEM TIME = UTC
PARTICIPANT_1 = COSPAR 8049
PARTICIPANT_2 = 2022-156A
MODE = SEQUENTIAL
PATH = 2,1
INTEGRATION_INTERVAL = 10
INTEGRATION_REF = MIDDLE
FREQ_OFFSET = 0
TRANSMIT_DELAY_1 = 0
RECEIVE_DELAY_1 = 0
DATA_QUALITY = RAW
META_STOP

DATA_START
RECEIVE_FREQ_1 =   2022-12-06T01:15:16.301   2216500582.4
RECEIVE_FREQ_1 =   2022-12-06T01:15:46.368   2216500581.9
RECEIVE_FREQ_1 =   2022-12-06T01:16:46.330   2216500580.8
RECEIVE_FREQ_1 =   2022-12-06T01:16:56.352   2216500580.6
RECEIVE_FREQ_1 =   2022-12-06T01:17:26.333   2216500579.9
RECEIVE_FREQ_1 =   2022-12-06T01:17:56.314   2216500579.4
RECEIVE_FREQ_1 =   2022-12-06T01:18:46.339   2216500578.2
RECEIVE_FREQ_1 =   2022-12-06T01:18:56.362   2216500577.9
RECEIVE_FREQ_1 =   2022-12-06T01:19:06.298   2216500578.0
RECEIVE_FREQ_1 =   2022-12-06T01:19:16.320   2216500577.5
RECEIVE_FREQ_1 =   2022-12-06T01:19:26.342   2216500577.4
RECEIVE_FREQ_1 =   2022-12-06T01:19:46.301   2216500576.8
RECEIVE_FREQ_1 =   2022-12-06T01:19:56.323   2216500576.7
RECEIVE_FREQ_1 =   2022-12-06T01:20:06.346   2216500576.5
RECEIVE_FREQ_1 =   2022-12-06T01:20:16.368   2216500576.0
RECEIVE_FREQ_1 =   2022-12-06T01:20:26.304   2216500575.9
RECEIVE_FREQ_1 =   2022-12-06T01:20:56.285   2216500575.0
RECEIVE_FREQ_1 =   2022-12-06T01:21:06.307   2216500574.8
RECEIVE_FREQ_1 =   2022-12-06T01:21:26.352   2216500574.4
RECEIVE_FREQ_1 =   2022-12-06T01:21:36.374   2216500574.0
RECEIVE_FREQ_1 =   2022-12-06T01:21:46.310   2216500573.6
RECEIVE_FREQ_1 =   2022-12-06T01:21:56.333   2216500573.5
RECEIVE_FREQ_1 =   2022-12-06T01:22:16.291   2216500572.9
RECEIVE_FREQ_1 =   2022-12-06T01:22:26.314   2216500572.6
RECEIVE_FREQ_1 =   2022-12-06T01:22:36.336   2216500572.3
RECEIVE_FREQ_1 =   2022-12-06T01:22:46.358   2216500572.1
RECEIVE_FREQ_1 =   2022-12-06T01:22:56.294   2216500571.7
RECEIVE_FREQ_1 =   2022-12-06T01:23:06.317   2216500571.3
RECEIVE_FREQ_1 =   2022-12-06T01:23:16.339   2216500571.2
RECEIVE_FREQ_1 =   2022-12-06T01:23:26.362   2216500570.8
RECEIVE_FREQ_1 =   2022-12-06T01:23:36.298   2216500570.5
RECEIVE_FREQ_1 =   2022-12-06T01:23:46.320   2216500570.2
RECEIVE_FREQ_1 =   2022-12-06T01:23:56.342   2216500570.0
RECEIVE_FREQ_1 =   2022-12-06T01:24:06.365   2216500569.6
RECEIVE_FREQ_1 =   2022-12-06T01:24:16.301   2216500569.5
RECEIVE_FREQ_1 =   2022-12-06T01:24:26.323   2216500569.2
RECEIVE_FREQ_1 =   2022-12-06T01:24:36.346   2216500568.8
RECEIVE_FREQ_1 =   2022-12-06T01:24:46.368   2216500568.6
RECEIVE_FREQ_1 =   2022-12-06T01:24:56.304   2216500568.3
RECEIVE_FREQ_1 =   2022-12-06T01:25:06.326   2216500567.9
RECEIVE_FREQ_1 =   2022-12-06T01:25:16.349   2216500567.4
RECEIVE_FREQ_1 =   2022-12-06T01:25:36.307   2216500566.7
RECEIVE_FREQ_1 =   2022-12-06T01:25:46.330   2216500566.5
RECEIVE_FREQ_1 =   2022-12-06T01:25:56.352   2216500566.2
RECEIVE_FREQ_1 =   2022-12-06T01:26:06.288   2216500565.8
RECEIVE_FREQ_1 =   2022-12-06T01:26:16.310   2216500565.4
RECEIVE_FREQ_1 =   2022-12-06T01:26:36.355   2216500564.8
RECEIVE_FREQ_1 =   2022-12-06T01:26:46.291   2216500564.5
RECEIVE_FREQ_1 =   2022-12-06T01:26:56.314   2216500563.9
RECEIVE_FREQ_1 =   2022-12-06T01:27:26.294   2216500563.2
RECEIVE_FREQ_1 =   2022-12-06T01:27:36.317   2216500562.8
RECEIVE_FREQ_1 =   2022-12-06T01:27:56.362   2216500562.1
RECEIVE_FREQ_1 =   2022-12-06T01:28:16.320   2216500561.2
RECEIVE_FREQ_1 =   2022-12-06T01:28:26.342   2216500560.8
RECEIVE_FREQ_1 =   2022-12-06T01:28:56.323   2216500559.7
RECEIVE_FREQ_1 =   2022-12-06T01:29:16.368   2216500559.0
RECEIVE_FREQ_1 =   2022-12-06T01:29:26.304   2216500558.5
RECEIVE_FREQ_1 =   2022-12-06T01:29:46.349   2216500558.0
RECEIVE_FREQ_1 =   2022-12-06T01:29:56.371   2216500557.3
RECEIVE_FREQ_1 =   2022-12-06T01:52:56.352   2216500498.3
RECEIVE_FREQ_1 =   2022-12-06T01:53:16.397   2216500497.6
RECEIVE_FREQ_1 =   2022-12-06T01:53:26.333   2216500496.8
RECEIVE_FREQ_1 =   2022-12-06T01:53:36.355   2216500496.6
RECEIVE_FREQ_1 =   2022-12-06T01:53:56.314   2216500495.7
RECEIVE_FREQ_1 =   2022-12-06T01:54:26.294   2216500494.2
RECEIVE_FREQ_1 =   2022-12-06T01:54:36.317   2216500493.7
RECEIVE_FREQ_1 =   2022-12-06T01:54:56.362   2216500493.1
RECEIVE_FREQ_1 =   2022-12-06T01:55:36.365   2216500491.3
RECEIVE_FREQ_1 =   2022-12-06T01:55:56.323   2216500490.3
RECEIVE_FREQ_1 =   2022-12-06T01:57:36.374   2216500485.4
RECEIVE_FREQ_1 =   2022-12-06T01:57:56.333   2216500484.5
RECEIVE_FREQ_1 =   2022-12-06T01:58:06.355   2216500483.8
RECEIVE_FREQ_1 =   2022-12-06T01:58:16.291   2216500483.2
RECEIVE_FREQ_1 =   2022-12-06T01:58:26.314   2216500482.8
RECEIVE_FREQ_1 =   2022-12-06T01:58:36.336   2216500482.3
RECEIVE_FREQ_1 =   2022-12-06T01:58:46.358   2216500481.7
RECEIVE_FREQ_1 =   2022-12-06T01:58:56.381   2216500481.3
RECEIVE_FREQ_1 =   2022-12-06T01:59:26.362   2216500479.6
RECEIVE_FREQ_1 =   2022-12-06T01:59:36.298   2216500479.1
RECEIVE_FREQ_1 =   2022-12-06T01:59:46.320   2216500478.6
RECEIVE_FREQ_1 =   2022-12-06T01:59:56.342   2216500477.8
RECEIVE_FREQ_1 =   2022-12-06T02:00:06.365   2216500477.7
RECEIVE_FREQ_1 =   2022-12-06T02:00:16.301   2216500477.1
RECEIVE_FREQ_1 =   2022-12-06T02:00:26.323   2216500476.6
RECEIVE_FREQ_1 =   2022-12-06T02:00:36.346   2216500476.1
RECEIVE_FREQ_1 =   2022-12-06T02:00:46.368   2216500475.4
RECEIVE_FREQ_1 =   2022-12-06T02:00:56.304   2216500475.0
RECEIVE_FREQ_1 =   2022-12-06T02:01:06.326   2216500474.4
RECEIVE_FREQ_1 =   2022-12-06T02:02:16.310   2216500470.4
RECEIVE_FREQ_1 =   2022-12-06T02:02:26.333   2216500469.9
RECEIVE_FREQ_1 =   2022-12-06T02:02:36.355   2216500469.3
RECEIVE_FREQ_1 =   2022-12-06T02:02:56.314   2216500468.3
RECEIVE_FREQ_1 =   2022-12-06T02:03:56.362   2216500464.8
RECEIVE_FREQ_1 =   2022-12-06T02:04:26.342   2216500463.0
RECEIVE_FREQ_1 =   2022-12-06T02:04:56.323   2216500461.3
RECEIVE_FREQ_1 =   2022-12-06T02:05:26.304   2216500459.5
RECEIVE_FREQ_1 =   2022-12-06T02:05:46.349   2216500458.1
RECEIVE_FREQ_1 =   2022-12-06T02:06:06.307   2216500457.0
RECEIVE_FREQ_1 =   2022-12-06T02:07:16.378   2216500452.7
RECEIVE_FREQ_1 =   2022-12-06T02:07:26.314   2216500452.2
RECEIVE_FREQ_1 =   2022-12-06T02:07:36.336   2216500451.3
RECEIVE_FREQ_1 =   2022-12-06T02:07:46.358   2216500450.8
RECEIVE_FREQ_1 =   2022-12-06T02:07:56.294   2216500450.1
RECEIVE_FREQ_1 =   2022-12-06T02:08:06.317   2216500449.4
RECEIVE_FREQ_1 =   2022-12-06T02:08:16.339   2216500448.8
RECEIVE_FREQ_1 =   2022-12-06T02:08:26.362   2216500448.4
RECEIVE_FREQ_1 =   2022-12-06T02:08:36.298   2216500447.4
RECEIVE_FREQ_1 =   2022-12-06T02:08:46.320   2216500447.2
RECEIVE_FREQ_1 =   2022-12-06T02:08:56.342   2216500446.4
RECEIVE_FREQ_1 =   2022-12-06T02:09:06.278   2216500445.4
RECEIVE_FREQ_1 =   2022-12-06T02:09:16.301   2216500445.0
RECEIVE_FREQ_1 =   2022-12-06T02:09:26.323   2216500444.5
RECEIVE_FREQ_1 =   2022-12-06T02:09:36.346   2216500443.7
RECEIVE_FREQ_1 =   2022-12-06T02:09:46.368   2216500443.2
RECEIVE_FREQ_1 =   2022-12-06T02:09:56.304   2216500442.3
RECEIVE_FREQ_1 =   2022-12-06T02:10:06.326   2216500441.7
RECEIVE_FREQ_1 =   2022-12-06T02:10:16.349   2216500441.1
RECEIVE_FREQ_1 =   2022-12-06T02:10:26.371   2216500440.3
RECEIVE_FREQ_1 =   2022-12-06T02:10:36.307   2216500439.6
RECEIVE_FREQ_1 =   2022-12-06T02:10:46.330   2216500438.8
RECEIVE_FREQ_1 =   2022-12-06T02:10:56.352   2216500438.3
RECEIVE_FREQ_1 =   2022-12-06T02:11:06.374   2216500437.5
RECEIVE_FREQ_1 =   2022-12-06T02:11:16.310   2216500436.9
RECEIVE_FREQ_1 =   2022-12-06T02:11:26.333   2216500436.4
RECEIVE_FREQ_1 =   2022-12-06T02:11:36.355   2216500435.6
RECEIVE_FREQ_1 =   2022-12-06T02:11:46.291   2216500434.8
RECEIVE_FREQ_1 =   2022-12-06T02:11:56.314   2216500434.5
RECEIVE_FREQ_1 =   2022-12-06T02:12:06.336   2216500433.8
RECEIVE_FREQ_1 =   2022-12-06T02:12:16.358   2216500433.3
RECEIVE_FREQ_1 =   2022-12-06T02:12:26.294   2216500432.6
RECEIVE_FREQ_1 =   2022-12-06T02:12:36.317   2216500432.1
RECEIVE_FREQ_1 =   2022-12-06T02:12:46.339   2216500431.5
RECEIVE_FREQ_1 =   2022-12-06T02:12:56.362   2216500431.1
RECEIVE_FREQ_1 =   2022-12-06T02:13:06.298   2216500430.6
RECEIVE_FREQ_1 =   2022-12-06T02:13:16.320   2216500429.9
RECEIVE_FREQ_1 =   2022-12-06T02:13:26.342   2216500429.4
RECEIVE_FREQ_1 =   2022-12-06T02:13:36.365   2216500428.8
RECEIVE_FREQ_1 =   2022-12-06T02:13:46.301   2216500428.4
RECEIVE_FREQ_1 =   2022-12-06T02:13:56.323   2216500427.4
RECEIVE_FREQ_1 =   2022-12-06T02:14:06.346   2216500427.0
RECEIVE_FREQ_1 =   2022-12-06T02:14:16.368   2216500426.6
RECEIVE_FREQ_1 =   2022-12-06T02:14:26.304   2216500425.9
RECEIVE_FREQ_1 =   2022-12-06T02:14:36.326   2216500425.2
RECEIVE_FREQ_1 =   2022-12-06T02:14:46.349   2216500424.7
RECEIVE_FREQ_1 =   2022-12-06T02:14:56.371   2216500424.2
RECEIVE_FREQ_1 =   2022-12-06T02:15:06.307   2216500423.7
RECEIVE_FREQ_1 =   2022-12-06T02:15:16.330   2216500423.0
RECEIVE_FREQ_1 =   2022-12-06T02:15:26.352   2216500422.4
RECEIVE_FREQ_1 =   2022-12-06T02:15:36.288   2216500422.1
RECEIVE_FREQ_1 =   2022-12-06T02:15:46.310   2216500421.3
RECEIVE_FREQ_1 =   2022-12-06T02:15:56.333   2216500420.7
RECEIVE_FREQ_1 =   2022-12-06T02:16:06.355   2216500420.1
RECEIVE_FREQ_1 =   2022-12-06T02:16:16.291   2216500419.4
RECEIVE_FREQ_1 =   2022-12-06T02:16:26.314   2216500418.7
RECEIVE_FREQ_1 =   2022-12-06T02:16:36.336   2216500418.2
RECEIVE_FREQ_1 =   2022-12-06T02:16:46.358   2216500417.7
RECEIVE_FREQ_1 =   2022-12-06T02:16:56.294   2216500416.8
RECEIVE_FREQ_1 =   2022-12-06T02:17:06.317   2216500416.4
RECEIVE_FREQ_1 =   2022-12-06T02:17:16.339   2216500415.8
RECEIVE_FREQ_1 =   2022-12-06T02:17:26.362   2216500415.2
RECEIVE_FREQ_1 =   2022-12-06T02:17:36.298   2216500414.5
RECEIVE_FREQ_1 =   2022-12-06T02:17:46.320   2216500413.8
RECEIVE_FREQ_1 =   2022-12-06T02:17:56.342   2216500413.3
RECEIVE_FREQ_1 =   2022-12-06T02:18:06.365   2216500412.6
RECEIVE_FREQ_1 =   2022-12-06T02:18:16.301   2216500411.7
RECEIVE_FREQ_1 =   2022-12-06T02:18:26.323   2216500411.5
RECEIVE_FREQ_1 =   2022-12-06T02:18:46.368   2216500410.1
RECEIVE_FREQ_1 =   2022-12-06T02:18:56.304   2216500409.3
RECEIVE_FREQ_1 =   2022-12-06T02:19:06.326   2216500408.8
RECEIVE_FREQ_1 =   2022-12-06T02:19:16.349   2216500408.0
RECEIVE_FREQ_1 =   2022-12-06T02:19:26.371   2216500407.3
RECEIVE_FREQ_1 =   2022-12-06T02:19:36.307   2216500407.0
RECEIVE_FREQ_1 =   2022-12-06T02:19:46.330   2216500406.2
RECEIVE_FREQ_1 =   2022-12-06T02:19:56.352   2216500405.6
RECEIVE_FREQ_1 =   2022-12-06T02:20:06.374   2216500404.8
RECEIVE_FREQ_1 =   2022-12-06T02:20:16.310   2216500404.2
RECEIVE_FREQ_1 =   2022-12-06T02:20:26.333   2216500403.5
RECEIVE_FREQ_1 =   2022-12-06T02:20:36.355   2216500402.9
RECEIVE_FREQ_1 =   2022-12-06T02:20:46.378   2216500402.2
RECEIVE_FREQ_1 =   2022-12-06T02:20:56.314   2216500401.6
RECEIVE_FREQ_1 =   2022-12-06T02:21:06.336   2216500401.0
RECEIVE_FREQ_1 =   2022-12-06T02:21:16.358   2216500400.5
RECEIVE_FREQ_1 =   2022-12-06T02:21:26.294   2216500399.6
RECEIVE_FREQ_1 =   2022-12-06T02:21:36.317   2216500398.9
RECEIVE_FREQ_1 =   2022-12-06T02:21:46.339   2216500397.9
RECEIVE_FREQ_1 =   2022-12-06T02:21:56.362   2216500397.4
RECEIVE_FREQ_1 =   2022-12-06T02:22:06.298   2216500396.8
RECEIVE_FREQ_1 =   2022-12-06T02:22:16.320   2216500396.0
RECEIVE_FREQ_1 =   2022-12-06T02:22:26.342   2216500395.6
RECEIVE_FREQ_1 =   2022-12-06T02:22:36.365   2216500394.7
RECEIVE_FREQ_1 =   2022-12-06T02:22:46.387   2216500394.1
RECEIVE_FREQ_1 =   2022-12-06T02:22:56.323   2216500393.8
RECEIVE_FREQ_1 =   2022-12-06T02:23:06.346   2216500393.1
RECEIVE_FREQ_1 =   2022-12-06T02:23:26.304   2216500391.3
RECEIVE_FREQ_1 =   2022-12-06T02:23:36.326   2216500390.8
RECEIVE_FREQ_1 =   2022-12-06T02:23:46.349   2216500389.9
RECEIVE_FREQ_1 =   2022-12-06T02:23:56.371   2216500389.1
RECEIVE_FREQ_1 =   2022-12-06T02:24:06.307   2216500388.4
RECEIVE_FREQ_1 =   2022-12-06T02:24:16.330   2216500387.9
RECEIVE_FREQ_1 =   2022-12-06T02:24:26.352   2216500387.1
RECEIVE_FREQ_1 =   2022-12-06T02:24:36.374   2216500386.4
RECEIVE_FREQ_1 =   2022-12-06T02:24:46.310   2216500385.6
RECEIVE_FREQ_1 =   2022-12-06T02:24:56.333   2216500385.0
RECEIVE_FREQ_1 =   2022-12-06T02:25:06.355   2216500384.2
RECEIVE_FREQ_1 =   2022-12-06T02:25:16.291   2216500383.7
RECEIVE_FREQ_1 =   2022-12-06T02:25:26.314   2216500382.6
RECEIVE_FREQ_1 =   2022-12-06T02:25:36.336   2216500382.0
RECEIVE_FREQ_1 =   2022-12-06T02:25:46.358   2216500381.0
RECEIVE_FREQ_1 =   2022-12-06T02:25:56.381   2216500380.4
RECEIVE_FREQ_1 =   2022-12-06T02:26:06.317   2216500379.9
RECEIVE_FREQ_1 =   2022-12-06T02:26:16.339   2216500379.0
RECEIVE_FREQ_1 =   2022-12-06T02:26:26.362   2216500378.2
RECEIVE_FREQ_1 =   2022-12-06T02:26:36.298   2216500377.8
RECEIVE_FREQ_1 =   2022-12-06T02:26:46.320   2216500376.8
RECEIVE_FREQ_1 =   2022-12-06T02:26:56.342   2216500376.1
RECEIVE_FREQ_1 =   2022-12-06T02:27:06.278   2216500375.5
RECEIVE_FREQ_1 =   2022-12-06T02:27:16.301   2216500374.7
RECEIVE_FREQ_1 =   2022-12-06T02:27:26.323   2216500374.0
RECEIVE_FREQ_1 =   2022-12-06T02:27:36.346   2216500373.1
RECEIVE_FREQ_1 =   2022-12-06T02:27:46.368   2216500372.4
RECEIVE_FREQ_1 =   2022-12-06T02:27:56.304   2216500371.5
RECEIVE_FREQ_1 =   2022-12-06T02:28:06.326   2216500370.8
RECEIVE_FREQ_1 =   2022-12-06T02:28:16.349   2216500370.0
RECEIVE_FREQ_1 =   2022-12-06T02:28:26.285   2216500369.5
RECEIVE_FREQ_1 =   2022-12-06T02:28:36.307   2216500368.5
RECEIVE_FREQ_1 =   2022-12-06T02:28:46.330   2216500367.7
RECEIVE_FREQ_1 =   2022-12-06T02:28:56.352   2216500366.8
RECEIVE_FREQ_1 =   2022-12-06T02:29:06.288   2216500366.1
RECEIVE_FREQ_1 =   2022-12-06T02:29:16.310   2216500365.5
RECEIVE_FREQ_1 =   2022-12-06T02:29:26.333   2216500364.7
RECEIVE_FREQ_1 =   2022-12-06T02:29:36.355   2216500364.0
RECEIVE_FREQ_1 =   2022-12-06T02:29:46.291   2216500363.1
RECEIVE_FREQ_1 =   2022-12-06T02:29:56.314   2216500362.5
RECEIVE_FREQ_1 =   2022-12-06T02:30:06.336   2216500361.4
RECEIVE_FREQ_1 =   2022-12-06T02:30:16.358   2216500360.9
RECEIVE_FREQ_1 =   2022-12-06T02:30:26.381   2216500359.8
RECEIVE_FREQ_1 =   2022-12-06T02:30:36.317   2216500359.2
RECEIVE_FREQ_1 =   2022-12-06T02:30:46.339   2216500358.6
RECEIVE_FREQ_1 =   2022-12-06T02:30:56.362   2216500357.6
RECEIVE_FREQ_1 =   2022-12-06T02:31:16.320   2216500356.2
RECEIVE_FREQ_1 =   2022-12-06T02:31:26.342   2216500355.0
RECEIVE_FREQ_1 =   2022-12-06T02:31:36.365   2216500354.3
RECEIVE_FREQ_1 =   2022-12-06T02:31:56.323   2216500352.8
RECEIVE_FREQ_1 =   2022-12-06T02:32:06.346   2216500352.4
RECEIVE_FREQ_1 =   2022-12-06T02:32:26.304   2216500350.8
RECEIVE_FREQ_1 =   2022-12-06T02:32:36.326   2216500350.2
RECEIVE_FREQ_1 =   2022-12-06T02:33:06.307   2216500348.1
RECEIVE_FREQ_1 =   2022-12-06T02:33:16.330   2216500347.5
RECEIVE_FREQ_1 =   2022-12-06T02:33:36.374   2216500345.9
RECEIVE_FREQ_1 =   2022-12-06T02:33:46.310   2216500345.4
RECEIVE_FREQ_1 =   2022-12-06T02:34:16.378   2216500343.5
RECEIVE_FREQ_1 =   2022-12-06T02:34:26.314   2216500342.5
RECEIVE_FREQ_1 =   2022-12-06T02:34:36.336   2216500341.8
RECEIVE_FREQ_1 =   2022-12-06T02:34:46.358   2216500341.0
RECEIVE_FREQ_1 =   2022-12-06T02:34:56.381   2216500340.5
RECEIVE_FREQ_1 =   2022-12-06T02:35:16.339   2216500339.0
RECEIVE_FREQ_1 =   2022-12-06T02:35:26.362   2216500338.1
RECEIVE_FREQ_1 =   2022-12-06T02:35:36.298   2216500337.6
RECEIVE_FREQ_1 =   2022-12-06T02:35:56.342   2216500336.1
RECEIVE_FREQ_1 =   2022-12-06T02:36:16.301   2216500334.6
RECEIVE_FREQ_1 =   2022-12-06T02:36:26.323   2216500334.1
RECEIVE_FREQ_1 =   2022-12-06T02:36:36.346   2216500333.3
RECEIVE_FREQ_1 =   2022-12-06T02:36:46.368   2216500332.4
RECEIVE_FREQ_1 =   2022-12-06T02:36:56.304   2216500331.8
RECEIVE_FREQ_1 =   2022-12-06T02:37:06.326   2216500331.2
RECEIVE_FREQ_1 =   2022-12-06T02:37:16.349   2216500330.3
RECEIVE_FREQ_1 =   2022-12-06T02:37:26.371   2216500329.8
RECEIVE_FREQ_1 =   2022-12-06T02:37:46.330   2216500328.4
RECEIVE_FREQ_1 =   2022-12-06T02:37:56.352   2216500327.2
RECEIVE_FREQ_1 =   2022-12-06T02:38:06.374   2216500326.8
RECEIVE_FREQ_1 =   2022-12-06T02:38:16.310   2216500325.8
RECEIVE_FREQ_1 =   2022-12-06T02:38:26.333   2216500325.3
RECEIVE_FREQ_1 =   2022-12-06T02:38:36.355   2216500324.7
RECEIVE_FREQ_1 =   2022-12-06T02:38:46.291   2216500323.6
RECEIVE_FREQ_1 =   2022-12-06T02:38:56.314   2216500323.2
RECEIVE_FREQ_1 =   2022-12-06T02:39:06.336   2216500322.2
RECEIVE_FREQ_1 =   2022-12-06T02:39:16.358   2216500321.3
RECEIVE_FREQ_1 =   2022-12-06T02:39:26.294   2216500320.8
RECEIVE_FREQ_1 =   2022-12-06T02:39:36.317   2216500320.0
RECEIVE_FREQ_1 =   2022-12-06T02:39:46.339   2216500319.3
RECEIVE_FREQ_1 =   2022-12-06T02:39:56.362   2216500318.3
RECEIVE_FREQ_1 =   2022-12-06T02:40:06.298   2216500317.6
RECEIVE_FREQ_1 =   2022-12-06T02:40:16.320   2216500317.1
RECEIVE_FREQ_1 =   2022-12-06T02:40:26.342   2216500316.1
RECEIVE_FREQ_1 =   2022-12-06T02:40:36.365   2216500315.1
RECEIVE_FREQ_1 =   2022-12-06T02:40:46.301   2216500314.5
RECEIVE_FREQ_1 =   2022-12-06T02:40:56.323   2216500313.6
RECEIVE_FREQ_1 =   2022-12-06T02:41:06.346   2216500312.8
RECEIVE_FREQ_1 =   2022-12-06T02:41:16.368   2216500312.3
RECEIVE_FREQ_1 =   2022-12-06T02:41:26.304   2216500311.3
RECEIVE_FREQ_1 =   2022-12-06T02:41:36.326   2216500310.6
RECEIVE_FREQ_1 =   2022-12-06T02:41:46.349   2216500309.9
RECEIVE_FREQ_1 =   2022-12-06T02:41:56.371   2216500309.0
RECEIVE_FREQ_1 =   2022-12-06T02:42:06.307   2216500308.2
RECEIVE_FREQ_1 =   2022-12-06T02:42:16.330   2216500307.5
RECEIVE_FREQ_1 =   2022-12-06T02:42:36.374   2216500305.6
RECEIVE_FREQ_1 =   2022-12-06T02:42:46.310   2216500305.0
RECEIVE_FREQ_1 =   2022-12-06T02:42:56.333   2216500304.1
RECEIVE_FREQ_1 =   2022-12-06T02:43:06.355   2216500303.2
RECEIVE_FREQ_1 =   2022-12-06T02:43:16.378   2216500302.4
RECEIVE_FREQ_1 =   2022-12-06T02:43:26.314   2216500301.7
RECEIVE_FREQ_1 =   2022-12-06T02:43:36.336   2216500300.7
RECEIVE_FREQ_1 =   2022-12-06T02:43:46.358   2216500300.0
RECEIVE_FREQ_1 =   2022-12-06T02:43:56.294   2216500299.4
RECEIVE_FREQ_1 =   2022-12-06T02:44:06.317   2216500298.6
RECEIVE_FREQ_1 =   2022-12-06T02:44:16.339   2216500297.5
RECEIVE_FREQ_1 =   2022-12-06T02:44:26.362   2216500296.8
RECEIVE_FREQ_1 =   2022-12-06T02:44:36.298   2216500296.0
RECEIVE_FREQ_1 =   2022-12-06T02:44:46.320   2216500295.4
RECEIVE_FREQ_1 =   2022-12-06T02:44:56.342   2216500294.2
RECEIVE_FREQ_1 =   2022-12-06T02:45:06.365   2216500293.4
RECEIVE_FREQ_1 =   2022-12-06T02:45:16.301   2216500292.9
RECEIVE_FREQ_1 =   2022-12-06T02:45:26.323   2216500292.0
RECEIVE_FREQ_1 =   2022-12-06T02:45:36.346   2216500291.1
RECEIVE_FREQ_1 =   2022-12-06T02:45:46.368   2216500290.3
RECEIVE_FREQ_1 =   2022-12-06T02:45:56.390   2216500289.3
RECEIVE_FREQ_1 =   2022-12-06T02:46:06.326   2216500288.4
RECEIVE_FREQ_1 =   2022-12-06T02:46:16.349   2216500287.8
RECEIVE_FREQ_1 =   2022-12-06T02:46:26.371   2216500286.8
RECEIVE_FREQ_1 =   2022-12-06T02:46:36.307   2216500285.8
RECEIVE_FREQ_1 =   2022-12-06T02:46:46.330   2216500285.2
RECEIVE_FREQ_1 =   2022-12-06T02:46:56.352   2216500284.3
RECEIVE_FREQ_1 =   2022-12-06T02:47:06.374   2216500283.0
RECEIVE_FREQ_1 =   2022-12-06T02:47:16.310   2216500282.7
RECEIVE_FREQ_1 =   2022-12-06T02:47:26.333   2216500281.4
RECEIVE_FREQ_1 =   2022-12-06T02:47:36.355   2216500280.6
RECEIVE_FREQ_1 =   2022-12-06T02:47:46.378   2216500280.3
RECEIVE_FREQ_1 =   2022-12-06T02:47:56.314   2216500279.3
RECEIVE_FREQ_1 =   2022-12-06T02:48:06.336   2216500278.3
RECEIVE_FREQ_1 =   2022-12-06T02:48:16.358   2216500277.3
RECEIVE_FREQ_1 =   2022-12-06T02:48:26.294   2216500276.4
RECEIVE_FREQ_1 =   2022-12-06T02:48:36.317   2216500275.6
RECEIVE_FREQ_1 =   2022-12-06T02:48:46.339   2216500274.7
RECEIVE_FREQ_1 =   2022-12-06T02:48:56.362   2216500273.6
RECEIVE_FREQ_1 =   2022-12-06T02:49:06.298   2216500273.1
RECEIVE_FREQ_1 =   2022-12-06T02:49:16.320   2216500272.1
RECEIVE_FREQ_1 =   2022-12-06T02:49:26.342   2216500271.5
RECEIVE_FREQ_1 =   2022-12-06T02:49:46.301   2216500269.6
RECEIVE_FREQ_1 =   2022-12-06T02:49:56.323   2216500268.4
RECEIVE_FREQ_1 =   2022-12-06T02:50:06.346   2216500267.6
RECEIVE_FREQ_1 =   2022-12-06T02:50:16.368   2216500266.8
RECEIVE_FREQ_1 =   2022-12-06T02:50:26.304   2216500266.3
RECEIVE_FREQ_1 =   2022-12-06T02:50:36.326   2216500265.1
RECEIVE_FREQ_1 =   2022-12-06T02:50:46.349   2216500264.2
RECEIVE_FREQ_1 =   2022-12-06T02:50:56.371   2216500263.4
RECEIVE_FREQ_1 =   2022-12-06T02:51:06.307   2216500262.4
RECEIVE_FREQ_1 =   2022-12-06T02:51:16.330   2216500261.5
RECEIVE_FREQ_1 =   2022-12-06T02:51:26.352   2216500260.5
RECEIVE_FREQ_1 =   2022-12-06T02:51:36.374   2216500259.6
RECEIVE_FREQ_1 =   2022-12-06T02:51:46.310   2216500258.6
RECEIVE_FREQ_1 =   2022-12-06T02:51:56.333   2216500257.9
RECEIVE_FREQ_1 =   2022-12-06T02:52:06.355   2216500257.0
RECEIVE_FREQ_1 =   2022-12-06T02:52:16.291   2216500255.9
RECEIVE_FREQ_1 =   2022-12-06T02:52:26.314   2216500255.2
RECEIVE_FREQ_1 =   2022-12-06T02:52:36.336   2216500254.2
RECEIVE_FREQ_1 =   2022-12-06T02:52:46.358   2216500253.4
RECEIVE_FREQ_1 =   2022-12-06T02:52:56.381   2216500252.1
RECEIVE_FREQ_1 =   2022-12-06T02:53:06.317   2216500251.3
RECEIVE_FREQ_1 =   2022-12-06T02:53:16.339   2216500250.8
RECEIVE_FREQ_1 =   2022-12-06T02:53:26.362   2216500249.9
RECEIVE_FREQ_1 =   2022-12-06T02:53:36.298   2216500248.9
RECEIVE_FREQ_1 =   2022-12-06T02:53:46.320   2216500248.5
RECEIVE_FREQ_1 =   2022-12-06T02:53:56.342   2216500247.4
RECEIVE_FREQ_1 =   2022-12-06T02:54:06.365   2216500246.6
RECEIVE_FREQ_1 =   2022-12-06T02:54:16.301   2216500246.0
RECEIVE_FREQ_1 =   2022-12-06T02:54:26.323   2216500245.1
RECEIVE_FREQ_1 =   2022-12-06T02:54:36.346   2216500244.3
RECEIVE_FREQ_1 =   2022-12-06T02:54:46.368   2216500243.4
RECEIVE_FREQ_1 =   2022-12-06T02:54:56.304   2216500242.8
RECEIVE_FREQ_1 =   2022-12-06T02:55:06.326   2216500242.0
RECEIVE_FREQ_1 =   2022-12-06T02:55:16.349   2216500241.0
RECEIVE_FREQ_1 =   2022-12-06T02:55:26.371   2216500240.2
RECEIVE_FREQ_1 =   2022-12-06T02:55:36.307   2216500239.1
RECEIVE_FREQ_1 =   2022-12-06T02:55:46.330   2216500238.4
RECEIVE_FREQ_1 =   2022-12-06T02:55:56.352   2216500237.7
RECEIVE_FREQ_1 =   2022-12-06T02:56:06.374   2216500236.9
RECEIVE_FREQ_1 =   2022-12-06T02:56:16.310   2216500235.9
RECEIVE_FREQ_1 =   2022-12-06T02:56:26.333   2216500235.1
RECEIVE_FREQ_1 =   2022-12-06T02:56:36.355   2216500234.5
RECEIVE_FREQ_1 =   2022-12-06T02:56:46.378   2216500233.7
RECEIVE_FREQ_1 =   2022-12-06T02:56:56.314   2216500232.9
RECEIVE_FREQ_1 =   2022-12-06T02:57:06.336   2216500231.9
RECEIVE_FREQ_1 =   2022-12-06T02:57:16.358   2216500231.0
RECEIVE_FREQ_1 =   2022-12-06T02:57:26.294   2216500229.9
RECEIVE_FREQ_1 =   2022-12-06T02:57:36.317   2216500229.5
RECEIVE_FREQ_1 =   2022-12-06T02:57:46.339   2216500228.5
RECEIVE_FREQ_1 =   2022-12-06T02:57:56.362   2216500227.6
RECEIVE_FREQ_1 =   2022-12-06T02:58:06.384   2216500226.9
RECEIVE_FREQ_1 =   2022-12-06T02:58:16.406   2216500225.9
RECEIVE_FREQ_1 =   2022-12-06T02:58:26.342   2216500225.2
RECEIVE_FREQ_1 =   2022-12-06T02:58:36.365   2216500224.5
RECEIVE_FREQ_1 =   2022-12-06T02:58:46.301   2216500223.3
RECEIVE_FREQ_1 =   2022-12-06T02:58:56.323   2216500222.5
RECEIVE_FREQ_1 =   2022-12-06T02:59:06.346   2216500221.7
RECEIVE_FREQ_1 =   2022-12-06T02:59:16.368   2216500220.9
RECEIVE_FREQ_1 =   2022-12-06T02:59:26.304   2216500220.2
RECEIVE_FREQ_1 =   2022-12-06T02:59:36.326   2216500219.2
RECEIVE_FREQ_1 =   2022-12-06T02:59:46.349   2216500218.3
RECEIVE_FREQ_1 =   2022-12-06T02:59:56.371   2216500217.6
RECEIVE_FREQ_1 =   2022-12-06T03:00:06.394   2216500216.2
RECEIVE_FREQ_1 =   2022-12-06T03:00:16.330   2216500215.6
RECEIVE_FREQ_1 =   2022-12-06T03:00:26.352   2216500214.6
RECEIVE_FREQ_1 =   2022-12-06T03:00:36.374   2216500213.9
RECEIVE_FREQ_1 =   2022-12-06T03:00:46.310   2216500212.9
RECEIVE_FREQ_1 =   2022-12-06T03:00:56.333   2216500212.3
RECEIVE_FREQ_1 =   2022-12-06T03:01:06.355   2216500211.0
RECEIVE_FREQ_1 =   2022-12-06T03:01:16.378   2216500210.4
RECEIVE_FREQ_1 =   2022-12-06T03:01:26.314   2216500209.5
RECEIVE_FREQ_1 =   2022-12-06T03:01:36.336   2216500208.8
RECEIVE_FREQ_1 =   2022-12-06T03:01:46.358   2216500207.8
RECEIVE_FREQ_1 =   2022-12-06T03:01:56.381   2216500206.7
RECEIVE_FREQ_1 =   2022-12-06T03:02:06.317   2216500205.8
RECEIVE_FREQ_1 =   2022-12-06T03:02:16.339   2216500204.9
RECEIVE_FREQ_1 =   2022-12-06T03:02:26.362   2216500203.9
RECEIVE_FREQ_1 =   2022-12-06T03:02:36.298   2216500203.2
RECEIVE_FREQ_1 =   2022-12-06T03:02:46.320   2216500202.4
RECEIVE_FREQ_1 =   2022-12-06T03:02:56.342   2216500201.5
RECEIVE_FREQ_1 =   2022-12-06T03:03:06.365   2216500200.6
RECEIVE_FREQ_1 =   2022-12-06T03:03:16.301   2216500199.6
RECEIVE_FREQ_1 =   2022-12-06T03:03:26.323   2216500198.7
RECEIVE_FREQ_1 =   2022-12-06T03:03:36.346   2216500197.7
RECEIVE_FREQ_1 =   2022-12-06T03:03:46.368   2216500197.1
RECEIVE_FREQ_1 =   2022-12-06T03:03:56.304   2216500195.9
RECEIVE_FREQ_1 =   2022-12-06T03:04:06.326   2216500195.1
RECEIVE_FREQ_1 =   2022-12-06T03:04:16.349   2216500194.2
RECEIVE_FREQ_1 =   2022-12-06T03:04:26.371   2216500193.3
RECEIVE_FREQ_1 =   2022-12-06T03:04:36.307   2216500192.2
RECEIVE_FREQ_1 =   2022-12-06T03:04:46.330   2216500191.4
RECEIVE_FREQ_1 =   2022-12-06T03:04:56.352   2216500190.5
RECEIVE_FREQ_1 =   2022-12-06T03:05:06.374   2216500189.7
RECEIVE_FREQ_1 =   2022-12-06T03:05:16.310   2216500188.8
RECEIVE_FREQ_1 =   2022-12-06T03:05:26.333   2216500187.7
RECEIVE_FREQ_1 =   2022-12-06T03:05:36.355   2216500186.6
RECEIVE_FREQ_1 =   2022-12-06T03:05:46.378   2216500185.7
RECEIVE_FREQ_1 =   2022-12-06T03:05:56.314   2216500185.2
RECEIVE_FREQ_1 =   2022-12-06T03:06:06.336   2216500183.9
RECEIVE_FREQ_1 =   2022-12-06T03:06:16.358   2216500182.9
RECEIVE_FREQ_1 =   2022-12-06T03:06:26.294   2216500182.1
RECEIVE_FREQ_1 =   2022-12-06T03:06:36.317   2216500181.2
RECEIVE_FREQ_1 =   2022-12-06T03:06:46.339   2216500180.3
RECEIVE_FREQ_1 =   2022-12-06T03:07:06.298   2216500178.1
RECEIVE_FREQ_1 =   2022-12-06T03:07:16.320   2216500177.3
RECEIVE_FREQ_1 =   2022-12-06T03:07:36.365   2216500175.6
RECEIVE_FREQ_1 =   2022-12-06T03:07:46.301   2216500174.3
RECEIVE_FREQ_1 =   2022-12-06T03:07:56.323   2216500173.7
RECEIVE_FREQ_1 =   2022-12-06T03:08:06.346   2216500172.4
RECEIVE_FREQ_1 =   2022-12-06T03:08:16.368   2216500171.5
RECEIVE_FREQ_1 =   2022-12-06T03:08:26.304   2216500170.9
RECEIVE_FREQ_1 =   2022-12-06T03:08:36.326   2216500169.7
RECEIVE_FREQ_1 =   2022-12-06T03:08:46.349   2216500169.0
RECEIVE_FREQ_1 =   2022-12-06T03:08:56.371   2216500167.6
RECEIVE_FREQ_1 =   2022-12-06T03:09:06.307   2216500167.0
RECEIVE_FREQ_1 =   2022-12-06T03:09:16.330   2216500165.8
RECEIVE_FREQ_1 =   2022-12-06T03:09:26.352   2216500164.8
RECEIVE_FREQ_1 =   2022-12-06T03:09:36.374   2216500163.7
RECEIVE_FREQ_1 =   2022-12-06T03:09:46.310   2216500162.8
RECEIVE_FREQ_1 =   2022-12-06T03:09:56.333   2216500162.0
RECEIVE_FREQ_1 =   2022-12-06T03:10:06.355   2216500160.7
RECEIVE_FREQ_1 =   2022-12-06T03:10:16.291   2216500159.8
RECEIVE_FREQ_1 =   2022-12-06T03:10:26.314   2216500159.0
RECEIVE_FREQ_1 =   2022-12-06T03:10:36.336   2216500157.9
RECEIVE_FREQ_1 =   2022-12-06T03:10:46.358   2216500156.9
RECEIVE_FREQ_1 =   2022-12-06T03:10:56.381   2216500156.1
RECEIVE_FREQ_1 =   2022-12-06T03:11:06.317   2216500154.8
RECEIVE_FREQ_1 =   2022-12-06T03:11:16.339   2216500154.1
RECEIVE_FREQ_1 =   2022-12-06T03:11:26.362   2216500153.0
RECEIVE_FREQ_1 =   2022-12-06T03:11:36.298   2216500152.2
RECEIVE_FREQ_1 =   2022-12-06T03:11:46.320   2216500151.2
RECEIVE_FREQ_1 =   2022-12-06T03:11:56.342   2216500150.2
RECEIVE_FREQ_1 =   2022-12-06T03:12:06.365   2216500149.0
RECEIVE_FREQ_1 =   2022-12-06T03:12:16.301   2216500148.0
RECEIVE_FREQ_1 =   2022-12-06T03:12:26.323   2216500147.2
RECEIVE_FREQ_1 =   2022-12-06T03:12:36.346   2216500145.8
RECEIVE_FREQ_1 =   2022-12-06T03:12:46.368   2216500144.9
RECEIVE_FREQ_1 =   2022-12-06T03:12:56.304   2216500144.0
RECEIVE_FREQ_1 =   2022-12-06T03:13:06.326   2216500143.1
RECEIVE_FREQ_1 =   2022-12-06T03:13:16.349   2216500141.9
RECEIVE_FREQ_1 =   2022-12-06T03:13:26.371   2216500141.2
RECEIVE_FREQ_1 =   2022-12-06T03:13:36.394   2216500140.0
RECEIVE_FREQ_1 =   2022-12-06T03:13:46.330   2216500139.0
RECEIVE_FREQ_1 =   2022-12-06T03:13:56.352   2216500138.1
RECEIVE_FREQ_1 =   2022-12-06T03:14:06.374   2216500137.0
RECEIVE_FREQ_1 =   2022-12-06T03:14:16.310   2216500135.9
RECEIVE_FREQ_1 =   2022-12-06T03:14:26.333   2216500134.9
RECEIVE_FREQ_1 =   2022-12-06T03:14:36.355   2216500133.6
RECEIVE_FREQ_1 =   2022-12-06T03:14:46.378   2216500132.8
RECEIVE_FREQ_1 =   2022-12-06T03:14:56.314   2216500131.7
RECEIVE_FREQ_1 =   2022-12-06T03:15:06.336   2216500130.8
RECEIVE_FREQ_1 =   2022-12-06T03:15:16.358   2216500129.4
RECEIVE_FREQ_1 =   2022-12-06T03:15:26.381   2216500128.6
RECEIVE_FREQ_1 =   2022-12-06T03:15:36.317   2216500127.8
RECEIVE_FREQ_1 =   2022-12-06T03:15:46.339   2216500126.8
RECEIVE_FREQ_1 =   2022-12-06T03:15:56.362   2216500125.9
RECEIVE_FREQ_1 =   2022-12-06T03:16:06.384   2216500125.3
RECEIVE_FREQ_1 =   2022-12-06T03:16:16.320   2216500124.0
RECEIVE_FREQ_1 =   2022-12-06T03:16:26.342   2216500123.3
RECEIVE_FREQ_1 =   2022-12-06T03:16:36.365   2216500122.5
RECEIVE_FREQ_1 =   2022-12-06T03:16:46.301   2216500121.3
RECEIVE_FREQ_1 =   2022-12-06T03:16:56.323   2216500120.5
RECEIVE_FREQ_1 =   2022-12-06T03:17:06.346   2216500119.7
RECEIVE_FREQ_1 =   2022-12-06T03:17:16.368   2216500118.4
RECEIVE_FREQ_1 =   2022-12-06T03:17:26.304   2216500117.7
RECEIVE_FREQ_1 =   2022-12-06T03:17:36.326   2216500116.7
RECEIVE_FREQ_1 =   2022-12-06T03:17:46.349   2216500115.6
RECEIVE_FREQ_1 =   2022-12-06T03:17:56.371   2216500114.8
RECEIVE_FREQ_1 =   2022-12-06T03:18:06.307   2216500113.9
RECEIVE_FREQ_1 =   2022-12-06T03:18:16.330   2216500113.3
RECEIVE_FREQ_1 =   2022-12-06T03:18:26.352   2216500112.2
RECEIVE_FREQ_1 =   2022-12-06T03:18:36.374   2216500111.2
RECEIVE_FREQ_1 =   2022-12-06T03:18:46.310   2216500110.0
RECEIVE_FREQ_1 =   2022-12-06T03:18:56.333   2216500109.3
RECEIVE_FREQ_1 =   2022-12-06T03:19:06.355   2216500108.1
RECEIVE_FREQ_1 =   2022-12-06T03:19:16.378   2216500107.4
RECEIVE_FREQ_1 =   2022-12-06T03:19:26.314   2216500106.0
RECEIVE_FREQ_1 =   2022-12-06T03:19:36.336   2216500105.4
RECEIVE_FREQ_1 =   2022-12-06T03:19:46.358   2216500104.5
RECEIVE_FREQ_1 =   2022-12-06T03:19:56.381   2216500103.3
RECEIVE_FREQ_1 =   2022-12-06T03:20:06.317   2216500102.4
RECEIVE_FREQ_1 =   2022-12-06T03:20:16.339   2216500101.8
RECEIVE_FREQ_1 =   2022-12-06T03:20:26.362   2216500100.3
RECEIVE_FREQ_1 =   2022-12-06T03:20:36.298   2216500099.8
RECEIVE_FREQ_1 =   2022-12-06T03:20:46.320   2216500098.6
RECEIVE_FREQ_1 =   2022-12-06T03:20:56.342   2216500097.8
RECEIVE_FREQ_1 =   2022-12-06T03:21:06.365   2216500096.6
RECEIVE_FREQ_1 =   2022-12-06T03:21:16.301   2216500095.3
RECEIVE_FREQ_1 =   2022-12-06T03:21:26.323   2216500094.7
RECEIVE_FREQ_1 =   2022-12-06T03:21:36.346   2216500094.0
RECEIVE_FREQ_1 =   2022-12-06T03:21:46.368   2216500092.7
RECEIVE_FREQ_1 =   2022-12-06T03:21:56.304   2216500091.8
RECEIVE_FREQ_1 =   2022-12-06T03:22:06.326   2216500090.8
RECEIVE_FREQ_1 =   2022-12-06T03:22:16.349   2216500090.2
RECEIVE_FREQ_1 =   2022-12-06T03:22:26.371   2216500088.9
RECEIVE_FREQ_1 =   2022-12-06T03:22:36.307   2216500088.1
RECEIVE_FREQ_1 =   2022-12-06T03:22:46.330   2216500086.9
RECEIVE_FREQ_1 =   2022-12-06T03:22:56.352   2216500085.8
RECEIVE_FREQ_1 =   2022-12-06T03:23:06.288   2216500085.1
RECEIVE_FREQ_1 =   2022-12-06T03:23:16.310   2216500083.9
RECEIVE_FREQ_1 =   2022-12-06T03:23:26.333   2216500083.0
RECEIVE_FREQ_1 =   2022-12-06T03:23:36.355   2216500082.0
RECEIVE_FREQ_1 =   2022-12-06T03:23:46.378   2216500080.9
RECEIVE_FREQ_1 =   2022-12-06T03:23:56.314   2216500080.1
RECEIVE_FREQ_1 =   2022-12-06T03:24:06.336   2216500079.4
RECEIVE_FREQ_1 =   2022-12-06T03:24:16.358   2216500078.1
RECEIVE_FREQ_1 =   2022-12-06T03:24:26.381   2216500077.1
RECEIVE_FREQ_1 =   2022-12-06T03:24:36.317   2216500076.1
RECEIVE_FREQ_1 =   2022-12-06T03:24:46.339   2216500075.1
RECEIVE_FREQ_1 =   2022-12-06T03:24:56.362   2216500074.2
RECEIVE_FREQ_1 =   2022-12-06T03:25:06.384   2216500072.8
RECEIVE_FREQ_1 =   2022-12-06T03:25:16.320   2216500071.8
RECEIVE_FREQ_1 =   2022-12-06T03:25:26.342   2216500070.9
RECEIVE_FREQ_1 =   2022-12-06T03:25:36.365   2216500070.2
RECEIVE_FREQ_1 =   2022-12-06T03:25:46.301   2216500069.0
RECEIVE_FREQ_1 =   2022-12-06T03:25:56.323   2216500067.8
RECEIVE_FREQ_1 =   2022-12-06T03:26:06.346   2216500066.9
RECEIVE_FREQ_1 =   2022-12-06T03:26:16.368   2216500065.9
RECEIVE_FREQ_1 =   2022-12-06T03:26:26.390   2216500064.8
RECEIVE_FREQ_1 =   2022-12-06T03:26:36.326   2216500063.8
RECEIVE_FREQ_1 =   2022-12-06T03:26:46.349   2216500063.0
RECEIVE_FREQ_1 =   2022-12-06T03:26:56.371   2216500061.6
RECEIVE_FREQ_1 =   2022-12-06T03:27:06.307   2216500060.4
RECEIVE_FREQ_1 =   2022-12-06T03:27:16.330   2216500059.7
RECEIVE_FREQ_1 =   2022-12-06T03:27:26.352   2216500058.9
RECEIVE_FREQ_1 =   2022-12-06T03:27:36.288   2216500057.3
RECEIVE_FREQ_1 =   2022-12-06T03:27:46.310   2216500056.4
RECEIVE_FREQ_1 =   2022-12-06T03:27:56.333   2216500055.5
RECEIVE_FREQ_1 =   2022-12-06T03:28:06.355   2216500054.4
RECEIVE_FREQ_1 =   2022-12-06T03:28:16.378   2216500053.6
RECEIVE_FREQ_1 =   2022-12-06T03:28:26.314   2216500052.2
RECEIVE_FREQ_1 =   2022-12-06T03:28:36.336   2216500051.6
RECEIVE_FREQ_1 =   2022-12-06T03:28:46.358   2216500050.2
RECEIVE_FREQ_1 =   2022-12-06T03:28:56.381   2216500049.4
RECEIVE_FREQ_1 =   2022-12-06T03:29:06.317   2216500048.3
RECEIVE_FREQ_1 =   2022-12-06T03:29:16.339   2216500047.2
RECEIVE_FREQ_1 =   2022-12-06T03:29:56.342   2216500043.0
RECEIVE_FREQ_1 =   2022-12-06T03:30:06.365   2216500042.0
RECEIVE_FREQ_1 =   2022-12-06T03:30:16.301   2216500040.9
RECEIVE_FREQ_1 =   2022-12-06T03:30:26.323   2216500039.9
RECEIVE_FREQ_1 =   2022-12-06T03:30:36.346   2216500039.1
RECEIVE_FREQ_1 =   2022-12-06T03:30:46.368   2216500037.6
RECEIVE_FREQ_1 =   2022-12-06T03:30:56.304   2216500036.8
RECEIVE_FREQ_1 =   2022-12-06T03:31:06.326   2216500035.6
RECEIVE_FREQ_1 =   2022-12-06T03:31:16.349   2216500034.6
RECEIVE_FREQ_1 =   2022-12-06T03:31:26.371   2216500033.4
RECEIVE_FREQ_1 =   2022-12-06T03:31:36.307   2216500032.4
RECEIVE_FREQ_1 =   2022-12-06T03:31:46.330   2216500031.3
RECEIVE_FREQ_1 =   2022-12-06T03:31:56.352   2216500030.4
RECEIVE_FREQ_1 =   2022-12-06T03:32:06.374   2216500029.1
RECEIVE_FREQ_1 =   2022-12-06T03:32:16.310   2216500028.0
RECEIVE_FREQ_1 =   2022-12-06T03:32:26.333   2216500027.0
RECEIVE_FREQ_1 =   2022-12-06T03:32:36.355   2216500026.2
RECEIVE_FREQ_1 =   2022-12-06T03:32:46.378   2216500024.6
RECEIVE_FREQ_1 =   2022-12-06T03:32:56.400   2216500023.7
RECEIVE_FREQ_1 =   2022-12-06T03:33:06.336   2216500022.8
RECEIVE_FREQ_1 =   2022-12-06T03:33:16.358   2216500021.6
RECEIVE_FREQ_1 =   2022-12-06T03:33:26.381   2216500020.6
RECEIVE_FREQ_1 =   2022-12-06T03:33:36.317   2216500019.4
RECEIVE_FREQ_1 =   2022-12-06T03:33:46.339   2216500018.4
RECEIVE_FREQ_1 =   2022-12-06T03:33:56.362   2216500017.1
RECEIVE_FREQ_1 =   2022-12-06T03:34:06.298   2216500016.2
RECEIVE_FREQ_1 =   2022-12-06T03:34:16.320   2216500014.9
RECEIVE_FREQ_1 =   2022-12-06T03:34:26.342   2216500013.9
RECEIVE_FREQ_1 =   2022-12-06T03:34:36.365   2216500012.7
RECEIVE_FREQ_1 =   2022-12-06T03:34:46.301   2216500011.5
RECEIVE_FREQ_1 =   2022-12-06T03:34:56.323   2216500010.3
RECEIVE_FREQ_1 =   2022-12-06T03:35:16.368   2216500008.2
RECEIVE_FREQ_1 =   2022-12-06T03:35:26.304   2216500007.2
RECEIVE_FREQ_1 =   2022-12-06T03:35:36.326   2216500006.2
RECEIVE_FREQ_1 =   2022-12-06T03:35:46.349   2216500005.1
RECEIVE_FREQ_1 =   2022-12-06T03:35:56.285   2216500004.0
RECEIVE_FREQ_1 =   2022-12-06T03:36:06.307   2216500002.3
RECEIVE_FREQ_1 =   2022-12-06T03:36:26.352   2216500000.9
RECEIVE_FREQ_1 =   2022-12-06T03:36:36.288   2216499999.4
RECEIVE_FREQ_1 =   2022-12-06T03:36:46.310   2216499998.6
RECEIVE_FREQ_1 =   2022-12-06T03:36:56.333   2216499997.1
RECEIVE_FREQ_1 =   2022-12-06T03:37:06.355   2216499996.1
RECEIVE_FREQ_1 =   2022-12-06T03:37:16.291   2216499995.3
RECEIVE_FREQ_1 =   2022-12-06T03:37:26.314   2216499993.9
RECEIVE_FREQ_1 =   2022-12-06T03:37:36.336   2216499992.6
RECEIVE_FREQ_1 =   2022-12-06T03:37:46.358   2216499991.6
RECEIVE_FREQ_1 =   2022-12-06T03:37:56.294   2216499990.9
RECEIVE_FREQ_1 =   2022-12-06T03:38:06.317   2216499989.4
RECEIVE_FREQ_1 =   2022-12-06T03:38:16.339   2216499988.3
RECEIVE_FREQ_1 =   2022-12-06T03:38:26.362   2216499987.2
RECEIVE_FREQ_1 =   2022-12-06T03:38:36.298   2216499986.0
RECEIVE_FREQ_1 =   2022-12-06T03:38:46.320   2216499984.9
RECEIVE_FREQ_1 =   2022-12-06T03:38:56.342   2216499983.8
RECEIVE_FREQ_1 =   2022-12-06T03:39:06.365   2216499982.9
RECEIVE_FREQ_1 =   2022-12-06T03:39:16.301   2216499981.7
RECEIVE_FREQ_1 =   2022-12-06T03:39:26.323   2216499980.5
RECEIVE_FREQ_1 =   2022-12-06T03:39:36.346   2216499979.5
RECEIVE_FREQ_1 =   2022-12-06T03:39:46.368   2216499978.6
RECEIVE_FREQ_1 =   2022-12-06T03:39:56.304   2216499977.8
RECEIVE_FREQ_1 =   2022-12-06T03:40:06.326   2216499976.3
RECEIVE_FREQ_1 =   2022-12-06T03:40:16.349   2216499975.2
RECEIVE_FREQ_1 =   2022-12-06T03:40:26.371   2216499974.5
RECEIVE_FREQ_1 =   2022-12-06T03:40:36.307   2216499973.6
RECEIVE_FREQ_1 =   2022-12-06T03:40:46.330   2216499972.2
RECEIVE_FREQ_1 =   2022-12-06T03:40:56.352   2216499971.4
RECEIVE_FREQ_1 =   2022-12-06T03:41:06.288   2216499970.0
RECEIVE_FREQ_1 =   2022-12-06T03:41:16.310   2216499969.3
RECEIVE_FREQ_1 =   2022-12-06T03:41:26.333   2216499968.2
RECEIVE_FREQ_1 =   2022-12-06T03:41:36.355   2216499967.0
RECEIVE_FREQ_1 =   2022-12-06T03:41:46.291   2216499966.0
RECEIVE_FREQ_1 =   2022-12-06T03:41:56.314   2216499964.8
RECEIVE_FREQ_1 =   2022-12-06T03:42:06.336   2216499963.8
RECEIVE_FREQ_1 =   2022-12-06T03:42:16.358   2216499962.8
RECEIVE_FREQ_1 =   2022-12-06T03:42:26.381   2216499962.0
RECEIVE_FREQ_1 =   2022-12-06T03:42:36.317   2216499960.8
RECEIVE_FREQ_1 =   2022-12-06T03:42:46.339   2216499959.7
RECEIVE_FREQ_1 =   2022-12-06T03:42:56.362   2216499958.4
RECEIVE_FREQ_1 =   2022-12-06T03:43:06.298   2216499957.4
RECEIVE_FREQ_1 =   2022-12-06T03:43:16.320   2216499956.6
RECEIVE_FREQ_1 =   2022-12-06T03:43:26.342   2216499955.7
RECEIVE_FREQ_1 =   2022-12-06T03:43:36.365   2216499954.1
RECEIVE_FREQ_1 =   2022-12-06T03:43:46.301   2216499953.3
RECEIVE_FREQ_1 =   2022-12-06T03:43:56.323   2216499952.2
RECEIVE_FREQ_1 =   2022-12-06T03:44:06.346   2216499951.2
RECEIVE_FREQ_1 =   2022-12-06T03:44:16.368   2216499950.3
RECEIVE_FREQ_1 =   2022-12-06T03:44:26.304   2216499948.9
RECEIVE_FREQ_1 =   2022-12-06T03:44:36.326   2216499948.3
RECEIVE_FREQ_1 =   2022-12-06T03:44:46.349   2216499947.1
RECEIVE_FREQ_1 =   2022-12-06T03:44:56.285   2216499946.0
RECEIVE_FREQ_1 =   2022-12-06T03:45:06.307   2216499945.0
RECEIVE_FREQ_1 =   2022-12-06T03:45:16.330   2216499943.5
RECEIVE_FREQ_1 =   2022-12-06T03:45:26.352   2216499942.6
RECEIVE_FREQ_1 =   2022-12-06T03:45:36.288   2216499941.5
RECEIVE_FREQ_1 =   2022-12-06T03:45:46.310   2216499940.4
RECEIVE_FREQ_1 =   2022-12-06T03:45:56.333   2216499939.3
RECEIVE_FREQ_1 =   2022-12-06T03:46:06.355   2216499938.2
RECEIVE_FREQ_1 =   2022-12-06T03:46:16.378   2216499937.3
RECEIVE_FREQ_1 =   2022-12-06T03:46:26.314   2216499936.2
RECEIVE_FREQ_1 =   2022-12-06T03:46:36.336   2216499934.6
RECEIVE_FREQ_1 =   2022-12-06T03:46:46.358   2216499933.6
RECEIVE_FREQ_1 =   2022-12-06T03:46:56.381   2216499932.8
RECEIVE_FREQ_1 =   2022-12-06T03:47:06.317   2216499931.6
RECEIVE_FREQ_1 =   2022-12-06T03:47:16.339   2216499930.5
RECEIVE_FREQ_1 =   2022-12-06T03:47:26.362   2216499929.8
RECEIVE_FREQ_1 =   2022-12-06T03:47:36.298   2216499928.2
RECEIVE_FREQ_1 =   2022-12-06T03:47:46.320   2216499927.4
RECEIVE_FREQ_1 =   2022-12-06T03:47:56.342   2216499926.4
RECEIVE_FREQ_1 =   2022-12-06T03:48:06.365   2216499924.9
RECEIVE_FREQ_1 =   2022-12-06T03:48:16.301   2216499923.9
RECEIVE_FREQ_1 =   2022-12-06T03:48:26.323   2216499923.0
RECEIVE_FREQ_1 =   2022-12-06T03:48:36.346   2216499921.6
RECEIVE_FREQ_1 =   2022-12-06T03:48:46.368   2216499920.4
RECEIVE_FREQ_1 =   2022-12-06T03:48:56.304   2216499919.2
RECEIVE_FREQ_1 =   2022-12-06T03:49:06.326   2216499918.4
RECEIVE_FREQ_1 =   2022-12-06T03:49:16.349   2216499917.2
RECEIVE_FREQ_1 =   2022-12-06T03:49:26.371   2216499916.2
RECEIVE_FREQ_1 =   2022-12-06T03:49:36.394   2216499915.1
RECEIVE_FREQ_1 =   2022-12-06T03:49:46.330   2216499914.0
RECEIVE_FREQ_1 =   2022-12-06T03:49:56.352   2216499912.6
RECEIVE_FREQ_1 =   2022-12-06T03:50:06.374   2216499911.8
RECEIVE_FREQ_1 =   2022-12-06T03:50:16.310   2216499910.6
RECEIVE_FREQ_1 =   2022-12-06T03:50:26.333   2216499909.3
RECEIVE_FREQ_1 =   2022-12-06T03:50:36.355   2216499908.1
RECEIVE_FREQ_1 =   2022-12-06T03:50:46.378   2216499907.1
RECEIVE_FREQ_1 =   2022-12-06T03:50:56.314   2216499906.3
RECEIVE_FREQ_1 =   2022-12-06T03:51:06.336   2216499904.9
RECEIVE_FREQ_1 =   2022-12-06T03:51:16.358   2216499903.7
RECEIVE_FREQ_1 =   2022-12-06T03:51:26.294   2216499902.6
RECEIVE_FREQ_1 =   2022-12-06T03:51:36.317   2216499901.5
RECEIVE_FREQ_1 =   2022-12-06T03:51:46.339   2216499900.7
RECEIVE_FREQ_1 =   2022-12-06T03:51:56.362   2216499899.2
RECEIVE_FREQ_1 =   2022-12-06T03:52:06.298   2216499898.1
RECEIVE_FREQ_1 =   2022-12-06T03:52:16.320   2216499897.3
RECEIVE_FREQ_1 =   2022-12-06T03:52:26.342   2216499895.7
RECEIVE_FREQ_1 =   2022-12-06T03:52:36.365   2216499894.6
RECEIVE_FREQ_1 =   2022-12-06T03:52:46.301   2216499893.4
RECEIVE_FREQ_1 =   2022-12-06T03:52:56.323   2216499892.4
RECEIVE_FREQ_1 =   2022-12-06T03:53:06.346   2216499891.3
RECEIVE_FREQ_1 =   2022-12-06T03:53:16.368   2216499890.0
RECEIVE_FREQ_1 =   2022-12-06T03:53:26.304   2216499888.8
RECEIVE_FREQ_1 =   2022-12-06T03:53:36.326   2216499888.0
RECEIVE_FREQ_1 =   2022-12-06T03:53:46.349   2216499886.5
RECEIVE_FREQ_1 =   2022-12-06T03:53:56.371   2216499885.8
RECEIVE_FREQ_1 =   2022-12-06T03:54:06.307   2216499884.6
RECEIVE_FREQ_1 =   2022-12-06T03:54:16.330   2216499883.3
RECEIVE_FREQ_1 =   2022-12-06T03:54:26.352   2216499882.1
RECEIVE_FREQ_1 =   2022-12-06T03:54:36.288   2216499880.9
RECEIVE_FREQ_1 =   2022-12-06T03:54:46.310   2216499879.9
RECEIVE_FREQ_1 =   2022-12-06T03:54:56.333   2216499878.6
RECEIVE_FREQ_1 =   2022-12-06T03:55:06.355   2216499877.5
RECEIVE_FREQ_1 =   2022-12-06T03:55:16.378   2216499876.6
RECEIVE_FREQ_1 =   2022-12-06T03:55:26.314   2216499875.2
RECEIVE_FREQ_1 =   2022-12-06T03:55:36.336   2216499874.1
RECEIVE_FREQ_1 =   2022-12-06T03:55:46.358   2216499873.0
RECEIVE_FREQ_1 =   2022-12-06T03:55:56.381   2216499871.6
RECEIVE_FREQ_1 =   2022-12-06T03:56:06.317   2216499870.6
RECEIVE_FREQ_1 =   2022-12-06T03:56:16.339   2216499869.3
RECEIVE_FREQ_1 =   2022-12-06T03:56:26.362   2216499868.0
RECEIVE_FREQ_1 =   2022-12-06T03:56:36.298   2216499867.2
RECEIVE_FREQ_1 =   2022-12-06T03:56:46.320   2216499866.0
RECEIVE_FREQ_1 =   2022-12-06T03:56:56.342   2216499864.7
RECEIVE_FREQ_1 =   2022-12-06T03:57:06.365   2216499863.6
RECEIVE_FREQ_1 =   2022-12-06T03:57:16.301   2216499862.1
RECEIVE_FREQ_1 =   2022-12-06T03:57:26.323   2216499861.4
RECEIVE_FREQ_1 =   2022-12-06T03:57:36.346   2216499860.0
RECEIVE_FREQ_1 =   2022-12-06T03:57:46.282   2216499859.1
RECEIVE_FREQ_1 =   2022-12-06T03:57:56.304   2216499857.5
RECEIVE_FREQ_1 =   2022-12-06T03:58:06.326   2216499856.6
RECEIVE_FREQ_1 =   2022-12-06T03:58:16.349   2216499855.2
RECEIVE_FREQ_1 =   2022-12-06T03:58:26.371   2216499853.8
RECEIVE_FREQ_1 =   2022-12-06T03:58:36.307   2216499852.8
RECEIVE_FREQ_1 =   2022-12-06T03:58:46.330   2216499851.8
RECEIVE_FREQ_1 =   2022-12-06T03:58:56.352   2216499850.2
RECEIVE_FREQ_1 =   2022-12-06T03:59:06.288   2216499849.6
RECEIVE_FREQ_1 =   2022-12-06T03:59:16.310   2216499848.3
RECEIVE_FREQ_1 =   2022-12-06T03:59:26.333   2216499846.9
RECEIVE_FREQ_1 =   2022-12-06T03:59:36.355   2216499845.6
RECEIVE_FREQ_1 =   2022-12-06T03:59:46.291   2216499844.7
RECEIVE_FREQ_1 =   2022-12-06T03:59:56.314   2216499842.9
RECEIVE_FREQ_1 =   2022-12-06T04:00:06.336   2216499842.1
RECEIVE_FREQ_1 =   2022-12-06T04:00:16.358   2216499840.7
RECEIVE_FREQ_1 =   2022-12-06T04:00:26.294   2216499839.5
RECEIVE_FREQ_1 =   2022-12-06T04:00:36.317   2216499838.5
RECEIVE_FREQ_1 =   2022-12-06T04:00:46.339   2216499837.1
RECEIVE_FREQ_1 =   2022-12-06T04:00:56.362   2216499836.2
RECEIVE_FREQ_1 =   2022-12-06T04:01:06.298   2216499834.7
RECEIVE_FREQ_1 =   2022-12-06T04:01:16.320   2216499833.7
RECEIVE_FREQ_1 =   2022-12-06T04:01:26.342   2216499832.2
RECEIVE_FREQ_1 =   2022-12-06T04:01:36.365   2216499831.2
RECEIVE_FREQ_1 =   2022-12-06T04:01:46.301   2216499830.1
RECEIVE_FREQ_1 =   2022-12-06T04:01:56.323   2216499828.8
RECEIVE_FREQ_1 =   2022-12-06T04:02:06.346   2216499827.8
RECEIVE_FREQ_1 =   2022-12-06T04:02:16.368   2216499826.2
RECEIVE_FREQ_1 =   2022-12-06T04:02:26.304   2216499825.3
RECEIVE_FREQ_1 =   2022-12-06T04:02:36.326   2216499823.9
RECEIVE_FREQ_1 =   2022-12-06T04:02:46.349   2216499822.9
RECEIVE_FREQ_1 =   2022-12-06T04:02:56.285   2216499821.6
RECEIVE_FREQ_1 =   2022-12-06T04:03:06.307   2216499820.6
RECEIVE_FREQ_1 =   2022-12-06T04:03:16.330   2216499819.0
RECEIVE_FREQ_1 =   2022-12-06T04:03:26.352   2216499817.9
RECEIVE_FREQ_1 =   2022-12-06T04:03:36.374   2216499816.7
RECEIVE_FREQ_1 =   2022-12-06T04:03:46.310   2216499815.3
RECEIVE_FREQ_1 =   2022-12-06T04:03:56.333   2216499814.2
RECEIVE_FREQ_1 =   2022-12-06T04:04:06.355   2216499812.9
RECEIVE_FREQ_1 =   2022-12-06T04:04:16.291   2216499811.8
RECEIVE_FREQ_1 =   2022-12-06T04:04:26.314   2216499810.6
RECEIVE_FREQ_1 =   2022-12-06T04:04:36.336   2216499809.1
RECEIVE_FREQ_1 =   2022-12-06T04:04:46.358   2216499807.8
RECEIVE_FREQ_1 =   2022-12-06T04:04:56.294   2216499806.5
RECEIVE_FREQ_1 =   2022-12-06T04:05:06.317   2216499805.2
RECEIVE_FREQ_1 =   2022-12-06T04:05:16.339   2216499804.5
RECEIVE_FREQ_1 =   2022-12-06T04:05:26.362   2216499803.2
RECEIVE_FREQ_1 =   2022-12-06T04:05:36.384   2216499801.9
RECEIVE_FREQ_1 =   2022-12-06T04:05:46.320   2216499800.9
RECEIVE_FREQ_1 =   2022-12-06T04:05:56.342   2216499799.6
RECEIVE_FREQ_1 =   2022-12-06T04:06:06.365   2216499798.5
RECEIVE_FREQ_1 =   2022-12-06T04:06:16.301   2216499797.4
RECEIVE_FREQ_1 =   2022-12-06T04:06:26.323   2216499796.1
RECEIVE_FREQ_1 =   2022-12-06T04:06:36.346   2216499795.1
RECEIVE_FREQ_1 =   2022-12-06T04:06:46.282   2216499794.1
RECEIVE_FREQ_1 =   2022-12-06T04:06:56.304   2216499792.8
RECEIVE_FREQ_1 =   2022-12-06T04:07:06.326   2216499791.7
RECEIVE_FREQ_1 =   2022-12-06T04:07:16.349   2216499790.6
RECEIVE_FREQ_1 =   2022-12-06T04:07:26.371   2216499789.3
RECEIVE_FREQ_1 =   2022-12-06T04:07:36.307   2216499787.9
RECEIVE_FREQ_1 =   2022-12-06T04:07:46.330   2216499787.1
RECEIVE_FREQ_1 =   2022-12-06T04:07:56.352   2216499785.8
RECEIVE_FREQ_1 =   2022-12-06T04:08:06.288   2216499784.8
RECEIVE_FREQ_1 =   2022-12-06T04:08:16.310   2216499783.2
RECEIVE_FREQ_1 =   2022-12-06T04:08:26.333   2216499782.4
RECEIVE_FREQ_1 =   2022-12-06T04:08:36.355   2216499781.3
RECEIVE_FREQ_1 =   2022-12-06T04:08:46.291   2216499780.0
RECEIVE_FREQ_1 =   2022-12-06T04:08:56.314   2216499778.7
RECEIVE_FREQ_1 =   2022-12-06T04:09:06.336   2216499777.7
RECEIVE_FREQ_1 =   2022-12-06T04:09:16.358   2216499776.4
RECEIVE_FREQ_1 =   2022-12-06T04:09:26.294   2216499775.3
RECEIVE_FREQ_1 =   2022-12-06T04:09:36.317   2216499774.2
RECEIVE_FREQ_1 =   2022-12-06T04:09:46.339   2216499772.8
RECEIVE_FREQ_1 =   2022-12-06T04:09:56.362   2216499771.8
RECEIVE_FREQ_1 =   2022-12-06T04:10:06.298   2216499770.6
RECEIVE_FREQ_1 =   2022-12-06T04:10:16.320   2216499769.7
RECEIVE_FREQ_1 =   2022-12-06T04:10:26.342   2216499768.3
RECEIVE_FREQ_1 =   2022-12-06T04:10:36.365   2216499767.2
RECEIVE_FREQ_1 =   2022-12-06T04:10:46.301   2216499765.9
RECEIVE_FREQ_1 =   2022-12-06T04:10:56.323   2216499764.8
RECEIVE_FREQ_1 =   2022-12-06T04:11:06.346   2216499763.5
RECEIVE_FREQ_1 =   2022-12-06T04:11:16.368   2216499762.5
RECEIVE_FREQ_1 =   2022-12-06T04:11:26.304   2216499761.0
RECEIVE_FREQ_1 =   2022-12-06T04:11:36.326   2216499759.9
RECEIVE_FREQ_1 =   2022-12-06T04:11:46.349   2216499758.9
RECEIVE_FREQ_1 =   2022-12-06T04:11:56.371   2216499758.0
RECEIVE_FREQ_1 =   2022-12-06T04:12:06.307   2216499756.4
RECEIVE_FREQ_1 =   2022-12-06T04:12:16.330   2216499755.3
RECEIVE_FREQ_1 =   2022-12-06T04:12:26.352   2216499754.2
RECEIVE_FREQ_1 =   2022-12-06T04:12:36.374   2216499753.1
RECEIVE_FREQ_1 =   2022-12-06T04:12:46.310   2216499752.1
RECEIVE_FREQ_1 =   2022-12-06T04:12:56.333   2216499750.8
RECEIVE_FREQ_1 =   2022-12-06T04:13:06.355   2216499749.5
RECEIVE_FREQ_1 =   2022-12-06T04:13:16.378   2216499748.4
RECEIVE_FREQ_1 =   2022-12-06T04:13:26.314   2216499747.2
RECEIVE_FREQ_1 =   2022-12-06T04:13:36.336   2216499746.0
RECEIVE_FREQ_1 =   2022-12-06T04:13:46.358   2216499744.4
RECEIVE_FREQ_1 =   2022-12-06T04:13:56.294   2216499743.4
RECEIVE_FREQ_1 =   2022-12-06T04:14:06.317   2216499742.4
RECEIVE_FREQ_1 =   2022-12-06T04:14:16.339   2216499741.1
RECEIVE_FREQ_1 =   2022-12-06T04:14:26.362   2216499739.8
RECEIVE_FREQ_1 =   2022-12-06T04:14:36.298   2216499738.6
RECEIVE_FREQ_1 =   2022-12-06T04:14:46.320   2216499737.4
RECEIVE_FREQ_1 =   2022-12-06T04:14:56.342   2216499736.1
RECEIVE_FREQ_1 =   2022-12-06T04:15:06.365   2216499735.2
RECEIVE_FREQ_1 =   2022-12-06T04:15:16.301   2216499733.8
RECEIVE_FREQ_1 =   2022-12-06T04:15:26.323   2216499732.9
RECEIVE_FREQ_1 =   2022-12-06T04:15:36.346   2216499731.6
RECEIVE_FREQ_1 =   2022-12-06T04:15:46.368   2216499730.1
RECEIVE_FREQ_1 =   2022-12-06T04:15:56.304   2216499728.9
RECEIVE_FREQ_1 =   2022-12-06T04:16:06.326   2216499727.7
RECEIVE_FREQ_1 =   2022-12-06T04:16:16.349   2216499726.3
RECEIVE_FREQ_1 =   2022-12-06T04:16:26.371   2216499725.3
RECEIVE_FREQ_1 =   2022-12-06T04:16:36.307   2216499724.1
RECEIVE_FREQ_1 =   2022-12-06T04:16:46.330   2216499722.9
RECEIVE_FREQ_1 =   2022-12-06T04:16:56.352   2216499721.5
RECEIVE_FREQ_1 =   2022-12-06T04:17:06.288   2216499720.6
RECEIVE_FREQ_1 =   2022-12-06T04:17:16.310   2216499719.2
RECEIVE_FREQ_1 =   2022-12-06T04:17:26.333   2216499717.9
RECEIVE_FREQ_1 =   2022-12-06T04:17:36.355   2216499716.6
RECEIVE_FREQ_1 =   2022-12-06T04:17:46.291   2216499715.6
RECEIVE_FREQ_1 =   2022-12-06T04:17:56.314   2216499714.6
RECEIVE_FREQ_1 =   2022-12-06T04:18:06.336   2216499713.0
RECEIVE_FREQ_1 =   2022-12-06T04:18:16.358   2216499711.7
RECEIVE_FREQ_1 =   2022-12-06T04:18:26.294   2216499710.8
RECEIVE_FREQ_1 =   2022-12-06T04:18:36.317   2216499709.3
RECEIVE_FREQ_1 =   2022-12-06T04:18:46.339   2216499708.1
RECEIVE_FREQ_1 =   2022-12-06T04:18:56.362   2216499706.8
RECEIVE_FREQ_1 =   2022-12-06T04:19:06.298   2216499705.6
RECEIVE_FREQ_1 =   2022-12-06T04:19:16.320   2216499704.5
RECEIVE_FREQ_1 =   2022-12-06T04:19:26.342   2216499703.4
RECEIVE_FREQ_1 =   2022-12-06T04:19:36.365   2216499701.9
RECEIVE_FREQ_1 =   2022-12-06T04:19:46.301   2216499700.6
RECEIVE_FREQ_1 =   2022-12-06T04:19:56.323   2216499699.5
RECEIVE_FREQ_1 =   2022-12-06T04:20:06.346   2216499698.1
RECEIVE_FREQ_1 =   2022-12-06T04:20:16.368   2216499697.1
RECEIVE_FREQ_1 =   2022-12-06T04:20:26.304   2216499696.0
RECEIVE_FREQ_1 =   2022-12-06T04:20:36.326   2216499694.6
RECEIVE_FREQ_1 =   2022-12-06T04:20:46.349   2216499693.3
RECEIVE_FREQ_1 =   2022-12-06T04:20:56.285   2216499691.9
RECEIVE_FREQ_1 =   2022-12-06T04:21:06.307   2216499691.0
RECEIVE_FREQ_1 =   2022-12-06T04:21:16.330   2216499689.4
RECEIVE_FREQ_1 =   2022-12-06T04:21:26.352   2216499688.1
RECEIVE_FREQ_1 =   2022-12-06T04:21:36.374   2216499686.9
RECEIVE_FREQ_1 =   2022-12-06T04:21:46.310   2216499685.6
RECEIVE_FREQ_1 =   2022-12-06T04:21:56.333   2216499684.5
RECEIVE_FREQ_1 =   2022-12-06T04:22:06.355   2216499683.1
RECEIVE_FREQ_1 =   2022-12-06T04:22:16.291   2216499682.0
RECEIVE_FREQ_1 =   2022-12-06T04:22:26.314   2216499680.9
RECEIVE_FREQ_1 =   2022-12-06T04:22:36.336   2216499679.6
RECEIVE_FREQ_1 =   2022-12-06T04:22:46.358   2216499678.7
RECEIVE_FREQ_1 =   2022-12-06T04:22:56.294   2216499677.3
RECEIVE_FREQ_1 =   2022-12-06T04:23:06.317   2216499675.9
RECEIVE_FREQ_1 =   2022-12-06T04:23:16.339   2216499674.5
RECEIVE_FREQ_1 =   2022-12-06T04:23:26.362   2216499673.4
RECEIVE_FREQ_1 =   2022-12-06T04:23:36.298   2216499672.2
RECEIVE_FREQ_1 =   2022-12-06T04:23:46.320   2216499670.9
RECEIVE_FREQ_1 =   2022-12-06T04:23:56.342   2216499669.8
RECEIVE_FREQ_1 =   2022-12-06T04:24:06.365   2216499668.6
RECEIVE_FREQ_1 =   2022-12-06T04:24:16.301   2216499667.1
RECEIVE_FREQ_1 =   2022-12-06T04:24:26.323   2216499665.7
RECEIVE_FREQ_1 =   2022-12-06T04:24:36.346   2216499664.5
RECEIVE_FREQ_1 =   2022-12-06T04:24:46.368   2216499663.4
RECEIVE_FREQ_1 =   2022-12-06T04:24:56.304   2216499662.1
RECEIVE_FREQ_1 =   2022-12-06T04:25:06.326   2216499660.7
RECEIVE_FREQ_1 =   2022-12-06T04:25:16.349   2216499659.5
RECEIVE_FREQ_1 =   2022-12-06T04:25:26.285   2216499658.1
RECEIVE_FREQ_1 =   2022-12-06T04:25:36.307   2216499656.9
RECEIVE_FREQ_1 =   2022-12-06T04:25:46.330   2216499655.5
RECEIVE_FREQ_1 =   2022-12-06T04:25:56.352   2216499654.5
RECEIVE_FREQ_1 =   2022-12-06T04:26:06.374   2216499653.1
RECEIVE_FREQ_1 =   2022-12-06T04:26:16.310   2216499651.8
RECEIVE_FREQ_1 =   2022-12-06T04:26:26.333   2216499650.5
RECEIVE_FREQ_1 =   2022-12-06T04:26:36.355   2216499649.2
RECEIVE_FREQ_1 =   2022-12-06T04:26:46.291   2216499648.0
RECEIVE_FREQ_1 =   2022-12-06T04:26:56.314   2216499646.8
RECEIVE_FREQ_1 =   2022-12-06T04:27:06.336   2216499645.5
RECEIVE_FREQ_1 =   2022-12-06T04:27:16.358   2216499644.2
RECEIVE_FREQ_1 =   2022-12-06T04:27:26.294   2216499642.9
RECEIVE_FREQ_1 =   2022-12-06T04:27:36.317   2216499641.5
RECEIVE_FREQ_1 =   2022-12-06T04:27:46.339   2216499640.3
RECEIVE_FREQ_1 =   2022-12-06T04:27:56.362   2216499639.2
RECEIVE_FREQ_1 =   2022-12-06T04:28:06.298   2216499637.9
RECEIVE_FREQ_1 =   2022-12-06T04:28:16.320   2216499636.1
RECEIVE_FREQ_1 =   2022-12-06T04:28:26.342   2216499635.2
RECEIVE_FREQ_1 =   2022-12-06T04:28:36.365   2216499633.9
RECEIVE_FREQ_1 =   2022-12-06T04:28:46.301   2216499632.3
RECEIVE_FREQ_1 =   2022-12-06T04:28:56.323   2216499631.1
RECEIVE_FREQ_1 =   2022-12-06T04:29:06.346   2216499630.0
RECEIVE_FREQ_1 =   2022-12-06T04:29:16.368   2216499628.9
RECEIVE_FREQ_1 =   2022-12-06T04:29:26.304   2216499627.3
RECEIVE_FREQ_1 =   2022-12-06T04:29:36.326   2216499626.2
RECEIVE_FREQ_1 =   2022-12-06T04:29:46.349   2216499624.8
RECEIVE_FREQ_1 =   2022-12-06T04:29:56.371   2216499623.3
RECEIVE_FREQ_1 =   2022-12-06T04:30:06.307   2216499622.0
RECEIVE_FREQ_1 =   2022-12-06T04:30:16.330   2216499620.9
RECEIVE_FREQ_1 =   2022-12-06T04:30:26.352   2216499619.6
RECEIVE_FREQ_1 =   2022-12-06T04:30:36.374   2216499618.2
RECEIVE_FREQ_1 =   2022-12-06T04:30:46.310   2216499617.2
RECEIVE_FREQ_1 =   2022-12-06T04:30:56.333   2216499615.8
RECEIVE_FREQ_1 =   2022-12-06T04:31:06.355   2216499614.3
RECEIVE_FREQ_1 =   2022-12-06T04:31:16.291   2216499613.2
RECEIVE_FREQ_1 =   2022-12-06T04:31:26.314   2216499611.5
RECEIVE_FREQ_1 =   2022-12-06T04:31:36.336   2216499610.4
RECEIVE_FREQ_1 =   2022-12-06T04:31:46.358   2216499609.3
RECEIVE_FREQ_1 =   2022-12-06T04:31:56.294   2216499607.9
RECEIVE_FREQ_1 =   2022-12-06T04:32:06.317   2216499606.4
RECEIVE_FREQ_1 =   2022-12-06T04:32:16.339   2216499605.1
RECEIVE_FREQ_1 =   2022-12-06T04:32:26.362   2216499604.0
RECEIVE_FREQ_1 =   2022-12-06T04:32:36.384   2216499602.5
RECEIVE_FREQ_1 =   2022-12-06T04:32:46.320   2216499601.2
RECEIVE_FREQ_1 =   2022-12-06T04:32:56.342   2216499600.2
RECEIVE_FREQ_1 =   2022-12-06T04:33:06.365   2216499598.6
RECEIVE_FREQ_1 =   2022-12-06T04:33:16.387   2216499597.7
RECEIVE_FREQ_1 =   2022-12-06T04:33:26.323   2216499596.1
RECEIVE_FREQ_1 =   2022-12-06T04:33:36.346   2216499594.7
RECEIVE_FREQ_1 =   2022-12-06T04:33:46.368   2216499593.3
RECEIVE_FREQ_1 =   2022-12-06T04:33:56.304   2216499592.4
RECEIVE_FREQ_1 =   2022-12-06T04:34:06.326   2216499591.0
RECEIVE_FREQ_1 =   2022-12-06T04:34:16.349   2216499589.3
RECEIVE_FREQ_1 =   2022-12-06T04:34:26.371   2216499588.0
RECEIVE_FREQ_1 =   2022-12-06T04:34:36.307   2216499586.8
RECEIVE_FREQ_1 =   2022-12-06T04:34:46.330   2216499585.8
RECEIVE_FREQ_1 =   2022-12-06T04:34:56.352   2216499584.3
RECEIVE_FREQ_1 =   2022-12-06T04:35:06.374   2216499582.6
RECEIVE_FREQ_1 =   2022-12-06T04:35:16.310   2216499581.9
RECEIVE_FREQ_1 =   2022-12-06T04:35:26.333   2216499580.0
RECEIVE_FREQ_1 =   2022-12-06T04:35:36.355   2216499578.8
RECEIVE_FREQ_1 =   2022-12-06T04:35:46.378   2216499577.4
RECEIVE_FREQ_1 =   2022-12-06T04:35:56.314   2216499576.4
RECEIVE_FREQ_1 =   2022-12-06T04:36:06.336   2216499575.4
RECEIVE_FREQ_1 =   2022-12-06T04:36:16.358   2216499573.9
RECEIVE_FREQ_1 =   2022-12-06T04:36:26.294   2216499572.6
RECEIVE_FREQ_1 =   2022-12-06T04:36:36.317   2216499571.4
RECEIVE_FREQ_1 =   2022-12-06T04:36:46.339   2216499570.2
RECEIVE_FREQ_1 =   2022-12-06T04:36:56.362   2216499568.7
RECEIVE_FREQ_1 =   2022-12-06T04:37:06.298   2216499567.2
RECEIVE_FREQ_1 =   2022-12-06T04:37:16.320   2216499566.3
RECEIVE_FREQ_1 =   2022-12-06T04:37:26.342   2216499565.1
RECEIVE_FREQ_1 =   2022-12-06T04:37:36.365   2216499564.0
RECEIVE_FREQ_1 =   2022-12-06T04:37:46.301   2216499562.5
RECEIVE_FREQ_1 =   2022-12-06T04:37:56.323   2216499561.6
RECEIVE_FREQ_1 =   2022-12-06T04:38:06.346   2216499560.2
RECEIVE_FREQ_1 =   2022-12-06T04:38:16.368   2216499558.6
RECEIVE_FREQ_1 =   2022-12-06T04:38:26.390   2216499557.7
RECEIVE_FREQ_1 =   2022-12-06T04:38:36.326   2216499556.1
RECEIVE_FREQ_1 =   2022-12-06T04:38:46.349   2216499555.4
RECEIVE_FREQ_1 =   2022-12-06T04:38:56.371   2216499553.9
RECEIVE_FREQ_1 =   2022-12-06T04:39:06.307   2216499552.5
RECEIVE_FREQ_1 =   2022-12-06T04:39:16.330   2216499551.4
RECEIVE_FREQ_1 =   2022-12-06T04:39:26.352   2216499549.6
RECEIVE_FREQ_1 =   2022-12-06T04:39:36.288   2216499548.7
RECEIVE_FREQ_1 =   2022-12-06T04:39:46.310   2216499547.4
RECEIVE_FREQ_1 =   2022-12-06T04:39:56.333   2216499546.3
RECEIVE_FREQ_1 =   2022-12-06T04:40:06.355   2216499545.0
RECEIVE_FREQ_1 =   2022-12-06T04:40:16.291   2216499543.8
RECEIVE_FREQ_1 =   2022-12-06T04:40:26.314   2216499542.2
RECEIVE_FREQ_1 =   2022-12-06T04:40:36.336   2216499540.9
RECEIVE_FREQ_1 =   2022-12-06T04:40:46.358   2216499539.7
RECEIVE_FREQ_1 =   2022-12-06T04:40:56.294   2216499538.7
RECEIVE_FREQ_1 =   2022-12-06T04:41:06.317   2216499537.4
RECEIVE_FREQ_1 =   2022-12-06T04:41:16.339   2216499535.9
RECEIVE_FREQ_1 =   2022-12-06T04:41:26.362   2216499534.7
RECEIVE_FREQ_1 =   2022-12-06T04:41:36.298   2216499533.6
RECEIVE_FREQ_1 =   2022-12-06T04:41:46.320   2216499532.2
RECEIVE_FREQ_1 =   2022-12-06T04:41:56.342   2216499530.6
RECEIVE_FREQ_1 =   2022-12-06T04:42:06.365   2216499529.5
RECEIVE_FREQ_1 =   2022-12-06T04:42:16.301   2216499528.1
RECEIVE_FREQ_1 =   2022-12-06T04:42:26.323   2216499527.1
RECEIVE_FREQ_1 =   2022-12-06T04:42:36.346   2216499525.5
RECEIVE_FREQ_1 =   2022-12-06T04:42:46.368   2216499524.4
RECEIVE_FREQ_1 =   2022-12-06T04:42:56.304   2216499523.5
RECEIVE_FREQ_1 =   2022-12-06T04:43:06.326   2216499522.2
RECEIVE_FREQ_1 =   2022-12-06T04:43:16.349   2216499520.9
RECEIVE_FREQ_1 =   2022-12-06T04:43:26.371   2216499519.5
RECEIVE_FREQ_1 =   2022-12-06T04:43:36.307   2216499518.0
RECEIVE_FREQ_1 =   2022-12-06T04:43:46.330   2216499516.9
RECEIVE_FREQ_1 =   2022-12-06T04:43:56.352   2216499515.6
RECEIVE_FREQ_1 =   2022-12-06T04:44:06.374   2216499514.1
RECEIVE_FREQ_1 =   2022-12-06T04:44:16.310   2216499513.1
RECEIVE_FREQ_1 =   2022-12-06T04:44:26.333   2216499511.8
RECEIVE_FREQ_1 =   2022-12-06T04:44:36.355   2216499510.5
RECEIVE_FREQ_1 =   2022-12-06T04:44:46.291   2216499509.1
RECEIVE_FREQ_1 =   2022-12-06T04:44:56.314   2216499507.8
RECEIVE_FREQ_1 =   2022-12-06T04:45:06.336   2216499506.4
RECEIVE_FREQ_1 =   2022-12-06T04:45:16.358   2216499505.2
RECEIVE_FREQ_1 =   2022-12-06T04:45:26.294   2216499504.0
