data/tdm/2022-11-19Z_2022-156A.tdm

CCSDS_TDM_VERS = 2.0
COMMENT TDM ARTEMIS 1 Doppler data by Scott Tilley for 2022-11-19 UTC
COMMENT Signal not demodulated, to low of SNR, centre carrier integrated in 10s by 0.1Hz bin and extracted for peak value.
CREATION_DATE = 2022-11-19Z
ORIGINATOR = SCOTT TILLEY

META_START
COMMENT 
COMMENT 
SYSTEM TIME = UTC
PARTICIPANT_1 = COSPAR 8049
PARTICIPANT_2 = 2022-156A
MODE = SEQUENTIAL
PATH = 2,1
INTEGRATION_INTERVAL = 10
INTEGRATION_REF = MIDDLE
FREQ_OFFSET = 0
TRANSMIT_DELAY_1 = 0
RECEIVE_DELAY_1 = 0
DATA_QUALITY = RAW
META_STOP

DATA_START
RECEIVE_FREQ_1 =   2022-11-19T14:33:00.518   2216497880.015
RECEIVE_FREQ_1 =   2022-11-19T14:33:10.541   2216497879.315
RECEIVE_FREQ_1 =   2022-11-19T14:33:20.477   2216497878.215
RECEIVE_FREQ_1 =   2022-11-19T14:33:30.499   2216497878.1
RECEIVE_FREQ_1 =   2022-11-19T14:33:40.522   2216497877.1
RECEIVE_FREQ_1 =   2022-11-19T14:33:50.544   2216497875.915
RECEIVE_FREQ_1 =   2022-11-19T14:34:00.480   2216497875.2
RECEIVE_FREQ_1 =   2022-11-19T14:34:10.502   2216497874.515
RECEIVE_FREQ_1 =   2022-11-19T14:34:20.525   2216497873.815
RECEIVE_FREQ_1 =   2022-11-19T14:34:30.547   2216497872.715
RECEIVE_FREQ_1 =   2022-11-19T14:34:40.483   2216497872.115
RECEIVE_FREQ_1 =   2022-11-19T14:34:50.506   2216497871.0
RECEIVE_FREQ_1 =   2022-11-19T14:35:00.528   2216497870.5
RECEIVE_FREQ_1 =   2022-11-19T14:35:10.550   2216497869.515
RECEIVE_FREQ_1 =   2022-11-19T14:35:20.486   2216497868.715
RECEIVE_FREQ_1 =   2022-11-19T14:35:30.509   2216497867.815
RECEIVE_FREQ_1 =   2022-11-19T14:35:40.531   2216497867.015
RECEIVE_FREQ_1 =   2022-11-19T14:35:50.467   2216497866.3
RECEIVE_FREQ_1 =   2022-11-19T14:36:00.490   2216497865.115
RECEIVE_FREQ_1 =   2022-11-19T14:36:10.512   2216497864.8
RECEIVE_FREQ_1 =   2022-11-19T14:36:20.534   2216497864.0
RECEIVE_FREQ_1 =   2022-11-19T14:36:30.470   2216497863.0
RECEIVE_FREQ_1 =   2022-11-19T14:36:40.493   2216497861.815
RECEIVE_FREQ_1 =   2022-11-19T14:36:50.515   2216497861.115
RECEIVE_FREQ_1 =   2022-11-19T14:37:00.538   2216497860.315
RECEIVE_FREQ_1 =   2022-11-19T14:37:10.474   2216497859.6
RECEIVE_FREQ_1 =   2022-11-19T14:37:20.496   2216497858.515
RECEIVE_FREQ_1 =   2022-11-19T14:37:30.518   2216497857.515
RECEIVE_FREQ_1 =   2022-11-19T14:37:40.541   2216497857.215
RECEIVE_FREQ_1 =   2022-11-19T14:37:50.477   2216497856.215
RECEIVE_FREQ_1 =   2022-11-19T14:38:00.499   2216497855.3
RECEIVE_FREQ_1 =   2022-11-19T14:38:10.522   2216497854.3
RECEIVE_FREQ_1 =   2022-11-19T14:38:20.544   2216497853.4
RECEIVE_FREQ_1 =   2022-11-19T14:38:30.480   2216497852.515
RECEIVE_FREQ_1 =   2022-11-19T14:38:40.502   2216497851.715
RECEIVE_FREQ_1 =   2022-11-19T14:38:50.525   2216497850.9
RECEIVE_FREQ_1 =   2022-11-19T14:39:00.547   2216497849.915
RECEIVE_FREQ_1 =   2022-11-19T14:39:10.483   2216497849.015
RECEIVE_FREQ_1 =   2022-11-19T14:39:20.506   2216497848.515
RECEIVE_FREQ_1 =   2022-11-19T14:39:30.528   2216497847.215
RECEIVE_FREQ_1 =   2022-11-19T14:39:40.550   2216497846.515
RECEIVE_FREQ_1 =   2022-11-19T14:39:50.486   2216497845.7
RECEIVE_FREQ_1 =   2022-11-19T14:40:00.509   2216497844.715
RECEIVE_FREQ_1 =   2022-11-19T14:40:10.531   2216497843.8
RECEIVE_FREQ_1 =   2022-11-19T14:40:20.554   2216497843.1
RECEIVE_FREQ_1 =   2022-11-19T14:40:30.490   2216497842.2
RECEIVE_FREQ_1 =   2022-11-19T14:40:40.512   2216497841.515
RECEIVE_FREQ_1 =   2022-11-19T14:40:50.534   2216497840.415
RECEIVE_FREQ_1 =   2022-11-19T14:41:00.470   2216497839.815
RECEIVE_FREQ_1 =   2022-11-19T14:41:10.493   2216497839.215
RECEIVE_FREQ_1 =   2022-11-19T14:41:20.515   2216497838.415
RECEIVE_FREQ_1 =   2022-11-19T14:41:30.538   2216497837.815
RECEIVE_FREQ_1 =   2022-11-19T14:41:40.474   2216497836.8
RECEIVE_FREQ_1 =   2022-11-19T14:41:50.496   2216497836.015
RECEIVE_FREQ_1 =   2022-11-19T14:42:00.518   2216497835.215
RECEIVE_FREQ_1 =   2022-11-19T14:42:10.541   2216497834.415
RECEIVE_FREQ_1 =   2022-11-19T14:42:20.477   2216497833.715
RECEIVE_FREQ_1 =   2022-11-19T14:42:30.499   2216497832.915
RECEIVE_FREQ_1 =   2022-11-19T14:42:40.522   2216497832.6
RECEIVE_FREQ_1 =   2022-11-19T14:42:50.544   2216497831.4
RECEIVE_FREQ_1 =   2022-11-19T14:43:00.480   2216497830.715
RECEIVE_FREQ_1 =   2022-11-19T14:43:10.502   2216497829.615
RECEIVE_FREQ_1 =   2022-11-19T14:43:20.525   2216497828.8
RECEIVE_FREQ_1 =   2022-11-19T14:43:30.547   2216497828.215
RECEIVE_FREQ_1 =   2022-11-19T14:43:40.483   2216497827.7
RECEIVE_FREQ_1 =   2022-11-19T14:43:50.506   2216497826.515
RECEIVE_FREQ_1 =   2022-11-19T14:44:00.528   2216497825.715
RECEIVE_FREQ_1 =   2022-11-19T14:44:10.550   2216497824.815
RECEIVE_FREQ_1 =   2022-11-19T14:44:20.486   2216497824.215
RECEIVE_FREQ_1 =   2022-11-19T14:44:30.509   2216497823.2
RECEIVE_FREQ_1 =   2022-11-19T14:44:40.531   2216497822.715
RECEIVE_FREQ_1 =   2022-11-19T14:44:50.554   2216497821.815
RECEIVE_FREQ_1 =   2022-11-19T14:45:00.490   2216497820.815
RECEIVE_FREQ_1 =   2022-11-19T14:45:10.512   2216497820.115
RECEIVE_FREQ_1 =   2022-11-19T14:45:20.534   2216497819.415
RECEIVE_FREQ_1 =   2022-11-19T14:45:30.470   2216497818.4
RECEIVE_FREQ_1 =   2022-11-19T14:45:40.493   2216497817.615
RECEIVE_FREQ_1 =   2022-11-19T14:45:50.515   2216497817.1
RECEIVE_FREQ_1 =   2022-11-19T14:46:00.538   2216497815.915
RECEIVE_FREQ_1 =   2022-11-19T14:46:10.474   2216497815.4
RECEIVE_FREQ_1 =   2022-11-19T14:46:20.496   2216497814.4
RECEIVE_FREQ_1 =   2022-11-19T14:46:30.518   2216497814.0
RECEIVE_FREQ_1 =   2022-11-19T14:46:40.541   2216497812.815
RECEIVE_FREQ_1 =   2022-11-19T14:46:50.477   2216497811.7
RECEIVE_FREQ_1 =   2022-11-19T14:47:00.499   2216497811.315
RECEIVE_FREQ_1 =   2022-11-19T14:47:10.522   2216497810.015
RECEIVE_FREQ_1 =   2022-11-19T14:47:20.544   2216497809.6
RECEIVE_FREQ_1 =   2022-11-19T14:47:30.480   2216497808.7
RECEIVE_FREQ_1 =   2022-11-19T14:47:40.502   2216497807.715
RECEIVE_FREQ_1 =   2022-11-19T14:47:50.525   2216497807.215
RECEIVE_FREQ_1 =   2022-11-19T14:48:00.547   2216497806.3
RECEIVE_FREQ_1 =   2022-11-19T14:48:10.483   2216497805.5
RECEIVE_FREQ_1 =   2022-11-19T14:48:20.506   2216497804.315
RECEIVE_FREQ_1 =   2022-11-19T14:48:30.528   2216497803.6
RECEIVE_FREQ_1 =   2022-11-19T14:48:40.550   2216497802.815
RECEIVE_FREQ_1 =   2022-11-19T14:48:50.486   2216497801.8
RECEIVE_FREQ_1 =   2022-11-19T14:49:00.509   2216497801.015
RECEIVE_FREQ_1 =   2022-11-19T14:49:10.531   2216497800.5
RECEIVE_FREQ_1 =   2022-11-19T14:49:20.554   2216497799.415
RECEIVE_FREQ_1 =   2022-11-19T14:49:30.490   2216497798.515
RECEIVE_FREQ_1 =   2022-11-19T14:49:40.512   2216497797.615
RECEIVE_FREQ_1 =   2022-11-19T14:49:50.534   2216497796.815
RECEIVE_FREQ_1 =   2022-11-19T14:50:00.557   2216497795.815
RECEIVE_FREQ_1 =   2022-11-19T14:50:10.493   2216497795.015
RECEIVE_FREQ_1 =   2022-11-19T14:50:20.515   2216497794.3
RECEIVE_FREQ_1 =   2022-11-19T14:50:30.538   2216497793.4
RECEIVE_FREQ_1 =   2022-11-19T14:50:40.474   2216497792.415
RECEIVE_FREQ_1 =   2022-11-19T14:50:50.496   2216497791.415
RECEIVE_FREQ_1 =   2022-11-19T14:51:00.518   2216497790.615
RECEIVE_FREQ_1 =   2022-11-19T14:51:10.541   2216497789.815
RECEIVE_FREQ_1 =   2022-11-19T14:51:20.477   2216497788.9
RECEIVE_FREQ_1 =   2022-11-19T14:51:30.499   2216497788.215
RECEIVE_FREQ_1 =   2022-11-19T14:51:40.522   2216497787.3
RECEIVE_FREQ_1 =   2022-11-19T14:51:50.544   2216497786.315
RECEIVE_FREQ_1 =   2022-11-19T14:52:00.480   2216497785.515
RECEIVE_FREQ_1 =   2022-11-19T14:52:10.502   2216497784.2
RECEIVE_FREQ_1 =   2022-11-19T14:52:20.525   2216497783.715
RECEIVE_FREQ_1 =   2022-11-19T14:52:30.547   2216497782.8
RECEIVE_FREQ_1 =   2022-11-19T14:52:40.483   2216497781.615
RECEIVE_FREQ_1 =   2022-11-19T14:52:50.506   2216497781.015
RECEIVE_FREQ_1 =   2022-11-19T14:53:00.528   2216497780.0
RECEIVE_FREQ_1 =   2022-11-19T14:53:10.550   2216497779.215
RECEIVE_FREQ_1 =   2022-11-19T14:53:20.486   2216497778.115
RECEIVE_FREQ_1 =   2022-11-19T14:53:30.509   2216497777.3
RECEIVE_FREQ_1 =   2022-11-19T14:53:40.531   2216497776.615
RECEIVE_FREQ_1 =   2022-11-19T14:53:50.554   2216497775.615
RECEIVE_FREQ_1 =   2022-11-19T14:54:00.490   2216497774.5
RECEIVE_FREQ_1 =   2022-11-19T14:54:10.512   2216497773.715
RECEIVE_FREQ_1 =   2022-11-19T14:54:20.534   2216497772.9
RECEIVE_FREQ_1 =   2022-11-19T14:54:30.557   2216497772.115
RECEIVE_FREQ_1 =   2022-11-19T14:54:40.493   2216497771.015
RECEIVE_FREQ_1 =   2022-11-19T14:54:50.515   2216497770.015
RECEIVE_FREQ_1 =   2022-11-19T14:55:00.538   2216497768.915
RECEIVE_FREQ_1 =   2022-11-19T14:55:10.474   2216497768.315
RECEIVE_FREQ_1 =   2022-11-19T14:55:20.496   2216497767.415
RECEIVE_FREQ_1 =   2022-11-19T14:55:30.518   2216497766.415
RECEIVE_FREQ_1 =   2022-11-19T14:55:40.541   2216497765.415
RECEIVE_FREQ_1 =   2022-11-19T14:55:50.477   2216497764.615
RECEIVE_FREQ_1 =   2022-11-19T14:56:00.499   2216497763.5
RECEIVE_FREQ_1 =   2022-11-19T14:56:10.522   2216497762.815
RECEIVE_FREQ_1 =   2022-11-19T14:56:20.544   2216497761.815
RECEIVE_FREQ_1 =   2022-11-19T14:56:30.480   2216497760.515
RECEIVE_FREQ_1 =   2022-11-19T14:56:40.502   2216497760.1
RECEIVE_FREQ_1 =   2022-11-19T14:56:50.525   2216497758.815
RECEIVE_FREQ_1 =   2022-11-19T14:57:00.547   2216497757.815
RECEIVE_FREQ_1 =   2022-11-19T14:57:10.483   2216497756.9
RECEIVE_FREQ_1 =   2022-11-19T14:57:20.506   2216497755.915
RECEIVE_FREQ_1 =   2022-11-19T14:57:30.528   2216497755.1
RECEIVE_FREQ_1 =   2022-11-19T14:57:40.550   2216497754.1
RECEIVE_FREQ_1 =   2022-11-19T14:57:50.486   2216497753.2
RECEIVE_FREQ_1 =   2022-11-19T14:58:00.509   2216497752.415
RECEIVE_FREQ_1 =   2022-11-19T14:58:10.531   2216497751.315
RECEIVE_FREQ_1 =   2022-11-19T14:58:20.554   2216497750.2
RECEIVE_FREQ_1 =   2022-11-19T14:58:30.490   2216497749.515
RECEIVE_FREQ_1 =   2022-11-19T14:58:40.512   2216497748.515
RECEIVE_FREQ_1 =   2022-11-19T14:58:50.534   2216497747.715
RECEIVE_FREQ_1 =   2022-11-19T14:59:00.557   2216497746.3
RECEIVE_FREQ_1 =   2022-11-19T14:59:10.493   2216497745.6
RECEIVE_FREQ_1 =   2022-11-19T14:59:20.515   2216497745.0
RECEIVE_FREQ_1 =   2022-11-19T14:59:30.538   2216497743.915
RECEIVE_FREQ_1 =   2022-11-19T14:59:40.474   2216497742.715
RECEIVE_FREQ_1 =   2022-11-19T14:59:50.496   2216497741.815
RECEIVE_FREQ_1 =   2022-11-19T15:00:00.518   2216497740.915
RECEIVE_FREQ_1 =   2022-11-19T15:00:10.541   2216497739.615
RECEIVE_FREQ_1 =   2022-11-19T15:00:20.477   2216497738.9
RECEIVE_FREQ_1 =   2022-11-19T15:00:30.499   2216497737.815
RECEIVE_FREQ_1 =   2022-11-19T15:00:40.522   2216497736.8
RECEIVE_FREQ_1 =   2022-11-19T15:00:50.544   2216497735.715
RECEIVE_FREQ_1 =   2022-11-19T15:01:00.480   2216497734.715
RECEIVE_FREQ_1 =   2022-11-19T15:01:10.502   2216497733.9
RECEIVE_FREQ_1 =   2022-11-19T15:01:20.525   2216497733.1
RECEIVE_FREQ_1 =   2022-11-19T15:01:30.547   2216497731.915
RECEIVE_FREQ_1 =   2022-11-19T15:01:40.483   2216497731.015
RECEIVE_FREQ_1 =   2022-11-19T15:01:50.506   2216497730.1
RECEIVE_FREQ_1 =   2022-11-19T15:02:00.528   2216497728.915
RECEIVE_FREQ_1 =   2022-11-19T15:02:10.550   2216497728.215
RECEIVE_FREQ_1 =   2022-11-19T15:02:20.486   2216497727.115
RECEIVE_FREQ_1 =   2022-11-19T15:02:30.509   2216497725.915
RECEIVE_FREQ_1 =   2022-11-19T15:02:40.531   2216497725.315
RECEIVE_FREQ_1 =   2022-11-19T15:02:50.554   2216497724.4
RECEIVE_FREQ_1 =   2022-11-19T15:03:00.490   2216497723.3
RECEIVE_FREQ_1 =   2022-11-19T15:03:10.512   2216497722.6
RECEIVE_FREQ_1 =   2022-11-19T15:03:20.534   2216497721.515
RECEIVE_FREQ_1 =   2022-11-19T15:03:30.557   2216497720.615
RECEIVE_FREQ_1 =   2022-11-19T15:03:40.493   2216497720.1
RECEIVE_FREQ_1 =   2022-11-19T15:03:50.515   2216497718.815
RECEIVE_FREQ_1 =   2022-11-19T15:04:00.538   2216497718.1
RECEIVE_FREQ_1 =   2022-11-19T15:04:10.560   2216497717.3
RECEIVE_FREQ_1 =   2022-11-19T15:04:20.496   2216497716.015
RECEIVE_FREQ_1 =   2022-11-19T15:04:30.518   2216497715.515
RECEIVE_FREQ_1 =   2022-11-19T15:04:40.541   2216497714.5
RECEIVE_FREQ_1 =   2022-11-19T15:04:50.477   2216497713.615
RECEIVE_FREQ_1 =   2022-11-19T15:05:00.499   2216497712.515
RECEIVE_FREQ_1 =   2022-11-19T15:05:10.522   2216497711.815
RECEIVE_FREQ_1 =   2022-11-19T15:05:20.544   2216497710.915
RECEIVE_FREQ_1 =   2022-11-19T15:05:30.480   2216497710.115
RECEIVE_FREQ_1 =   2022-11-19T15:05:40.502   2216497709.115
RECEIVE_FREQ_1 =   2022-11-19T15:05:50.525   2216497708.1
RECEIVE_FREQ_1 =   2022-11-19T15:06:00.547   2216497707.315
RECEIVE_FREQ_1 =   2022-11-19T15:06:10.483   2216497706.315
RECEIVE_FREQ_1 =   2022-11-19T15:06:20.506   2216497705.315
RECEIVE_FREQ_1 =   2022-11-19T15:06:30.528   2216497704.7
RECEIVE_FREQ_1 =   2022-11-19T15:06:40.550   2216497703.415
RECEIVE_FREQ_1 =   2022-11-19T15:06:50.486   2216497702.9
RECEIVE_FREQ_1 =   2022-11-19T15:07:00.509   2216497701.815
RECEIVE_FREQ_1 =   2022-11-19T15:07:10.531   2216497700.715
RECEIVE_FREQ_1 =   2022-11-19T15:07:20.554   2216497700.015
RECEIVE_FREQ_1 =   2022-11-19T15:07:30.490   2216497699.015
RECEIVE_FREQ_1 =   2022-11-19T15:07:40.512   2216497698.2
RECEIVE_FREQ_1 =   2022-11-19T15:07:50.534   2216497697.215
RECEIVE_FREQ_1 =   2022-11-19T15:08:00.470   2216497696.3
RECEIVE_FREQ_1 =   2022-11-19T15:08:10.493   2216497695.515
RECEIVE_FREQ_1 =   2022-11-19T15:08:20.515   2216497694.215
RECEIVE_FREQ_1 =   2022-11-19T15:08:30.538   2216497693.615
RECEIVE_FREQ_1 =   2022-11-19T15:08:40.474   2216497692.415
RECEIVE_FREQ_1 =   2022-11-19T15:08:50.496   2216497691.6
RECEIVE_FREQ_1 =   2022-11-19T15:09:00.518   2216497690.5
RECEIVE_FREQ_1 =   2022-11-19T15:09:10.541   2216497689.6
RECEIVE_FREQ_1 =   2022-11-19T15:09:20.563   2216497688.715
RECEIVE_FREQ_1 =   2022-11-19T15:09:30.499   2216497687.615
RECEIVE_FREQ_1 =   2022-11-19T15:09:40.522   2216497686.815
RECEIVE_FREQ_1 =   2022-11-19T15:09:50.544   2216497685.7
RECEIVE_FREQ_1 =   2022-11-19T15:10:00.480   2216497685.015
RECEIVE_FREQ_1 =   2022-11-19T15:10:10.502   2216497683.715
RECEIVE_FREQ_1 =   2022-11-19T15:10:20.525   2216497682.915
RECEIVE_FREQ_1 =   2022-11-19T15:10:30.547   2216497682.2
RECEIVE_FREQ_1 =   2022-11-19T15:10:40.483   2216497681.0
RECEIVE_FREQ_1 =   2022-11-19T15:10:50.506   2216497680.2
RECEIVE_FREQ_1 =   2022-11-19T15:11:00.528   2216497678.815
RECEIVE_FREQ_1 =   2022-11-19T15:11:10.550   2216497678.415
RECEIVE_FREQ_1 =   2022-11-19T15:11:20.486   2216497677.315
RECEIVE_FREQ_1 =   2022-11-19T15:11:30.509   2216497676.1
RECEIVE_FREQ_1 =   2022-11-19T15:11:40.531   2216497675.115
RECEIVE_FREQ_1 =   2022-11-19T15:11:50.554   2216497674.215
RECEIVE_FREQ_1 =   2022-11-19T15:12:00.490   2216497673.215
RECEIVE_FREQ_1 =   2022-11-19T15:12:10.512   2216497672.315
RECEIVE_FREQ_1 =   2022-11-19T15:12:20.534   2216497671.3
RECEIVE_FREQ_1 =   2022-11-19T15:12:30.557   2216497670.3
RECEIVE_FREQ_1 =   2022-11-19T15:12:40.493   2216497669.415
RECEIVE_FREQ_1 =   2022-11-19T15:12:50.515   2216497668.7
RECEIVE_FREQ_1 =   2022-11-19T15:13:00.538   2216497667.215
RECEIVE_FREQ_1 =   2022-11-19T15:13:10.560   2216497666.215
RECEIVE_FREQ_1 =   2022-11-19T15:13:20.496   2216497665.615
RECEIVE_FREQ_1 =   2022-11-19T15:13:30.518   2216497664.515
RECEIVE_FREQ_1 =   2022-11-19T15:13:40.541   2216497663.615
RECEIVE_FREQ_1 =   2022-11-19T15:13:50.477   2216497662.515
RECEIVE_FREQ_1 =   2022-11-19T15:14:00.499   2216497661.9
RECEIVE_FREQ_1 =   2022-11-19T15:14:10.522   2216497660.7
RECEIVE_FREQ_1 =   2022-11-19T15:14:20.544   2216497659.6
RECEIVE_FREQ_1 =   2022-11-19T15:14:30.480   2216497658.715
RECEIVE_FREQ_1 =   2022-11-19T15:14:40.502   2216497657.8
RECEIVE_FREQ_1 =   2022-11-19T15:14:50.525   2216497656.5
RECEIVE_FREQ_1 =   2022-11-19T15:15:00.547   2216497655.615
RECEIVE_FREQ_1 =   2022-11-19T15:15:10.483   2216497654.715
RECEIVE_FREQ_1 =   2022-11-19T15:15:20.506   2216497653.7
RECEIVE_FREQ_1 =   2022-11-19T15:15:30.528   2216497652.7
RECEIVE_FREQ_1 =   2022-11-19T15:15:40.550   2216497651.815
RECEIVE_FREQ_1 =   2022-11-19T15:15:50.486   2216497650.415
RECEIVE_FREQ_1 =   2022-11-19T15:16:00.509   2216497649.715
RECEIVE_FREQ_1 =   2022-11-19T15:16:10.531   2216497648.515
RECEIVE_FREQ_1 =   2022-11-19T15:16:20.554   2216497647.515
RECEIVE_FREQ_1 =   2022-11-19T15:16:30.490   2216497646.615
RECEIVE_FREQ_1 =   2022-11-19T15:16:40.512   2216497645.315
RECEIVE_FREQ_1 =   2022-11-19T15:16:50.534   2216497644.115
RECEIVE_FREQ_1 =   2022-11-19T15:17:00.557   2216497643.415
RECEIVE_FREQ_1 =   2022-11-19T15:17:10.493   2216497642.315
RECEIVE_FREQ_1 =   2022-11-19T15:17:20.515   2216497641.615
RECEIVE_FREQ_1 =   2022-11-19T15:17:30.538   2216497640.415
RECEIVE_FREQ_1 =   2022-11-19T15:17:40.474   2216497639.4
RECEIVE_FREQ_1 =   2022-11-19T15:17:50.496   2216497638.315
RECEIVE_FREQ_1 =   2022-11-19T15:18:00.518   2216497637.4
RECEIVE_FREQ_1 =   2022-11-19T15:18:10.541   2216497636.415
RECEIVE_FREQ_1 =   2022-11-19T15:18:20.477   2216497635.215
RECEIVE_FREQ_1 =   2022-11-19T15:18:30.499   2216497634.3
RECEIVE_FREQ_1 =   2022-11-19T15:18:40.522   2216497633.015
RECEIVE_FREQ_1 =   2022-11-19T15:18:50.544   2216497632.215
RECEIVE_FREQ_1 =   2022-11-19T15:19:00.566   2216497631.015
RECEIVE_FREQ_1 =   2022-11-19T15:19:10.502   2216497629.915
RECEIVE_FREQ_1 =   2022-11-19T15:19:20.525   2216497628.815
RECEIVE_FREQ_1 =   2022-11-19T15:19:30.547   2216497628.1
RECEIVE_FREQ_1 =   2022-11-19T15:19:40.483   2216497627.3
RECEIVE_FREQ_1 =   2022-11-19T15:19:50.506   2216497626.1
RECEIVE_FREQ_1 =   2022-11-19T15:20:00.528   2216497624.9
RECEIVE_FREQ_1 =   2022-11-19T15:20:10.550   2216497623.815
RECEIVE_FREQ_1 =   2022-11-19T15:20:20.486   2216497622.7
RECEIVE_FREQ_1 =   2022-11-19T15:20:30.509   2216497621.815
RECEIVE_FREQ_1 =   2022-11-19T15:20:40.531   2216497620.515
RECEIVE_FREQ_1 =   2022-11-19T15:20:50.554   2216497619.815
RECEIVE_FREQ_1 =   2022-11-19T15:21:00.490   2216497618.715
RECEIVE_FREQ_1 =   2022-11-19T15:21:10.512   2216497617.6
RECEIVE_FREQ_1 =   2022-11-19T15:21:20.534   2216497616.9
RECEIVE_FREQ_1 =   2022-11-19T15:21:30.470   2216497615.5
RECEIVE_FREQ_1 =   2022-11-19T15:21:40.493   2216497614.2
RECEIVE_FREQ_1 =   2022-11-19T15:21:50.515   2216497613.2
RECEIVE_FREQ_1 =   2022-11-19T15:22:00.538   2216497612.6
RECEIVE_FREQ_1 =   2022-11-19T15:22:10.474   2216497611.315
RECEIVE_FREQ_1 =   2022-11-19T15:22:20.496   2216497609.915
RECEIVE_FREQ_1 =   2022-11-19T15:22:30.518   2216497608.615
RECEIVE_FREQ_1 =   2022-11-19T15:22:40.541   2216497608.1
RECEIVE_FREQ_1 =   2022-11-19T15:22:50.477   2216497606.915
RECEIVE_FREQ_1 =   2022-11-19T15:23:00.499   2216497605.5
RECEIVE_FREQ_1 =   2022-11-19T15:23:10.522   2216497604.7
RECEIVE_FREQ_1 =   2022-11-19T15:23:20.544   2216497603.615
RECEIVE_FREQ_1 =   2022-11-19T15:23:30.480   2216497602.515
RECEIVE_FREQ_1 =   2022-11-19T15:23:40.502   2216497601.615
RECEIVE_FREQ_1 =   2022-11-19T15:23:50.525   2216497600.215
RECEIVE_FREQ_1 =   2022-11-19T15:24:00.547   2216497599.615
RECEIVE_FREQ_1 =   2022-11-19T15:24:10.483   2216497598.0
RECEIVE_FREQ_1 =   2022-11-19T15:24:20.506   2216497597.215
RECEIVE_FREQ_1 =   2022-11-19T15:24:30.528   2216497595.9
RECEIVE_FREQ_1 =   2022-11-19T15:24:40.550   2216497594.8
RECEIVE_FREQ_1 =   2022-11-19T15:24:50.486   2216497594.015
RECEIVE_FREQ_1 =   2022-11-19T15:25:00.509   2216497592.6
RECEIVE_FREQ_1 =   2022-11-19T15:25:10.531   2216497591.8
RECEIVE_FREQ_1 =   2022-11-19T15:25:20.467   2216497590.515
RECEIVE_FREQ_1 =   2022-11-19T15:25:30.490   2216497589.5
RECEIVE_FREQ_1 =   2022-11-19T15:25:40.512   2216497588.115
RECEIVE_FREQ_1 =   2022-11-19T15:25:50.534   2216497587.115
RECEIVE_FREQ_1 =   2022-11-19T15:26:00.470   2216497586.115
RECEIVE_FREQ_1 =   2022-11-19T15:26:10.493   2216497585.215
RECEIVE_FREQ_1 =   2022-11-19T15:26:20.515   2216497584.215
RECEIVE_FREQ_1 =   2022-11-19T15:26:30.538   2216497582.915
RECEIVE_FREQ_1 =   2022-11-19T15:26:40.474   2216497582.3
RECEIVE_FREQ_1 =   2022-11-19T15:26:50.496   2216497580.915
RECEIVE_FREQ_1 =   2022-11-19T15:27:00.518   2216497580.4
RECEIVE_FREQ_1 =   2022-11-19T15:27:10.541   2216497579.115
RECEIVE_FREQ_1 =   2022-11-19T15:27:20.477   2216497578.3
RECEIVE_FREQ_1 =   2022-11-19T15:27:30.499   2216497577.4
RECEIVE_FREQ_1 =   2022-11-19T15:27:40.522   2216497576.015
RECEIVE_FREQ_1 =   2022-11-19T15:27:50.544   2216497575.115
RECEIVE_FREQ_1 =   2022-11-19T15:28:00.480   2216497573.915
RECEIVE_FREQ_1 =   2022-11-19T15:28:10.502   2216497573.015
RECEIVE_FREQ_1 =   2022-11-19T15:28:20.525   2216497571.815
RECEIVE_FREQ_1 =   2022-11-19T15:28:30.547   2216497571.315
RECEIVE_FREQ_1 =   2022-11-19T15:28:40.483   2216497570.215
RECEIVE_FREQ_1 =   2022-11-19T15:28:50.506   2216497568.915
RECEIVE_FREQ_1 =   2022-11-19T15:29:00.528   2216497568.015
RECEIVE_FREQ_1 =   2022-11-19T15:29:10.550   2216497567.115
RECEIVE_FREQ_1 =   2022-11-19T15:29:20.486   2216497565.915
RECEIVE_FREQ_1 =   2022-11-19T15:29:30.509   2216497565.015
RECEIVE_FREQ_1 =   2022-11-19T15:29:40.531   2216497564.015
RECEIVE_FREQ_1 =   2022-11-19T15:29:50.554   2216497563.2
RECEIVE_FREQ_1 =   2022-11-19T15:30:00.490   2216497562.115
RECEIVE_FREQ_1 =   2022-11-19T15:30:10.512   2216497561.215
RECEIVE_FREQ_1 =   2022-11-19T15:30:20.534   2216497559.8
RECEIVE_FREQ_1 =   2022-11-19T15:30:30.557   2216497559.015
RECEIVE_FREQ_1 =   2022-11-19T15:30:40.493   2216497557.915
RECEIVE_FREQ_1 =   2022-11-19T15:30:50.515   2216497556.9
RECEIVE_FREQ_1 =   2022-11-19T15:31:00.538   2216497555.515
RECEIVE_FREQ_1 =   2022-11-19T15:31:10.474   2216497554.8
RECEIVE_FREQ_1 =   2022-11-19T15:31:20.496   2216497553.615
RECEIVE_FREQ_1 =   2022-11-19T15:31:30.518   2216497552.515
RECEIVE_FREQ_1 =   2022-11-19T15:31:40.541   2216497551.515
RECEIVE_FREQ_1 =   2022-11-19T15:31:50.477   2216497550.6
RECEIVE_FREQ_1 =   2022-11-19T15:32:00.499   2216497549.615
RECEIVE_FREQ_1 =   2022-11-19T15:32:10.522   2216497548.415
RECEIVE_FREQ_1 =   2022-11-19T15:32:20.544   2216497547.5
RECEIVE_FREQ_1 =   2022-11-19T15:32:30.480   2216497546.515
RECEIVE_FREQ_1 =   2022-11-19T15:32:40.502   2216497545.115
RECEIVE_FREQ_1 =   2022-11-19T15:32:50.525   2216497544.3
RECEIVE_FREQ_1 =   2022-11-19T15:33:00.547   2216497543.115
RECEIVE_FREQ_1 =   2022-11-19T15:33:10.483   2216497542.3
RECEIVE_FREQ_1 =   2022-11-19T15:33:20.506   2216497540.915
RECEIVE_FREQ_1 =   2022-11-19T15:33:30.528   2216497540.015
RECEIVE_FREQ_1 =   2022-11-19T15:33:40.550   2216497539.015
RECEIVE_FREQ_1 =   2022-11-19T15:33:50.486   2216497537.9
RECEIVE_FREQ_1 =   2022-11-19T15:34:00.509   2216497537.0
RECEIVE_FREQ_1 =   2022-11-19T15:34:10.531   2216497536.0
RECEIVE_FREQ_1 =   2022-11-19T15:34:20.467   2216497534.715
RECEIVE_FREQ_1 =   2022-11-19T15:34:30.490   2216497533.915
RECEIVE_FREQ_1 =   2022-11-19T15:34:40.512   2216497532.915
RECEIVE_FREQ_1 =   2022-11-19T15:34:50.534   2216497531.715
RECEIVE_FREQ_1 =   2022-11-19T15:35:00.557   2216497530.7
RECEIVE_FREQ_1 =   2022-11-19T15:35:10.493   2216497529.7
RECEIVE_FREQ_1 =   2022-11-19T15:35:20.515   2216497528.315
RECEIVE_FREQ_1 =   2022-11-19T15:35:30.538   2216497527.415
RECEIVE_FREQ_1 =   2022-11-19T15:35:40.474   2216497526.115
RECEIVE_FREQ_1 =   2022-11-19T15:35:50.496   2216497525.315
RECEIVE_FREQ_1 =   2022-11-19T15:36:00.518   2216497524.215
RECEIVE_FREQ_1 =   2022-11-19T15:36:10.541   2216497523.215
RECEIVE_FREQ_1 =   2022-11-19T15:36:20.477   2216497521.915
RECEIVE_FREQ_1 =   2022-11-19T15:36:30.499   2216497520.715
RECEIVE_FREQ_1 =   2022-11-19T15:36:40.522   2216497519.915
RECEIVE_FREQ_1 =   2022-11-19T15:36:50.544   2216497518.8
RECEIVE_FREQ_1 =   2022-11-19T15:37:00.480   2216497517.6
RECEIVE_FREQ_1 =   2022-11-19T15:37:10.502   2216497516.4
RECEIVE_FREQ_1 =   2022-11-19T15:37:20.525   2216497515.215
RECEIVE_FREQ_1 =   2022-11-19T15:37:30.547   2216497514.315
RECEIVE_FREQ_1 =   2022-11-19T15:37:40.483   2216497513.4
RECEIVE_FREQ_1 =   2022-11-19T15:37:50.506   2216497512.4
RECEIVE_FREQ_1 =   2022-11-19T15:38:00.528   2216497511.2
RECEIVE_FREQ_1 =   2022-11-19T15:38:10.550   2216497510.015
RECEIVE_FREQ_1 =   2022-11-19T15:38:20.486   2216497508.9
RECEIVE_FREQ_1 =   2022-11-19T15:38:30.509   2216497507.915
RECEIVE_FREQ_1 =   2022-11-19T15:38:40.531   2216497506.8
RECEIVE_FREQ_1 =   2022-11-19T15:38:50.554   2216497505.3
RECEIVE_FREQ_1 =   2022-11-19T15:39:00.490   2216497504.5
RECEIVE_FREQ_1 =   2022-11-19T15:39:10.512   2216497503.5
RECEIVE_FREQ_1 =   2022-11-19T15:39:20.534   2216497502.215
RECEIVE_FREQ_1 =   2022-11-19T15:39:30.470   2216497501.4
RECEIVE_FREQ_1 =   2022-11-19T15:39:40.493   2216497499.815
RECEIVE_FREQ_1 =   2022-11-19T15:39:50.515   2216497498.815
RECEIVE_FREQ_1 =   2022-11-19T15:40:00.538   2216497497.7
RECEIVE_FREQ_1 =   2022-11-19T15:40:10.474   2216497496.715
RECEIVE_FREQ_1 =   2022-11-19T15:40:20.496   2216497495.615
RECEIVE_FREQ_1 =   2022-11-19T15:40:30.518   2216497494.415
RECEIVE_FREQ_1 =   2022-11-19T15:40:40.541   2216497493.315
RECEIVE_FREQ_1 =   2022-11-19T15:40:50.477   2216497492.415
RECEIVE_FREQ_1 =   2022-11-19T15:41:00.499   2216497491.115
RECEIVE_FREQ_1 =   2022-11-19T15:41:10.522   2216497489.815
RECEIVE_FREQ_1 =   2022-11-19T15:41:20.544   2216497489.015
RECEIVE_FREQ_1 =   2022-11-19T15:41:30.480   2216497487.7
RECEIVE_FREQ_1 =   2022-11-19T15:41:40.502   2216497486.415
RECEIVE_FREQ_1 =   2022-11-19T15:41:50.525   2216497485.215
RECEIVE_FREQ_1 =   2022-11-19T15:42:00.547   2216497484.315
RECEIVE_FREQ_1 =   2022-11-19T15:42:10.483   2216497483.015
RECEIVE_FREQ_1 =   2022-11-19T15:42:20.506   2216497482.4
RECEIVE_FREQ_1 =   2022-11-19T15:42:30.528   2216497481.3
RECEIVE_FREQ_1 =   2022-11-19T15:42:40.550   2216497480.0
RECEIVE_FREQ_1 =   2022-11-19T15:42:50.486   2216497479.0
RECEIVE_FREQ_1 =   2022-11-19T15:43:00.509   2216497477.815
RECEIVE_FREQ_1 =   2022-11-19T15:43:10.531   2216497476.5
RECEIVE_FREQ_1 =   2022-11-19T15:43:20.467   2216497475.415
RECEIVE_FREQ_1 =   2022-11-19T15:43:30.490   2216497474.115
RECEIVE_FREQ_1 =   2022-11-19T15:43:40.512   2216497473.015
RECEIVE_FREQ_1 =   2022-11-19T15:43:50.534   2216497472.115
RECEIVE_FREQ_1 =   2022-11-19T15:44:00.470   2216497471.015
RECEIVE_FREQ_1 =   2022-11-19T15:44:10.493   2216497469.7
RECEIVE_FREQ_1 =   2022-11-19T15:44:20.515   2216497468.415
RECEIVE_FREQ_1 =   2022-11-19T15:44:30.538   2216497467.6
RECEIVE_FREQ_1 =   2022-11-19T15:44:40.474   2216497466.3
RECEIVE_FREQ_1 =   2022-11-19T15:44:50.496   2216497465.015
RECEIVE_FREQ_1 =   2022-11-19T15:45:00.518   2216497463.615
RECEIVE_FREQ_1 =   2022-11-19T15:45:10.541   2216497462.515
RECEIVE_FREQ_1 =   2022-11-19T15:45:20.477   2216497461.4
RECEIVE_FREQ_1 =   2022-11-19T15:45:30.499   2216497460.515
RECEIVE_FREQ_1 =   2022-11-19T15:45:40.522   2216497459.015
RECEIVE_FREQ_1 =   2022-11-19T15:45:50.544   2216497457.815
RECEIVE_FREQ_1 =   2022-11-19T15:46:00.480   2216497456.915
RECEIVE_FREQ_1 =   2022-11-19T15:46:10.502   2216497456.1
RECEIVE_FREQ_1 =   2022-11-19T15:46:20.525   2216497454.715
RECEIVE_FREQ_1 =   2022-11-19T15:46:30.547   2216497453.415
RECEIVE_FREQ_1 =   2022-11-19T15:46:40.483   2216497452.315
RECEIVE_FREQ_1 =   2022-11-19T15:46:50.506   2216497450.915
RECEIVE_FREQ_1 =   2022-11-19T15:47:00.528   2216497450.2
RECEIVE_FREQ_1 =   2022-11-19T15:47:10.464   2216497448.715
RECEIVE_FREQ_1 =   2022-11-19T15:47:20.486   2216497447.7
RECEIVE_FREQ_1 =   2022-11-19T15:47:30.509   2216497446.6
RECEIVE_FREQ_1 =   2022-11-19T15:47:40.531   2216497445.5
RECEIVE_FREQ_1 =   2022-11-19T15:47:50.554   2216497444.315
RECEIVE_FREQ_1 =   2022-11-19T15:48:00.490   2216497443.0
RECEIVE_FREQ_1 =   2022-11-19T15:48:10.512   2216497441.915
RECEIVE_FREQ_1 =   2022-11-19T15:48:20.534   2216497440.515
RECEIVE_FREQ_1 =   2022-11-19T15:48:30.557   2216497439.315
RECEIVE_FREQ_1 =   2022-11-19T15:48:40.493   2216497438.1
RECEIVE_FREQ_1 =   2022-11-19T15:48:50.515   2216497436.915
RECEIVE_FREQ_1 =   2022-11-19T15:49:00.538   2216497435.915
RECEIVE_FREQ_1 =   2022-11-19T15:49:10.474   2216497434.815
RECEIVE_FREQ_1 =   2022-11-19T15:49:20.496   2216497433.315
RECEIVE_FREQ_1 =   2022-11-19T15:49:30.518   2216497432.1
RECEIVE_FREQ_1 =   2022-11-19T15:49:40.541   2216497431.315
RECEIVE_FREQ_1 =   2022-11-19T15:49:50.477   2216497429.9
RECEIVE_FREQ_1 =   2022-11-19T15:50:00.499   2216497428.615
RECEIVE_FREQ_1 =   2022-11-19T15:50:10.522   2216497427.7
RECEIVE_FREQ_1 =   2022-11-19T15:50:20.544   2216497426.315
RECEIVE_FREQ_1 =   2022-11-19T15:50:30.480   2216497425.115
RECEIVE_FREQ_1 =   2022-11-19T15:50:40.502   2216497423.915
RECEIVE_FREQ_1 =   2022-11-19T15:50:50.525   2216497423.215
RECEIVE_FREQ_1 =   2022-11-19T15:51:00.547   2216497421.4
RECEIVE_FREQ_1 =   2022-11-19T15:51:10.483   2216497420.615
RECEIVE_FREQ_1 =   2022-11-19T15:51:20.506   2216497419.415
RECEIVE_FREQ_1 =   2022-11-19T15:51:30.528   2216497418.3
RECEIVE_FREQ_1 =   2022-11-19T15:51:40.550   2216497416.7
RECEIVE_FREQ_1 =   2022-11-19T15:51:50.486   2216497415.6
RECEIVE_FREQ_1 =   2022-11-19T15:52:00.509   2216497414.415
RECEIVE_FREQ_1 =   2022-11-19T15:52:10.531   2216497413.7
RECEIVE_FREQ_1 =   2022-11-19T15:52:20.467   2216497412.3
RECEIVE_FREQ_1 =   2022-11-19T15:52:30.490   2216497411.2
RECEIVE_FREQ_1 =   2022-11-19T15:52:40.512   2216497410.015
RECEIVE_FREQ_1 =   2022-11-19T15:52:50.534   2216497409.215
RECEIVE_FREQ_1 =   2022-11-19T15:53:00.557   2216497408.2
RECEIVE_FREQ_1 =   2022-11-19T15:53:10.493   2216497407.015
RECEIVE_FREQ_1 =   2022-11-19T15:53:20.515   2216497405.4
RECEIVE_FREQ_1 =   2022-11-19T15:53:30.538   2216497404.615
RECEIVE_FREQ_1 =   2022-11-19T15:53:40.474   2216497403.1
RECEIVE_FREQ_1 =   2022-11-19T15:53:50.496   2216497402.415
RECEIVE_FREQ_1 =   2022-11-19T15:54:00.518   2216497400.915
RECEIVE_FREQ_1 =   2022-11-19T15:54:10.541   2216497399.915
RECEIVE_FREQ_1 =   2022-11-19T15:54:20.477   2216497398.9
RECEIVE_FREQ_1 =   2022-11-19T15:54:30.499   2216497397.715
RECEIVE_FREQ_1 =   2022-11-19T15:54:40.522   2216497396.615
RECEIVE_FREQ_1 =   2022-11-19T15:54:50.544   2216497395.715
RECEIVE_FREQ_1 =   2022-11-19T15:55:00.480   2216497394.8
RECEIVE_FREQ_1 =   2022-11-19T15:55:10.502   2216497393.5
RECEIVE_FREQ_1 =   2022-11-19T15:55:20.525   2216497392.215
RECEIVE_FREQ_1 =   2022-11-19T15:55:30.547   2216497391.0
RECEIVE_FREQ_1 =   2022-11-19T15:55:40.483   2216497389.9
RECEIVE_FREQ_1 =   2022-11-19T15:56:00.528   2216497387.806
RECEIVE_FREQ_1 =   2022-11-19T15:56:10.550   2216497386.6
RECEIVE_FREQ_1 =   2022-11-19T15:56:20.486   2216497385.6
RECEIVE_FREQ_1 =   2022-11-19T15:56:30.509   2216497384.215
RECEIVE_FREQ_1 =   2022-11-19T15:56:40.531   2216497383.115
RECEIVE_FREQ_1 =   2022-11-19T15:57:00.490   2216497381.1
RECEIVE_FREQ_1 =   2022-11-19T15:57:10.512   2216497379.715
RECEIVE_FREQ_1 =   2022-11-19T15:57:20.534   2216497378.4
RECEIVE_FREQ_1 =   2022-11-19T15:57:30.470   2216497377.3
RECEIVE_FREQ_1 =   2022-11-19T15:57:40.493   2216497376.415
RECEIVE_FREQ_1 =   2022-11-19T15:57:50.515   2216497375.315
RECEIVE_FREQ_1 =   2022-11-19T15:58:00.538   2216497374.3
RECEIVE_FREQ_1 =   2022-11-19T15:58:10.474   2216497373.1
RECEIVE_FREQ_1 =   2022-11-19T15:58:20.496   2216497371.515
RECEIVE_FREQ_1 =   2022-11-19T15:58:30.518   2216497370.6
RECEIVE_FREQ_1 =   2022-11-19T15:58:40.541   2216497369.5
RECEIVE_FREQ_1 =   2022-11-19T15:58:50.563   2216497368.115
RECEIVE_FREQ_1 =   2022-11-19T15:59:00.499   2216497367.415
RECEIVE_FREQ_1 =   2022-11-19T15:59:10.522   2216497366.2
RECEIVE_FREQ_1 =   2022-11-19T15:59:20.544   2216497364.8
RECEIVE_FREQ_1 =   2022-11-19T15:59:30.480   2216497363.906
RECEIVE_FREQ_1 =   2022-11-19T15:59:40.502   2216497362.406
RECEIVE_FREQ_1 =   2022-11-19T15:59:50.525   2216497362.115
RECEIVE_FREQ_1 =   2022-11-19T16:00:00.547   2216497360.315
RECEIVE_FREQ_1 =   2022-11-19T16:00:10.483   2216497359.3
RECEIVE_FREQ_1 =   2022-11-19T16:00:20.506   2216497357.515
RECEIVE_FREQ_1 =   2022-11-19T16:00:30.528   2216497356.915
RECEIVE_FREQ_1 =   2022-11-19T16:00:40.550   2216497355.215
RECEIVE_FREQ_1 =   2022-11-19T16:00:50.486   2216497354.415
RECEIVE_FREQ_1 =   2022-11-19T16:01:00.509   2216497353.115
RECEIVE_FREQ_1 =   2022-11-19T16:01:10.531   2216497352.015
RECEIVE_FREQ_1 =   2022-11-19T16:01:20.467   2216497350.815
RECEIVE_FREQ_1 =   2022-11-19T16:01:30.490   2216497349.915
RECEIVE_FREQ_1 =   2022-11-19T16:01:40.512   2216497348.515
RECEIVE_FREQ_1 =   2022-11-19T16:01:50.534   2216497347.515
RECEIVE_FREQ_1 =   2022-11-19T16:02:00.557   2216497345.815
RECEIVE_FREQ_1 =   2022-11-19T16:02:10.493   2216497345.115
RECEIVE_FREQ_1 =   2022-11-19T16:02:20.515   2216497343.715
RECEIVE_FREQ_1 =   2022-11-19T16:02:30.538   2216497342.215
RECEIVE_FREQ_1 =   2022-11-19T16:02:40.474   2216497341.515
RECEIVE_FREQ_1 =   2022-11-19T16:02:50.496   2216497340.415
RECEIVE_FREQ_1 =   2022-11-19T16:03:00.518   2216497339.415
RECEIVE_FREQ_1 =   2022-11-19T16:03:10.541   2216497338.015
RECEIVE_FREQ_1 =   2022-11-19T16:03:20.477   2216497336.815
RECEIVE_FREQ_1 =   2022-11-19T16:03:30.499   2216497335.715
RECEIVE_FREQ_1 =   2022-11-19T16:03:40.522   2216497334.615
RECEIVE_FREQ_1 =   2022-11-19T16:03:50.544   2216497333.115
RECEIVE_FREQ_1 =   2022-11-19T16:04:00.480   2216497332.015
RECEIVE_FREQ_1 =   2022-11-19T16:04:10.502   2216497331.015
RECEIVE_FREQ_1 =   2022-11-19T16:04:20.525   2216497329.715
RECEIVE_FREQ_1 =   2022-11-19T16:04:30.547   2216497328.515
RECEIVE_FREQ_1 =   2022-11-19T16:04:40.483   2216497327.315
RECEIVE_FREQ_1 =   2022-11-19T16:04:50.506   2216497325.915
RECEIVE_FREQ_1 =   2022-11-19T16:05:00.528   2216497325.315
RECEIVE_FREQ_1 =   2022-11-19T16:05:10.550   2216497323.815
RECEIVE_FREQ_1 =   2022-11-19T16:05:20.486   2216497322.715
RECEIVE_FREQ_1 =   2022-11-19T16:05:30.509   2216497321.315
RECEIVE_FREQ_1 =   2022-11-19T16:05:40.531   2216497320.115
RECEIVE_FREQ_1 =   2022-11-19T16:05:50.554   2216497318.615
RECEIVE_FREQ_1 =   2022-11-19T16:06:00.490   2216497317.715
RECEIVE_FREQ_1 =   2022-11-19T16:06:10.512   2216497316.215
RECEIVE_FREQ_1 =   2022-11-19T16:06:20.534   2216497315.315
RECEIVE_FREQ_1 =   2022-11-19T16:06:30.557   2216497314.415
RECEIVE_FREQ_1 =   2022-11-19T16:06:40.493   2216497312.815
RECEIVE_FREQ_1 =   2022-11-19T16:06:50.515   2216497312.115
RECEIVE_FREQ_1 =   2022-11-19T16:07:00.538   2216497310.515
RECEIVE_FREQ_1 =   2022-11-19T16:07:10.474   2216497309.615
RECEIVE_FREQ_1 =   2022-11-19T16:07:20.496   2216497308.115
RECEIVE_FREQ_1 =   2022-11-19T16:07:30.518   2216497306.715
RECEIVE_FREQ_1 =   2022-11-19T16:07:40.541   2216497305.515
RECEIVE_FREQ_1 =   2022-11-19T16:07:50.563   2216497304.315
RECEIVE_FREQ_1 =   2022-11-19T16:08:00.499   2216497302.915
RECEIVE_FREQ_1 =   2022-11-19T16:08:10.522   2216497302.015
RECEIVE_FREQ_1 =   2022-11-19T16:08:20.544   2216497300.815
RECEIVE_FREQ_1 =   2022-11-19T16:08:30.480   2216497299.715
RECEIVE_FREQ_1 =   2022-11-19T16:08:40.502   2216497298.215
RECEIVE_FREQ_1 =   2022-11-19T16:08:50.525   2216497297.115
RECEIVE_FREQ_1 =   2022-11-19T16:09:00.547   2216497295.815
RECEIVE_FREQ_1 =   2022-11-19T16:09:10.483   2216497294.615
RECEIVE_FREQ_1 =   2022-11-19T16:09:20.506   2216497293.515
RECEIVE_FREQ_1 =   2022-11-19T16:09:30.528   2216497292.615
RECEIVE_FREQ_1 =   2022-11-19T16:09:40.550   2216497291.215
RECEIVE_FREQ_1 =   2022-11-19T16:10:00.509   2216497288.715
RECEIVE_FREQ_1 =   2022-11-19T16:10:10.531   2216497287.215
RECEIVE_FREQ_1 =   2022-11-19T16:10:20.467   2216497286.115
RECEIVE_FREQ_1 =   2022-11-19T16:10:30.490   2216497284.715
RECEIVE_FREQ_1 =   2022-11-19T16:10:40.512   2216497283.715
RECEIVE_FREQ_1 =   2022-11-19T16:10:50.534   2216497282.615
RECEIVE_FREQ_1 =   2022-11-19T16:11:00.557   2216497280.915
RECEIVE_FREQ_1 =   2022-11-19T16:11:10.493   2216497279.815
RECEIVE_FREQ_1 =   2022-11-19T16:11:20.515   2216497278.815
RECEIVE_FREQ_1 =   2022-11-19T16:11:30.538   2216497277.415
RECEIVE_FREQ_1 =   2022-11-19T16:11:40.474   2216497276.515
RECEIVE_FREQ_1 =   2022-11-19T16:11:50.496   2216497275.015
RECEIVE_FREQ_1 =   2022-11-19T16:12:00.518   2216497273.815
RECEIVE_FREQ_1 =   2022-11-19T16:12:10.541   2216497272.515
RECEIVE_FREQ_1 =   2022-11-19T16:12:30.499   2216497270.215
RECEIVE_FREQ_1 =   2022-11-19T16:12:50.544   2216497267.715
RECEIVE_FREQ_1 =   2022-11-19T16:13:10.502   2216497264.915
RECEIVE_FREQ_1 =   2022-11-19T16:13:20.525   2216497263.715
RECEIVE_FREQ_1 =   2022-11-19T16:13:30.547   2216497262.615
RECEIVE_FREQ_1 =   2022-11-19T16:13:40.483   2216497261.215
RECEIVE_FREQ_1 =   2022-11-19T16:13:50.506   2216497260.015
RECEIVE_FREQ_1 =   2022-11-19T16:14:00.528   2216497259.515
RECEIVE_FREQ_1 =   2022-11-19T16:14:10.550   2216497257.615
RECEIVE_FREQ_1 =   2022-11-19T16:14:20.486   2216497256.315
RECEIVE_FREQ_1 =   2022-11-19T16:14:30.509   2216497255.315
RECEIVE_FREQ_1 =   2022-11-19T16:14:40.531   2216497254.0
RECEIVE_FREQ_1 =   2022-11-19T16:14:50.554   2216497252.515
RECEIVE_FREQ_1 =   2022-11-19T16:15:00.490   2216497251.515
RECEIVE_FREQ_1 =   2022-11-19T16:15:10.512   2216497250.115
RECEIVE_FREQ_1 =   2022-11-19T16:15:20.534   2216497248.815
RECEIVE_FREQ_1 =   2022-11-19T16:15:30.470   2216497247.515
RECEIVE_FREQ_1 =   2022-11-19T16:15:40.493   2216497246.515
RECEIVE_FREQ_1 =   2022-11-19T16:15:50.515   2216497244.815
RECEIVE_FREQ_1 =   2022-11-19T16:16:00.538   2216497244.0
RECEIVE_FREQ_1 =   2022-11-19T16:16:10.474   2216497242.615
RECEIVE_FREQ_1 =   2022-11-19T16:16:20.496   2216497241.515
RECEIVE_FREQ_1 =   2022-11-19T16:16:30.518   2216497239.715
RECEIVE_FREQ_1 =   2022-11-19T16:16:40.541   2216497238.715
RECEIVE_FREQ_1 =   2022-11-19T16:16:50.477   2216497237.415
RECEIVE_FREQ_1 =   2022-11-19T16:17:00.499   2216497236.315
RECEIVE_FREQ_1 =   2022-11-19T16:17:10.522   2216497234.615
RECEIVE_FREQ_1 =   2022-11-19T16:17:20.544   2216497233.815
RECEIVE_FREQ_1 =   2022-11-19T16:17:30.480   2216497232.415
RECEIVE_FREQ_1 =   2022-11-19T16:17:40.502   2216497231.015
RECEIVE_FREQ_1 =   2022-11-19T16:17:50.525   2216497230.115
RECEIVE_FREQ_1 =   2022-11-19T16:18:00.547   2216497228.515
RECEIVE_FREQ_1 =   2022-11-19T16:18:10.483   2216497227.515
RECEIVE_FREQ_1 =   2022-11-19T16:18:20.506   2216497225.915
RECEIVE_FREQ_1 =   2022-11-19T16:18:30.528   2216497224.8
RECEIVE_FREQ_1 =   2022-11-19T16:18:40.550   2216497223.615
RECEIVE_FREQ_1 =   2022-11-19T16:18:50.486   2216497222.215
RECEIVE_FREQ_1 =   2022-11-19T16:19:00.509   2216497220.8
RECEIVE_FREQ_1 =   2022-11-19T16:19:10.531   2216497220.1
RECEIVE_FREQ_1 =   2022-11-19T16:19:20.554   2216497218.5
RECEIVE_FREQ_1 =   2022-11-19T16:19:30.490   2216497217.4
RECEIVE_FREQ_1 =   2022-11-19T16:19:40.512   2216497215.415
RECEIVE_FREQ_1 =   2022-11-19T16:19:50.534   2216497214.615
RECEIVE_FREQ_1 =   2022-11-19T16:20:00.470   2216497213.515
RECEIVE_FREQ_1 =   2022-11-19T16:20:10.493   2216497211.915
RECEIVE_FREQ_1 =   2022-11-19T16:20:20.515   2216497210.715
RECEIVE_FREQ_1 =   2022-11-19T16:20:30.538   2216497209.815
RECEIVE_FREQ_1 =   2022-11-19T16:20:40.560   2216497208.0
RECEIVE_FREQ_1 =   2022-11-19T16:20:50.496   2216497206.715
RECEIVE_FREQ_1 =   2022-11-19T16:21:00.518   2216497205.5
RECEIVE_FREQ_1 =   2022-11-19T16:21:10.541   2216497204.115
RECEIVE_FREQ_1 =   2022-11-19T16:21:20.477   2216497202.815
RECEIVE_FREQ_1 =   2022-11-19T16:21:30.499   2216497201.4
RECEIVE_FREQ_1 =   2022-11-19T16:21:40.522   2216497200.215
RECEIVE_FREQ_1 =   2022-11-19T16:21:50.544   2216497199.2
RECEIVE_FREQ_1 =   2022-11-19T16:22:00.480   2216497197.915
RECEIVE_FREQ_1 =   2022-11-19T16:22:10.502   2216497196.515
RECEIVE_FREQ_1 =   2022-11-19T16:22:20.525   2216497195.115
RECEIVE_FREQ_1 =   2022-11-19T16:22:30.547   2216497193.915
RECEIVE_FREQ_1 =   2022-11-19T16:22:40.483   2216497192.915
RECEIVE_FREQ_1 =   2022-11-19T16:22:50.506   2216497192.115
RECEIVE_FREQ_1 =   2022-11-19T16:23:00.528   2216497190.815
RECEIVE_FREQ_1 =   2022-11-19T16:23:10.464   2216497189.315
RECEIVE_FREQ_1 =   2022-11-19T16:23:20.486   2216497188.015
RECEIVE_FREQ_1 =   2022-11-19T16:23:30.509   2216497187.0
RECEIVE_FREQ_1 =   2022-11-19T16:23:40.531   2216497185.915
RECEIVE_FREQ_1 =   2022-11-19T16:23:50.554   2216497184.415
RECEIVE_FREQ_1 =   2022-11-19T16:24:00.490   2216497184.2
RECEIVE_FREQ_1 =   2022-11-19T16:24:10.512   2216497181.915
RECEIVE_FREQ_1 =   2022-11-19T16:24:20.534   2216497181.015
RECEIVE_FREQ_1 =   2022-11-19T16:24:30.470   2216497179.415
RECEIVE_FREQ_1 =   2022-11-19T16:24:40.493   2216497178.215
RECEIVE_FREQ_1 =   2022-11-19T16:24:50.515   2216497177.515
RECEIVE_FREQ_1 =   2022-11-19T16:25:00.538   2216497175.815
RECEIVE_FREQ_1 =   2022-11-19T16:25:10.474   2216497174.915
RECEIVE_FREQ_1 =   2022-11-19T16:25:20.496   2216497173.315
RECEIVE_FREQ_1 =   2022-11-19T16:25:30.518   2216497172.515
RECEIVE_FREQ_1 =   2022-11-19T16:25:40.541   2216497171.6
RECEIVE_FREQ_1 =   2022-11-19T16:25:50.477   2216497169.815
RECEIVE_FREQ_1 =   2022-11-19T16:26:00.499   2216497168.615
RECEIVE_FREQ_1 =   2022-11-19T16:26:10.522   2216497167.015
RECEIVE_FREQ_1 =   2022-11-19T16:26:20.544   2216497166.315
RECEIVE_FREQ_1 =   2022-11-19T16:26:30.480   2216497164.615
RECEIVE_FREQ_1 =   2022-11-19T16:26:40.502   2216497163.6
RECEIVE_FREQ_1 =   2022-11-19T16:26:50.525   2216497162.615
RECEIVE_FREQ_1 =   2022-11-19T16:27:00.547   2216497161.015
RECEIVE_FREQ_1 =   2022-11-19T16:27:10.483   2216497159.815
RECEIVE_FREQ_1 =   2022-11-19T16:27:20.506   2216497158.415
RECEIVE_FREQ_1 =   2022-11-19T16:27:30.528   2216497157.315
RECEIVE_FREQ_1 =   2022-11-19T16:27:50.486   2216497154.915
RECEIVE_FREQ_1 =   2022-11-19T16:28:00.509   2216497153.315
RECEIVE_FREQ_1 =   2022-11-19T16:28:10.531   2216497152.715
RECEIVE_FREQ_1 =   2022-11-19T16:28:20.467   2216497151.2
RECEIVE_FREQ_1 =   2022-11-19T16:28:30.490   2216497150.015
RECEIVE_FREQ_1 =   2022-11-19T16:28:40.512   2216497148.8
RECEIVE_FREQ_1 =   2022-11-19T16:28:50.534   2216497147.515
RECEIVE_FREQ_1 =   2022-11-19T16:29:00.470   2216497146.315
RECEIVE_FREQ_1 =   2022-11-19T16:29:20.515   2216497143.615
RECEIVE_FREQ_1 =   2022-11-19T16:29:30.538   2216497142.515
RECEIVE_FREQ_1 =   2022-11-19T16:29:40.474   2216497141.315
RECEIVE_FREQ_1 =   2022-11-19T16:29:50.496   2216497139.915
RECEIVE_FREQ_1 =   2022-11-19T16:30:00.518   2216497138.715
RECEIVE_FREQ_1 =   2022-11-19T16:30:10.541   2216497137.515
RECEIVE_FREQ_1 =   2022-11-19T16:30:20.477   2216497136.415
RECEIVE_FREQ_1 =   2022-11-19T16:30:30.499   2216497134.915
RECEIVE_FREQ_1 =   2022-11-19T16:30:40.522   2216497133.715
RECEIVE_FREQ_1 =   2022-11-19T16:30:50.544   2216497132.115
RECEIVE_FREQ_1 =   2022-11-19T16:31:00.480   2216497131.015
RECEIVE_FREQ_1 =   2022-11-19T16:31:10.502   2216497129.715
RECEIVE_FREQ_1 =   2022-11-19T16:31:20.525   2216497128.715
RECEIVE_FREQ_1 =   2022-11-19T16:31:30.547   2216497127.415
RECEIVE_FREQ_1 =   2022-11-19T16:31:40.483   2216497126.115
RECEIVE_FREQ_1 =   2022-11-19T16:31:50.506   2216497124.915
RECEIVE_FREQ_1 =   2022-11-19T16:32:00.528   2216497123.515
RECEIVE_FREQ_1 =   2022-11-19T16:32:10.464   2216497122.715
RECEIVE_FREQ_1 =   2022-11-19T16:32:20.486   2216497121.015
RECEIVE_FREQ_1 =   2022-11-19T16:32:30.509   2216497120.015
RECEIVE_FREQ_1 =   2022-11-19T16:32:40.531   2216497118.615
RECEIVE_FREQ_1 =   2022-11-19T16:32:50.554   2216497117.3
RECEIVE_FREQ_1 =   2022-11-19T16:33:00.490   2216497116.1
RECEIVE_FREQ_1 =   2022-11-19T16:33:10.512   2216497114.915
RECEIVE_FREQ_1 =   2022-11-19T16:33:20.534   2216497113.715
RECEIVE_FREQ_1 =   2022-11-19T16:33:30.470   2216497112.215
RECEIVE_FREQ_1 =   2022-11-19T16:33:40.493   2216497110.915
RECEIVE_FREQ_1 =   2022-11-19T16:33:50.515   2216497109.515
RECEIVE_FREQ_1 =   2022-11-19T16:34:00.538   2216497108.215
RECEIVE_FREQ_1 =   2022-11-19T16:34:10.474   2216497107.115
RECEIVE_FREQ_1 =   2022-11-19T16:34:20.496   2216497105.915
RECEIVE_FREQ_1 =   2022-11-19T16:34:30.518   2216497104.315
RECEIVE_FREQ_1 =   2022-11-19T16:34:40.541   2216497103.315
RECEIVE_FREQ_1 =   2022-11-19T16:34:50.477   2216497102.115
RECEIVE_FREQ_1 =   2022-11-19T16:35:00.499   2216497100.315
RECEIVE_FREQ_1 =   2022-11-19T16:35:10.522   2216497099.415
RECEIVE_FREQ_1 =   2022-11-19T16:35:20.544   2216497098.115
RECEIVE_FREQ_1 =   2022-11-19T16:35:30.480   2216497096.615
RECEIVE_FREQ_1 =   2022-11-19T16:35:40.502   2216497095.915
RECEIVE_FREQ_1 =   2022-11-19T16:35:50.525   2216497094.515
RECEIVE_FREQ_1 =   2022-11-19T16:36:00.547   2216497093.2
RECEIVE_FREQ_1 =   2022-11-19T16:36:10.483   2216497091.815
RECEIVE_FREQ_1 =   2022-11-19T16:36:20.506   2216497090.515
RECEIVE_FREQ_1 =   2022-11-19T16:36:30.528   2216497089.315
RECEIVE_FREQ_1 =   2022-11-19T16:36:40.550   2216497088.215
RECEIVE_FREQ_1 =   2022-11-19T16:36:50.486   2216497086.715
RECEIVE_FREQ_1 =   2022-11-19T16:37:00.509   2216497085.115
RECEIVE_FREQ_1 =   2022-11-19T16:37:10.531   2216497083.915
RECEIVE_FREQ_1 =   2022-11-19T16:37:20.467   2216497082.815
RECEIVE_FREQ_1 =   2022-11-19T16:37:30.490   2216497081.415
RECEIVE_FREQ_1 =   2022-11-19T16:37:40.512   2216497080.315
RECEIVE_FREQ_1 =   2022-11-19T16:37:50.534   2216497079.115
RECEIVE_FREQ_1 =   2022-11-19T16:38:00.470   2216497077.715
RECEIVE_FREQ_1 =   2022-11-19T16:38:10.493   2216497076.315
RECEIVE_FREQ_1 =   2022-11-19T16:38:20.515   2216497075.015
RECEIVE_FREQ_1 =   2022-11-19T16:38:30.538   2216497073.915
RECEIVE_FREQ_1 =   2022-11-19T16:38:40.474   2216497072.815
RECEIVE_FREQ_1 =   2022-11-19T16:38:50.496   2216497071.315
RECEIVE_FREQ_1 =   2022-11-19T16:39:00.518   2216497070.115
RECEIVE_FREQ_1 =   2022-11-19T16:39:10.541   2216497068.515
RECEIVE_FREQ_1 =   2022-11-19T16:39:20.477   2216497067.215
RECEIVE_FREQ_1 =   2022-11-19T16:39:30.499   2216497066.115
RECEIVE_FREQ_1 =   2022-11-19T16:39:40.522   2216497064.615
RECEIVE_FREQ_1 =   2022-11-19T16:39:50.544   2216497063.515
RECEIVE_FREQ_1 =   2022-11-19T16:40:00.480   2216497062.315
RECEIVE_FREQ_1 =   2022-11-19T16:40:10.502   2216497061.015
RECEIVE_FREQ_1 =   2022-11-19T16:40:20.525   2216497059.715
RECEIVE_FREQ_1 =   2022-11-19T16:40:30.547   2216497058.315
RECEIVE_FREQ_1 =   2022-11-19T16:40:40.483   2216497056.615
RECEIVE_FREQ_1 =   2022-11-19T16:40:50.506   2216497055.715
RECEIVE_FREQ_1 =   2022-11-19T16:41:00.528   2216497054.415
RECEIVE_FREQ_1 =   2022-11-19T16:41:10.464   2216497052.815
RECEIVE_FREQ_1 =   2022-11-19T16:41:20.486   2216497051.515
RECEIVE_FREQ_1 =   2022-11-19T16:41:30.509   2216497050.515
RECEIVE_FREQ_1 =   2022-11-19T16:41:40.531   2216497049.015
RECEIVE_FREQ_1 =   2022-11-19T16:41:50.467   2216497047.915
RECEIVE_FREQ_1 =   2022-11-19T16:42:00.490   2216497046.115
RECEIVE_FREQ_1 =   2022-11-19T16:42:10.512   2216497045.315
RECEIVE_FREQ_1 =   2022-11-19T16:42:20.534   2216497043.515
RECEIVE_FREQ_1 =   2022-11-19T16:42:30.557   2216497042.815
RECEIVE_FREQ_1 =   2022-11-19T16:42:40.493   2216497040.915
RECEIVE_FREQ_1 =   2022-11-19T16:42:50.515   2216497040.015
RECEIVE_FREQ_1 =   2022-11-19T16:43:00.538   2216497038.615
RECEIVE_FREQ_1 =   2022-11-19T16:43:10.474   2216497037.315
RECEIVE_FREQ_1 =   2022-11-19T16:43:20.496   2216497035.815
RECEIVE_FREQ_1 =   2022-11-19T16:43:30.518   2216497034.615
RECEIVE_FREQ_1 =   2022-11-19T16:43:40.541   2216497033.415
RECEIVE_FREQ_1 =   2022-11-19T16:43:50.477   2216497031.915
RECEIVE_FREQ_1 =   2022-11-19T16:44:00.499   2216497030.7
RECEIVE_FREQ_1 =   2022-11-19T16:44:10.522   2216497029.215
RECEIVE_FREQ_1 =   2022-11-19T16:44:20.544   2216497028.215
RECEIVE_FREQ_1 =   2022-11-19T16:44:30.480   2216497026.915
RECEIVE_FREQ_1 =   2022-11-19T16:44:40.502   2216497025.315
RECEIVE_FREQ_1 =   2022-11-19T16:44:50.525   2216497024.015
RECEIVE_FREQ_1 =   2022-11-19T16:45:00.547   2216497022.915
RECEIVE_FREQ_1 =   2022-11-19T16:45:10.483   2216497021.615
RECEIVE_FREQ_1 =   2022-11-19T16:45:20.506   2216497019.915
RECEIVE_FREQ_1 =   2022-11-19T16:45:30.528   2216497019.3
RECEIVE_FREQ_1 =   2022-11-19T16:45:40.550   2216497017.915
RECEIVE_FREQ_1 =   2022-11-19T16:45:50.486   2216497015.815
RECEIVE_FREQ_1 =   2022-11-19T16:46:00.509   2216497014.915
RECEIVE_FREQ_1 =   2022-11-19T16:46:10.531   2216497013.9
RECEIVE_FREQ_1 =   2022-11-19T16:46:20.467   2216497012.115
RECEIVE_FREQ_1 =   2022-11-19T16:46:30.490   2216497010.915
RECEIVE_FREQ_1 =   2022-11-19T16:46:40.512   2216497009.615
RECEIVE_FREQ_1 =   2022-11-19T16:46:50.534   2216497008.215
RECEIVE_FREQ_1 =   2022-11-19T16:47:00.470   2216497006.715
RECEIVE_FREQ_1 =   2022-11-19T16:47:10.493   2216497005.615
RECEIVE_FREQ_1 =   2022-11-19T16:47:30.538   2216497003.115
RECEIVE_FREQ_1 =   2022-11-19T16:47:40.474   2216497001.415
RECEIVE_FREQ_1 =   2022-11-19T16:47:50.496   2216497000.415
RECEIVE_FREQ_1 =   2022-11-19T16:48:00.518   2216496998.8
RECEIVE_FREQ_1 =   2022-11-19T16:48:10.541   2216496997.515
RECEIVE_FREQ_1 =   2022-11-19T16:48:20.477   2216496996.115
RECEIVE_FREQ_1 =   2022-11-19T16:48:30.499   2216496995.315
RECEIVE_FREQ_1 =   2022-11-19T16:48:40.522   2216496993.715
RECEIVE_FREQ_1 =   2022-11-19T16:48:50.544   2216496992.315
RECEIVE_FREQ_1 =   2022-11-19T16:49:00.480   2216496990.615
RECEIVE_FREQ_1 =   2022-11-19T16:49:10.502   2216496989.615
RECEIVE_FREQ_1 =   2022-11-19T16:49:20.525   2216496988.315
RECEIVE_FREQ_1 =   2022-11-19T16:49:30.547   2216496987.115
RECEIVE_FREQ_1 =   2022-11-19T16:49:40.483   2216496985.315
RECEIVE_FREQ_1 =   2022-11-19T16:49:50.506   2216496984.515
RECEIVE_FREQ_1 =   2022-11-19T16:50:00.528   2216496983.015
RECEIVE_FREQ_1 =   2022-11-19T16:50:10.550   2216496981.515
RECEIVE_FREQ_1 =   2022-11-19T16:50:20.486   2216496980.015
RECEIVE_FREQ_1 =   2022-11-19T16:50:30.509   2216496978.515
RECEIVE_FREQ_1 =   2022-11-19T16:50:40.531   2216496977.915
RECEIVE_FREQ_1 =   2022-11-19T16:50:50.554   2216496976.115
RECEIVE_FREQ_1 =   2022-11-19T16:51:00.490   2216496974.815
RECEIVE_FREQ_1 =   2022-11-19T16:51:10.512   2216496973.715
RECEIVE_FREQ_1 =   2022-11-19T16:51:20.534   2216496972.015
RECEIVE_FREQ_1 =   2022-11-19T16:51:30.470   2216496970.915
RECEIVE_FREQ_1 =   2022-11-19T16:51:40.493   2216496969.215
RECEIVE_FREQ_1 =   2022-11-19T16:51:50.515   2216496968.215
RECEIVE_FREQ_1 =   2022-11-19T16:52:00.538   2216496966.915
RECEIVE_FREQ_1 =   2022-11-19T16:52:10.560   2216496965.615
RECEIVE_FREQ_1 =   2022-11-19T16:52:20.496   2216496964.215
RECEIVE_FREQ_1 =   2022-11-19T16:52:30.518   2216496962.415
RECEIVE_FREQ_1 =   2022-11-19T16:52:40.541   2216496961.315
RECEIVE_FREQ_1 =   2022-11-19T16:52:50.477   2216496960.115
RECEIVE_FREQ_1 =   2022-11-19T16:53:00.499   2216496958.715
RECEIVE_FREQ_1 =   2022-11-19T16:53:10.522   2216496957.315
RECEIVE_FREQ_1 =   2022-11-19T16:53:20.544   2216496956.215
RECEIVE_FREQ_1 =   2022-11-19T16:53:30.480   2216496954.315
RECEIVE_FREQ_1 =   2022-11-19T16:53:40.502   2216496953.515
RECEIVE_FREQ_1 =   2022-11-19T16:53:50.525   2216496951.915
RECEIVE_FREQ_1 =   2022-11-19T16:54:00.547   2216496950.815
RECEIVE_FREQ_1 =   2022-11-19T16:54:10.483   2216496948.915
RECEIVE_FREQ_1 =   2022-11-19T16:54:20.506   2216496947.615
RECEIVE_FREQ_1 =   2022-11-19T16:54:30.528   2216496946.315
RECEIVE_FREQ_1 =   2022-11-19T16:54:40.550   2216496945.115
RECEIVE_FREQ_1 =   2022-11-19T16:54:50.486   2216496944.315
RECEIVE_FREQ_1 =   2022-11-19T16:55:00.509   2216496942.215
RECEIVE_FREQ_1 =   2022-11-19T16:55:10.531   2216496941.015
RECEIVE_FREQ_1 =   2022-11-19T16:55:20.467   2216496939.815
RECEIVE_FREQ_1 =   2022-11-19T16:55:30.490   2216496938.215
RECEIVE_FREQ_1 =   2022-11-19T16:55:40.512   2216496937.315
RECEIVE_FREQ_1 =   2022-11-19T16:55:50.534   2216496935.715
RECEIVE_FREQ_1 =   2022-11-19T16:56:00.470   2216496933.815
RECEIVE_FREQ_1 =   2022-11-19T16:56:10.493   2216496932.815
RECEIVE_FREQ_1 =   2022-11-19T16:56:20.515   2216496931.315
RECEIVE_FREQ_1 =   2022-11-19T16:56:30.538   2216496930.315
RECEIVE_FREQ_1 =   2022-11-19T16:56:40.560   2216496929.215
RECEIVE_FREQ_1 =   2022-11-19T16:56:50.496   2216496927.215
RECEIVE_FREQ_1 =   2022-11-19T16:57:00.518   2216496926.315
RECEIVE_FREQ_1 =   2022-11-19T16:57:10.541   2216496924.815
RECEIVE_FREQ_1 =   2022-11-19T16:57:20.477   2216496923.415
RECEIVE_FREQ_1 =   2022-11-19T16:57:30.499   2216496921.715
RECEIVE_FREQ_1 =   2022-11-19T16:57:40.522   2216496920.915
RECEIVE_FREQ_1 =   2022-11-19T16:57:50.544   2216496919.115
RECEIVE_FREQ_1 =   2022-11-19T16:58:00.480   2216496918.215
RECEIVE_FREQ_1 =   2022-11-19T16:58:10.502   2216496916.315
RECEIVE_FREQ_1 =   2022-11-19T16:58:20.525   2216496915.115
RECEIVE_FREQ_1 =   2022-11-19T16:58:30.547   2216496913.615
RECEIVE_FREQ_1 =   2022-11-19T16:58:40.483   2216496911.915
RECEIVE_FREQ_1 =   2022-11-19T16:58:50.506   2216496911.115
RECEIVE_FREQ_1 =   2022-11-19T16:59:00.528   2216496909.915
RECEIVE_FREQ_1 =   2022-11-19T16:59:10.464   2216496908.615
RECEIVE_FREQ_1 =   2022-11-19T16:59:20.486   2216496907.215
RECEIVE_FREQ_1 =   2022-11-19T16:59:30.509   2216496905.515
RECEIVE_FREQ_1 =   2022-11-19T16:59:40.531   2216496904.115
RECEIVE_FREQ_1 =   2022-11-19T16:59:50.554   2216496902.915
RECEIVE_FREQ_1 =   2022-11-19T17:00:00.490   2216496901.615
RECEIVE_FREQ_1 =   2022-11-19T17:00:10.512   2216496899.915
RECEIVE_FREQ_1 =   2022-11-19T17:00:20.534   2216496898.815
RECEIVE_FREQ_1 =   2022-11-19T17:00:30.470   2216496897.315
RECEIVE_FREQ_1 =   2022-11-19T17:00:40.493   2216496896.115
RECEIVE_FREQ_1 =   2022-11-19T17:00:50.515   2216496895.015
RECEIVE_FREQ_1 =   2022-11-19T17:01:00.538   2216496893.715
RECEIVE_FREQ_1 =   2022-11-19T17:01:10.474   2216496892.415
RECEIVE_FREQ_1 =   2022-11-19T17:01:20.496   2216496890.615
RECEIVE_FREQ_1 =   2022-11-19T17:01:30.518   2216496889.315
RECEIVE_FREQ_1 =   2022-11-19T17:01:40.541   2216496888.315
RECEIVE_FREQ_1 =   2022-11-19T17:01:50.563   2216496886.715
RECEIVE_FREQ_1 =   2022-11-19T17:02:00.499   2216496885.715
RECEIVE_FREQ_1 =   2022-11-19T17:02:10.522   2216496883.715
RECEIVE_FREQ_1 =   2022-11-19T17:02:20.544   2216496882.715
RECEIVE_FREQ_1 =   2022-11-19T17:02:30.480   2216496881.515
RECEIVE_FREQ_1 =   2022-11-19T17:02:40.502   2216496880.115
RECEIVE_FREQ_1 =   2022-11-19T17:02:50.525   2216496878.815
RECEIVE_FREQ_1 =   2022-11-19T17:03:00.547   2216496877.415
RECEIVE_FREQ_1 =   2022-11-19T17:03:10.483   2216496875.815
RECEIVE_FREQ_1 =   2022-11-19T17:03:20.506   2216496874.615
RECEIVE_FREQ_1 =   2022-11-19T17:03:30.528   2216496873.315
RECEIVE_FREQ_1 =   2022-11-19T17:03:40.550   2216496872.015
RECEIVE_FREQ_1 =   2022-11-19T17:03:50.486   2216496870.915
RECEIVE_FREQ_1 =   2022-11-19T17:04:00.509   2216496869.515
RECEIVE_FREQ_1 =   2022-11-19T17:04:10.531   2216496868.215
RECEIVE_FREQ_1 =   2022-11-19T17:04:20.554   2216496867.115
RECEIVE_FREQ_1 =   2022-11-19T17:04:30.490   2216496865.215
RECEIVE_FREQ_1 =   2022-11-19T17:04:40.512   2216496864.115
RECEIVE_FREQ_1 =   2022-11-19T17:04:50.534   2216496862.915
RECEIVE_FREQ_1 =   2022-11-19T17:05:00.470   2216496861.315
RECEIVE_FREQ_1 =   2022-11-19T17:05:10.493   2216496860.115
RECEIVE_FREQ_1 =   2022-11-19T17:05:20.515   2216496858.515
RECEIVE_FREQ_1 =   2022-11-19T17:05:30.538   2216496857.315
RECEIVE_FREQ_1 =   2022-11-19T17:05:40.474   2216496856.0
RECEIVE_FREQ_1 =   2022-11-19T17:05:50.496   2216496854.615
RECEIVE_FREQ_1 =   2022-11-19T17:06:00.518   2216496853.715
RECEIVE_FREQ_1 =   2022-11-19T17:06:10.541   2216496852.115
RECEIVE_FREQ_1 =   2022-11-19T17:06:20.477   2216496850.715
RECEIVE_FREQ_1 =   2022-11-19T17:06:30.499   2216496849.7
RECEIVE_FREQ_1 =   2022-11-19T17:06:40.522   2216496848.015
RECEIVE_FREQ_1 =   2022-11-19T17:06:50.544   2216496846.615
RECEIVE_FREQ_1 =   2022-11-19T17:07:00.480   2216496845.215
RECEIVE_FREQ_1 =   2022-11-19T17:07:10.502   2216496844.115
RECEIVE_FREQ_1 =   2022-11-19T17:07:20.525   2216496842.615
RECEIVE_FREQ_1 =   2022-11-19T17:07:30.547   2216496841.315
RECEIVE_FREQ_1 =   2022-11-19T17:07:40.483   2216496840.215
RECEIVE_FREQ_1 =   2022-11-19T17:07:50.506   2216496838.515
RECEIVE_FREQ_1 =   2022-11-19T17:08:00.528   2216496837.215
RECEIVE_FREQ_1 =   2022-11-19T17:08:10.550   2216496836.115
RECEIVE_FREQ_1 =   2022-11-19T17:08:20.486   2216496834.315
RECEIVE_FREQ_1 =   2022-11-19T17:08:30.509   2216496832.915
RECEIVE_FREQ_1 =   2022-11-19T17:08:40.531   2216496831.815
RECEIVE_FREQ_1 =   2022-11-19T17:08:50.467   2216496830.215
RECEIVE_FREQ_1 =   2022-11-19T17:09:00.490   2216496828.915
RECEIVE_FREQ_1 =   2022-11-19T17:09:10.512   2216496827.615
RECEIVE_FREQ_1 =   2022-11-19T17:09:20.534   2216496826.015
RECEIVE_FREQ_1 =   2022-11-19T17:09:30.557   2216496824.815
RECEIVE_FREQ_1 =   2022-11-19T17:09:40.493   2216496823.815
RECEIVE_FREQ_1 =   2022-11-19T17:09:50.515   2216496822.215
RECEIVE_FREQ_1 =   2022-11-19T17:10:00.538   2216496821.115
RECEIVE_FREQ_1 =   2022-11-19T17:10:10.474   2216496819.715
RECEIVE_FREQ_1 =   2022-11-19T17:10:20.496   2216496818.215
RECEIVE_FREQ_1 =   2022-11-19T17:10:30.518   2216496817.115
RECEIVE_FREQ_1 =   2022-11-19T17:10:40.541   2216496815.515
RECEIVE_FREQ_1 =   2022-11-19T17:10:50.477   2216496814.415
RECEIVE_FREQ_1 =   2022-11-19T17:11:00.499   2216496812.915
RECEIVE_FREQ_1 =   2022-11-19T17:11:10.522   2216496811.415
RECEIVE_FREQ_1 =   2022-11-19T17:11:20.544   2216496810.515
RECEIVE_FREQ_1 =   2022-11-19T17:11:30.480   2216496808.715
RECEIVE_FREQ_1 =   2022-11-19T17:11:40.502   2216496807.515
RECEIVE_FREQ_1 =   2022-11-19T17:11:50.525   2216496806.315
RECEIVE_FREQ_1 =   2022-11-19T17:12:00.547   2216496804.715
RECEIVE_FREQ_1 =   2022-11-19T17:12:10.483   2216496803.015
RECEIVE_FREQ_1 =   2022-11-19T17:12:20.506   2216496802.215
RECEIVE_FREQ_1 =   2022-11-19T17:12:30.528   2216496800.715
RECEIVE_FREQ_1 =   2022-11-19T17:12:40.550   2216496799.715
RECEIVE_FREQ_1 =   2022-11-19T17:12:50.486   2216496798.215
RECEIVE_FREQ_1 =   2022-11-19T17:13:00.509   2216496796.315
RECEIVE_FREQ_1 =   2022-11-19T17:13:10.531   2216496795.015
RECEIVE_FREQ_1 =   2022-11-19T17:13:20.467   2216496793.715
RECEIVE_FREQ_1 =   2022-11-19T17:13:30.490   2216496792.715
RECEIVE_FREQ_1 =   2022-11-19T17:13:40.512   2216496791.115
RECEIVE_FREQ_1 =   2022-11-19T17:13:50.534   2216496789.715
RECEIVE_FREQ_1 =   2022-11-19T17:14:00.470   2216496788.415
RECEIVE_FREQ_1 =   2022-11-19T17:14:10.493   2216496786.715
RECEIVE_FREQ_1 =   2022-11-19T17:14:20.515   2216496785.915
RECEIVE_FREQ_1 =   2022-11-19T17:14:30.538   2216496784.015
RECEIVE_FREQ_1 =   2022-11-19T17:14:40.474   2216496782.715
RECEIVE_FREQ_1 =   2022-11-19T17:14:50.496   2216496781.315
RECEIVE_FREQ_1 =   2022-11-19T17:15:00.518   2216496780.515
RECEIVE_FREQ_1 =   2022-11-19T17:15:10.541   2216496778.815
RECEIVE_FREQ_1 =   2022-11-19T17:15:20.477   2216496777.515
RECEIVE_FREQ_1 =   2022-11-19T17:15:30.499   2216496776.215
RECEIVE_FREQ_1 =   2022-11-19T17:15:40.522   2216496774.815
RECEIVE_FREQ_1 =   2022-11-19T17:16:00.480   2216496772.615
RECEIVE_FREQ_1 =   2022-11-19T17:16:10.502   2216496770.715
RECEIVE_FREQ_1 =   2022-11-19T17:16:20.525   2216496769.615
RECEIVE_FREQ_1 =   2022-11-19T17:16:40.483   2216496766.415
RECEIVE_FREQ_1 =   2022-11-19T17:16:50.506   2216496765.015
RECEIVE_FREQ_1 =   2022-11-19T17:17:00.528   2216496763.915
RECEIVE_FREQ_1 =   2022-11-19T17:17:20.486   2216496761.015
RECEIVE_FREQ_1 =   2022-11-19T17:17:30.509   2216496760.215
RECEIVE_FREQ_1 =   2022-11-19T17:17:40.531   2216496758.415
RECEIVE_FREQ_1 =   2022-11-19T17:17:50.467   2216496757.315
RECEIVE_FREQ_1 =   2022-11-19T17:18:00.490   2216496755.315
RECEIVE_FREQ_1 =   2022-11-19T17:18:10.512   2216496754.715
RECEIVE_FREQ_1 =   2022-11-19T17:18:20.534   2216496752.915
RECEIVE_FREQ_1 =   2022-11-19T17:18:30.470   2216496751.415
RECEIVE_FREQ_1 =   2022-11-19T17:18:40.493   2216496749.815
RECEIVE_FREQ_1 =   2022-11-19T17:18:50.515   2216496748.615
RECEIVE_FREQ_1 =   2022-11-19T17:19:00.538   2216496747.315
RECEIVE_FREQ_1 =   2022-11-19T17:19:10.474   2216496745.915
RECEIVE_FREQ_1 =   2022-11-19T17:19:20.496   2216496744.915
RECEIVE_FREQ_1 =   2022-11-19T17:19:30.518   2216496743.115
RECEIVE_FREQ_1 =   2022-11-19T17:19:40.541   2216496742.015
RECEIVE_FREQ_1 =   2022-11-19T17:19:50.477   2216496740.715
RECEIVE_FREQ_1 =   2022-11-19T17:20:00.499   2216496739.215
RECEIVE_FREQ_1 =   2022-11-19T17:20:10.522   2216496737.515
RECEIVE_FREQ_1 =   2022-11-19T17:20:20.544   2216496736.415
RECEIVE_FREQ_1 =   2022-11-19T17:20:30.480   2216496735.2
RECEIVE_FREQ_1 =   2022-11-19T17:20:40.502   2216496733.715
RECEIVE_FREQ_1 =   2022-11-19T17:20:50.525   2216496732.215
RECEIVE_FREQ_1 =   2022-11-19T17:21:00.547   2216496730.2
RECEIVE_FREQ_1 =   2022-11-19T17:21:10.483   2216496729.515
