data/tdm/2022-12-01Z_2022-156A.tdm

CCSDS_TDM_VERS = 2.0
COMMENT TDM ARTEMIS 1 Doppler data by Scott Tilley for 2022-12-01 UTC
COMMENT Signal not demodulated, to low of SNR, centre carrier integrated in 10s by 0.1Hz bin and extracted for peak value.
CREATION_DATE = 2022-12-01Z
ORIGINATOR = SCOTT TILLEY

META_START
COMMENT 
COMMENT 
SYSTEM TIME = UTC
PARTICIPANT_1 = COSPAR 8049
PARTICIPANT_2 = 2022-156A
MODE = SEQUENTIAL
PATH = 2,1
INTEGRATION_INTERVAL = 10
INTEGRATION_REF = MIDDLE
FREQ_OFFSET = 0
TRANSMIT_DELAY_1 = 0
RECEIVE_DELAY_1 = 0
DATA_QUALITY = RAW
META_STOP

DATA_START
RECEIVE_FREQ_1 =   2022-12-01T22:41:06.403   2216502353.5
RECEIVE_FREQ_1 =   2022-12-01T22:41:36.470   2216502351.3
RECEIVE_FREQ_1 =   2022-12-01T22:41:46.406   2216502350.7
RECEIVE_FREQ_1 =   2022-12-01T22:41:56.429   2216502349.6
RECEIVE_FREQ_1 =   2022-12-01T22:42:06.451   2216502349.6
RECEIVE_FREQ_1 =   2022-12-01T22:42:16.387   2216502348.5
RECEIVE_FREQ_1 =   2022-12-01T22:43:06.413   2216502345.0
RECEIVE_FREQ_1 =   2022-12-01T22:43:16.435   2216502344.2
RECEIVE_FREQ_1 =   2022-12-01T22:43:36.394   2216502342.4
RECEIVE_FREQ_1 =   2022-12-01T22:43:46.416   2216502342.1
RECEIVE_FREQ_1 =   2022-12-01T22:43:56.438   2216502341.3
RECEIVE_FREQ_1 =   2022-12-01T22:44:06.461   2216502340.8
RECEIVE_FREQ_1 =   2022-12-01T22:44:16.397   2216502340.0
RECEIVE_FREQ_1 =   2022-12-01T22:44:26.419   2216502339.3
RECEIVE_FREQ_1 =   2022-12-01T22:45:06.422   2216502336.2
RECEIVE_FREQ_1 =   2022-12-01T22:46:36.451   2216502330.4
RECEIVE_FREQ_1 =   2022-12-01T22:47:46.435   2216502324.5
RECEIVE_FREQ_1 =   2022-12-01T22:47:56.458   2216502323.9
RECEIVE_FREQ_1 =   2022-12-01T22:48:16.416   2216502322.1
RECEIVE_FREQ_1 =   2022-12-01T22:48:26.438   2216502321.2
RECEIVE_FREQ_1 =   2022-12-01T22:49:36.422   2216502315.7
RECEIVE_FREQ_1 =   2022-12-01T22:50:26.448   2216502311.9
RECEIVE_FREQ_1 =   2022-12-01T22:51:16.387   2216502308.2
RECEIVE_FREQ_1 =   2022-12-01T22:51:36.432   2216502306.1
RECEIVE_FREQ_1 =   2022-12-01T22:51:46.454   2216502305.3
RECEIVE_FREQ_1 =   2022-12-01T22:52:06.413   2216502303.9
RECEIVE_FREQ_1 =   2022-12-01T22:52:36.394   2216502301.4
RECEIVE_FREQ_1 =   2022-12-01T22:53:36.442   2216502296.5
RECEIVE_FREQ_1 =   2022-12-01T22:53:46.464   2216502295.5
RECEIVE_FREQ_1 =   2022-12-01T22:54:06.422   2216502293.8
RECEIVE_FREQ_1 =   2022-12-01T22:54:16.445   2216502293.0
RECEIVE_FREQ_1 =   2022-12-01T22:54:26.381   2216502292.0
RECEIVE_FREQ_1 =   2022-12-01T22:54:36.403   2216502291.2
RECEIVE_FREQ_1 =   2022-12-01T22:54:56.448   2216502289.5
RECEIVE_FREQ_1 =   2022-12-01T22:55:06.470   2216502288.7
RECEIVE_FREQ_1 =   2022-12-01T22:55:16.406   2216502287.8
RECEIVE_FREQ_1 =   2022-12-01T22:55:26.429   2216502287.2
RECEIVE_FREQ_1 =   2022-12-01T22:55:36.451   2216502286.0
RECEIVE_FREQ_1 =   2022-12-01T22:55:46.387   2216502285.4
RECEIVE_FREQ_1 =   2022-12-01T22:56:16.454   2216502282.8
RECEIVE_FREQ_1 =   2022-12-01T22:56:26.390   2216502282.1
RECEIVE_FREQ_1 =   2022-12-01T22:56:36.413   2216502281.1
RECEIVE_FREQ_1 =   2022-12-01T22:56:46.435   2216502280.1
RECEIVE_FREQ_1 =   2022-12-01T22:57:16.416   2216502277.4
RECEIVE_FREQ_1 =   2022-12-01T22:57:56.419   2216502274.0
RECEIVE_FREQ_1 =   2022-12-01T22:58:06.442   2216502273.0
RECEIVE_FREQ_1 =   2022-12-01T22:58:16.464   2216502272.3
RECEIVE_FREQ_1 =   2022-12-01T22:58:26.400   2216502271.1
RECEIVE_FREQ_1 =   2022-12-01T22:58:36.422   2216502270.5
RECEIVE_FREQ_1 =   2022-12-01T22:58:46.445   2216502269.4
RECEIVE_FREQ_1 =   2022-12-01T22:58:56.467   2216502268.6
RECEIVE_FREQ_1 =   2022-12-01T22:59:06.403   2216502267.8
RECEIVE_FREQ_1 =   2022-12-01T22:59:16.426   2216502266.6
RECEIVE_FREQ_1 =   2022-12-01T22:59:26.448   2216502265.9
RECEIVE_FREQ_1 =   2022-12-01T22:59:36.384   2216502264.9
RECEIVE_FREQ_1 =   2022-12-01T22:59:46.406   2216502263.9
RECEIVE_FREQ_1 =   2022-12-01T22:59:56.429   2216502263.1
RECEIVE_FREQ_1 =   2022-12-01T23:00:06.451   2216502262.3
RECEIVE_FREQ_1 =   2022-12-01T23:00:16.387   2216502261.5
RECEIVE_FREQ_1 =   2022-12-01T23:00:26.410   2216502260.9
RECEIVE_FREQ_1 =   2022-12-01T23:00:36.432   2216502260.0
RECEIVE_FREQ_1 =   2022-12-01T23:00:46.454   2216502259.3
RECEIVE_FREQ_1 =   2022-12-01T23:00:56.390   2216502258.5
RECEIVE_FREQ_1 =   2022-12-01T23:01:06.413   2216502257.8
RECEIVE_FREQ_1 =   2022-12-01T23:01:16.435   2216502256.8
RECEIVE_FREQ_1 =   2022-12-01T23:01:26.458   2216502256.1
RECEIVE_FREQ_1 =   2022-12-01T23:01:36.394   2216502255.1
RECEIVE_FREQ_1 =   2022-12-01T23:01:46.416   2216502254.6
RECEIVE_FREQ_1 =   2022-12-01T23:01:56.438   2216502254.0
RECEIVE_FREQ_1 =   2022-12-01T23:02:06.461   2216502252.8
RECEIVE_FREQ_1 =   2022-12-01T23:02:16.397   2216502251.9
RECEIVE_FREQ_1 =   2022-12-01T23:02:26.419   2216502251.2
RECEIVE_FREQ_1 =   2022-12-01T23:02:36.442   2216502250.4
RECEIVE_FREQ_1 =   2022-12-01T23:02:46.378   2216502249.9
RECEIVE_FREQ_1 =   2022-12-01T23:02:56.400   2216502248.8
RECEIVE_FREQ_1 =   2022-12-01T23:03:06.422   2216502247.9
RECEIVE_FREQ_1 =   2022-12-01T23:03:16.445   2216502247.4
RECEIVE_FREQ_1 =   2022-12-01T23:03:26.467   2216502246.4
RECEIVE_FREQ_1 =   2022-12-01T23:03:36.403   2216502245.5
RECEIVE_FREQ_1 =   2022-12-01T23:03:46.426   2216502244.7
RECEIVE_FREQ_1 =   2022-12-01T23:03:56.448   2216502244.0
RECEIVE_FREQ_1 =   2022-12-01T23:04:06.384   2216502243.2
RECEIVE_FREQ_1 =   2022-12-01T23:04:16.406   2216502242.2
RECEIVE_FREQ_1 =   2022-12-01T23:04:26.429   2216502241.3
RECEIVE_FREQ_1 =   2022-12-01T23:04:36.451   2216502240.8
RECEIVE_FREQ_1 =   2022-12-01T23:04:46.387   2216502239.7
RECEIVE_FREQ_1 =   2022-12-01T23:04:56.410   2216502238.8
RECEIVE_FREQ_1 =   2022-12-01T23:05:06.432   2216502238.3
RECEIVE_FREQ_1 =   2022-12-01T23:05:16.454   2216502237.4
RECEIVE_FREQ_1 =   2022-12-01T23:05:26.390   2216502236.3
RECEIVE_FREQ_1 =   2022-12-01T23:05:36.413   2216502235.4
RECEIVE_FREQ_1 =   2022-12-01T23:05:46.435   2216502234.6
RECEIVE_FREQ_1 =   2022-12-01T23:05:56.458   2216502233.8
RECEIVE_FREQ_1 =   2022-12-01T23:06:06.394   2216502233.2
RECEIVE_FREQ_1 =   2022-12-01T23:06:16.416   2216502232.2
RECEIVE_FREQ_1 =   2022-12-01T23:06:26.438   2216502231.5
RECEIVE_FREQ_1 =   2022-12-01T23:06:36.461   2216502230.6
RECEIVE_FREQ_1 =   2022-12-01T23:06:46.397   2216502229.7
RECEIVE_FREQ_1 =   2022-12-01T23:06:56.419   2216502228.8
RECEIVE_FREQ_1 =   2022-12-01T23:07:06.442   2216502227.9
RECEIVE_FREQ_1 =   2022-12-01T23:07:16.464   2216502227.2
RECEIVE_FREQ_1 =   2022-12-01T23:07:26.400   2216502226.2
RECEIVE_FREQ_1 =   2022-12-01T23:07:36.422   2216502225.4
RECEIVE_FREQ_1 =   2022-12-01T23:07:46.445   2216502224.3
RECEIVE_FREQ_1 =   2022-12-01T23:07:56.467   2216502223.6
RECEIVE_FREQ_1 =   2022-12-01T23:08:06.403   2216502222.5
RECEIVE_FREQ_1 =   2022-12-01T23:08:16.426   2216502222.0
RECEIVE_FREQ_1 =   2022-12-01T23:08:26.448   2216502221.1
RECEIVE_FREQ_1 =   2022-12-01T23:08:36.384   2216502220.1
RECEIVE_FREQ_1 =   2022-12-01T23:08:46.406   2216502219.1
RECEIVE_FREQ_1 =   2022-12-01T23:08:56.429   2216502218.4
RECEIVE_FREQ_1 =   2022-12-01T23:09:06.451   2216502217.6
RECEIVE_FREQ_1 =   2022-12-01T23:09:16.387   2216502216.8
RECEIVE_FREQ_1 =   2022-12-01T23:09:26.410   2216502215.9
RECEIVE_FREQ_1 =   2022-12-01T23:09:36.432   2216502215.0
RECEIVE_FREQ_1 =   2022-12-01T23:09:46.454   2216502214.1
RECEIVE_FREQ_1 =   2022-12-01T23:09:56.390   2216502213.0
RECEIVE_FREQ_1 =   2022-12-01T23:10:06.413   2216502212.3
RECEIVE_FREQ_1 =   2022-12-01T23:10:16.435   2216502211.3
RECEIVE_FREQ_1 =   2022-12-01T23:10:26.458   2216502210.4
RECEIVE_FREQ_1 =   2022-12-01T23:10:36.394   2216502209.7
RECEIVE_FREQ_1 =   2022-12-01T23:10:46.416   2216502208.3
RECEIVE_FREQ_1 =   2022-12-01T23:10:56.438   2216502207.7
RECEIVE_FREQ_1 =   2022-12-01T23:11:06.461   2216502206.9
RECEIVE_FREQ_1 =   2022-12-01T23:11:16.397   2216502206.1
RECEIVE_FREQ_1 =   2022-12-01T23:11:26.419   2216502205.2
RECEIVE_FREQ_1 =   2022-12-01T23:11:36.442   2216502204.1
RECEIVE_FREQ_1 =   2022-12-01T23:11:46.464   2216502203.2
RECEIVE_FREQ_1 =   2022-12-01T23:11:56.400   2216502202.5
RECEIVE_FREQ_1 =   2022-12-01T23:12:06.422   2216502201.6
RECEIVE_FREQ_1 =   2022-12-01T23:12:16.445   2216502200.5
RECEIVE_FREQ_1 =   2022-12-01T23:12:26.467   2216502199.6
RECEIVE_FREQ_1 =   2022-12-01T23:12:36.403   2216502199.0
RECEIVE_FREQ_1 =   2022-12-01T23:12:46.426   2216502197.7
RECEIVE_FREQ_1 =   2022-12-01T23:12:56.448   2216502196.7
RECEIVE_FREQ_1 =   2022-12-01T23:13:06.384   2216502195.8
RECEIVE_FREQ_1 =   2022-12-01T23:13:16.406   2216502194.9
RECEIVE_FREQ_1 =   2022-12-01T23:13:26.429   2216502194.0
RECEIVE_FREQ_1 =   2022-12-01T23:13:36.451   2216502193.2
RECEIVE_FREQ_1 =   2022-12-01T23:13:46.474   2216502192.4
RECEIVE_FREQ_1 =   2022-12-01T23:13:56.410   2216502191.145
RECEIVE_FREQ_1 =   2022-12-01T23:14:06.432   2216502190.4
RECEIVE_FREQ_1 =   2022-12-01T23:14:16.454   2216502189.7
RECEIVE_FREQ_1 =   2022-12-01T23:14:26.390   2216502188.3
RECEIVE_FREQ_1 =   2022-12-01T23:14:36.413   2216502187.4
RECEIVE_FREQ_1 =   2022-12-01T23:14:46.435   2216502186.7
RECEIVE_FREQ_1 =   2022-12-01T23:14:56.458   2216502185.7
RECEIVE_FREQ_1 =   2022-12-01T23:15:06.394   2216502184.8
RECEIVE_FREQ_1 =   2022-12-01T23:15:16.416   2216502183.8
RECEIVE_FREQ_1 =   2022-12-01T23:15:26.438   2216502182.8
RECEIVE_FREQ_1 =   2022-12-01T23:15:36.461   2216502181.8
RECEIVE_FREQ_1 =   2022-12-01T23:15:46.397   2216502180.8
RECEIVE_FREQ_1 =   2022-12-01T23:15:56.419   2216502180.0
RECEIVE_FREQ_1 =   2022-12-01T23:16:06.442   2216502179.0
RECEIVE_FREQ_1 =   2022-12-01T23:16:16.464   2216502177.8
RECEIVE_FREQ_1 =   2022-12-01T23:16:26.400   2216502177.1
RECEIVE_FREQ_1 =   2022-12-01T23:16:36.422   2216502176.5
RECEIVE_FREQ_1 =   2022-12-01T23:16:46.445   2216502175.0
RECEIVE_FREQ_1 =   2022-12-01T23:16:56.381   2216502174.4
RECEIVE_FREQ_1 =   2022-12-01T23:17:06.403   2216502173.1
RECEIVE_FREQ_1 =   2022-12-01T23:17:16.426   2216502172.4
RECEIVE_FREQ_1 =   2022-12-01T23:17:26.448   2216502171.3
RECEIVE_FREQ_1 =   2022-12-01T23:17:36.470   2216502170.1
RECEIVE_FREQ_1 =   2022-12-01T23:17:46.406   2216502169.3
RECEIVE_FREQ_1 =   2022-12-01T23:17:56.429   2216502168.1
RECEIVE_FREQ_1 =   2022-12-01T23:18:06.451   2216502167.2
RECEIVE_FREQ_1 =   2022-12-01T23:18:16.387   2216502166.5
RECEIVE_FREQ_1 =   2022-12-01T23:18:26.410   2216502165.2
RECEIVE_FREQ_1 =   2022-12-01T23:18:36.432   2216502164.7
RECEIVE_FREQ_1 =   2022-12-01T23:18:46.454   2216502163.5
RECEIVE_FREQ_1 =   2022-12-01T23:18:56.477   2216502162.5
RECEIVE_FREQ_1 =   2022-12-01T23:19:06.413   2216502161.4
RECEIVE_FREQ_1 =   2022-12-01T23:19:16.435   2216502160.7
RECEIVE_FREQ_1 =   2022-12-01T23:19:26.458   2216502159.3
RECEIVE_FREQ_1 =   2022-12-01T23:19:36.480   2216502158.1
RECEIVE_FREQ_1 =   2022-12-01T23:19:46.416   2216502157.4
RECEIVE_FREQ_1 =   2022-12-01T23:19:56.438   2216502156.5
RECEIVE_FREQ_1 =   2022-12-01T23:20:06.461   2216502155.7
RECEIVE_FREQ_1 =   2022-12-01T23:20:16.397   2216502154.5
RECEIVE_FREQ_1 =   2022-12-01T23:20:26.419   2216502153.3
RECEIVE_FREQ_1 =   2022-12-01T23:20:36.442   2216502152.2
RECEIVE_FREQ_1 =   2022-12-01T23:20:46.464   2216502151.5
RECEIVE_FREQ_1 =   2022-12-01T23:20:56.400   2216502150.4
RECEIVE_FREQ_1 =   2022-12-01T23:21:06.422   2216502149.6
RECEIVE_FREQ_1 =   2022-12-01T23:21:16.445   2216502148.1
RECEIVE_FREQ_1 =   2022-12-01T23:21:26.467   2216502147.3
RECEIVE_FREQ_1 =   2022-12-01T23:21:36.403   2216502146.2
RECEIVE_FREQ_1 =   2022-12-01T23:21:46.426   2216502145.3
RECEIVE_FREQ_1 =   2022-12-01T23:21:56.448   2216502144.3
RECEIVE_FREQ_1 =   2022-12-01T23:22:06.470   2216502143.5
RECEIVE_FREQ_1 =   2022-12-01T23:22:16.493   2216502142.6
RECEIVE_FREQ_1 =   2022-12-01T23:22:26.429   2216502141.6
RECEIVE_FREQ_1 =   2022-12-01T23:22:36.451   2216502140.6
RECEIVE_FREQ_1 =   2022-12-01T23:22:46.474   2216502139.6
RECEIVE_FREQ_1 =   2022-12-01T23:22:56.496   2216502139.1
RECEIVE_FREQ_1 =   2022-12-01T23:23:06.518   2216502137.9
RECEIVE_FREQ_1 =   2022-12-01T23:23:16.454   2216502137.1
RECEIVE_FREQ_1 =   2022-12-01T23:23:26.477   2216502136.1
RECEIVE_FREQ_1 =   2022-12-01T23:23:36.413   2216502135.4
RECEIVE_FREQ_1 =   2022-12-01T23:23:46.435   2216502134.4
RECEIVE_FREQ_1 =   2022-12-01T23:23:56.458   2216502133.5
RECEIVE_FREQ_1 =   2022-12-01T23:24:06.394   2216502132.8
RECEIVE_FREQ_1 =   2022-12-01T23:24:16.416   2216502131.8
RECEIVE_FREQ_1 =   2022-12-01T23:24:26.438   2216502130.7
RECEIVE_FREQ_1 =   2022-12-01T23:24:36.461   2216502130.0
RECEIVE_FREQ_1 =   2022-12-01T23:24:46.483   2216502129.1
RECEIVE_FREQ_1 =   2022-12-01T23:24:56.419   2216502127.9
RECEIVE_FREQ_1 =   2022-12-01T23:25:06.442   2216502127.1
RECEIVE_FREQ_1 =   2022-12-01T23:25:16.464   2216502126.2
RECEIVE_FREQ_1 =   2022-12-01T23:25:26.400   2216502125.3
RECEIVE_FREQ_1 =   2022-12-01T23:25:36.422   2216502124.4
RECEIVE_FREQ_1 =   2022-12-01T23:25:46.445   2216502123.5
RECEIVE_FREQ_1 =   2022-12-01T23:25:56.467   2216502122.5
RECEIVE_FREQ_1 =   2022-12-01T23:26:06.403   2216502121.3
RECEIVE_FREQ_1 =   2022-12-01T23:26:16.426   2216502120.4
RECEIVE_FREQ_1 =   2022-12-01T23:26:26.448   2216502119.6
RECEIVE_FREQ_1 =   2022-12-01T23:26:36.470   2216502118.5
RECEIVE_FREQ_1 =   2022-12-01T23:26:46.493   2216502117.8
RECEIVE_FREQ_1 =   2022-12-01T23:26:56.429   2216502116.8
RECEIVE_FREQ_1 =   2022-12-01T23:27:06.451   2216502115.9
RECEIVE_FREQ_1 =   2022-12-01T23:27:16.474   2216502115.0
RECEIVE_FREQ_1 =   2022-12-01T23:27:26.496   2216502114.0
RECEIVE_FREQ_1 =   2022-12-01T23:27:36.432   2216502112.9
RECEIVE_FREQ_1 =   2022-12-01T23:27:46.454   2216502112.0
RECEIVE_FREQ_1 =   2022-12-01T23:27:56.477   2216502111.1
RECEIVE_FREQ_1 =   2022-12-01T23:28:06.413   2216502110.3
RECEIVE_FREQ_1 =   2022-12-01T23:28:16.435   2216502109.0
RECEIVE_FREQ_1 =   2022-12-01T23:28:26.458   2216502108.5
RECEIVE_FREQ_1 =   2022-12-01T23:28:36.480   2216502107.1
RECEIVE_FREQ_1 =   2022-12-01T23:28:46.416   2216502106.3
RECEIVE_FREQ_1 =   2022-12-01T23:28:56.438   2216502105.3
RECEIVE_FREQ_1 =   2022-12-01T23:29:06.461   2216502104.3
RECEIVE_FREQ_1 =   2022-12-01T23:29:16.397   2216502103.4
RECEIVE_FREQ_1 =   2022-12-01T23:29:26.419   2216502102.4
RECEIVE_FREQ_1 =   2022-12-01T23:29:36.442   2216502101.4
RECEIVE_FREQ_1 =   2022-12-01T23:29:46.464   2216502100.4
RECEIVE_FREQ_1 =   2022-12-01T23:29:56.400   2216502099.4
RECEIVE_FREQ_1 =   2022-12-01T23:30:06.422   2216502098.4
RECEIVE_FREQ_1 =   2022-12-01T23:30:16.445   2216502097.7
RECEIVE_FREQ_1 =   2022-12-01T23:30:26.467   2216502096.2
RECEIVE_FREQ_1 =   2022-12-01T23:30:36.403   2216502095.3
RECEIVE_FREQ_1 =   2022-12-01T23:30:46.426   2216502094.7
RECEIVE_FREQ_1 =   2022-12-01T23:30:56.448   2216502093.7
RECEIVE_FREQ_1 =   2022-12-01T23:31:06.470   2216502092.6
RECEIVE_FREQ_1 =   2022-12-01T23:31:16.406   2216502091.5
RECEIVE_FREQ_1 =   2022-12-01T23:31:26.429   2216502090.7
RECEIVE_FREQ_1 =   2022-12-01T23:31:36.451   2216502089.5
RECEIVE_FREQ_1 =   2022-12-01T23:31:46.474   2216502088.8
RECEIVE_FREQ_1 =   2022-12-01T23:31:56.410   2216502087.5
RECEIVE_FREQ_1 =   2022-12-01T23:32:06.432   2216502086.7
RECEIVE_FREQ_1 =   2022-12-01T23:32:16.454   2216502085.7
RECEIVE_FREQ_1 =   2022-12-01T23:32:26.477   2216502084.5
RECEIVE_FREQ_1 =   2022-12-01T23:32:36.413   2216502083.5
RECEIVE_FREQ_1 =   2022-12-01T23:32:46.435   2216502082.5
RECEIVE_FREQ_1 =   2022-12-01T23:32:56.458   2216502081.4
RECEIVE_FREQ_1 =   2022-12-01T23:33:06.394   2216502080.4
RECEIVE_FREQ_1 =   2022-12-01T23:33:16.416   2216502079.4
RECEIVE_FREQ_1 =   2022-12-01T23:33:26.438   2216502078.3
RECEIVE_FREQ_1 =   2022-12-01T23:33:36.461   2216502077.6
RECEIVE_FREQ_1 =   2022-12-01T23:33:46.397   2216502076.4
RECEIVE_FREQ_1 =   2022-12-01T23:33:56.419   2216502075.3
RECEIVE_FREQ_1 =   2022-12-01T23:34:06.442   2216502074.5
RECEIVE_FREQ_1 =   2022-12-01T23:34:16.464   2216502073.5
RECEIVE_FREQ_1 =   2022-12-01T23:34:26.400   2216502072.2
RECEIVE_FREQ_1 =   2022-12-01T23:34:36.422   2216502071.3
RECEIVE_FREQ_1 =   2022-12-01T23:34:46.445   2216502070.3
RECEIVE_FREQ_1 =   2022-12-01T23:34:56.467   2216502069.5
RECEIVE_FREQ_1 =   2022-12-01T23:35:06.403   2216502068.4
RECEIVE_FREQ_1 =   2022-12-01T23:35:16.426   2216502067.0
RECEIVE_FREQ_1 =   2022-12-01T23:35:26.448   2216502066.3
RECEIVE_FREQ_1 =   2022-12-01T23:35:36.470   2216502065.3
RECEIVE_FREQ_1 =   2022-12-01T23:35:46.406   2216502064.1
RECEIVE_FREQ_1 =   2022-12-01T23:35:56.429   2216502063.2
RECEIVE_FREQ_1 =   2022-12-01T23:36:06.451   2216502062.2
RECEIVE_FREQ_1 =   2022-12-01T23:36:16.387   2216502060.7
RECEIVE_FREQ_1 =   2022-12-01T23:36:26.410   2216502060.0
RECEIVE_FREQ_1 =   2022-12-01T23:36:36.432   2216502058.9
RECEIVE_FREQ_1 =   2022-12-01T23:36:46.454   2216502057.8
RECEIVE_FREQ_1 =   2022-12-01T23:36:56.477   2216502056.7
RECEIVE_FREQ_1 =   2022-12-01T23:37:06.413   2216502055.7
RECEIVE_FREQ_1 =   2022-12-01T23:37:16.435   2216502054.9
RECEIVE_FREQ_1 =   2022-12-01T23:37:26.458   2216502053.7
RECEIVE_FREQ_1 =   2022-12-01T23:37:36.480   2216502052.6
RECEIVE_FREQ_1 =   2022-12-01T23:37:46.416   2216502051.6
RECEIVE_FREQ_1 =   2022-12-01T23:37:56.438   2216502050.6
RECEIVE_FREQ_1 =   2022-12-01T23:38:06.461   2216502049.5
RECEIVE_FREQ_1 =   2022-12-01T23:38:16.397   2216502048.1
RECEIVE_FREQ_1 =   2022-12-01T23:38:26.419   2216502047.3
RECEIVE_FREQ_1 =   2022-12-01T23:38:36.442   2216502046.3
RECEIVE_FREQ_1 =   2022-12-01T23:38:46.464   2216502044.9
RECEIVE_FREQ_1 =   2022-12-01T23:38:56.400   2216502044.3
RECEIVE_FREQ_1 =   2022-12-01T23:39:06.422   2216502042.7
RECEIVE_FREQ_1 =   2022-12-01T23:39:16.445   2216502042.0
RECEIVE_FREQ_1 =   2022-12-01T23:39:26.467   2216502040.9
RECEIVE_FREQ_1 =   2022-12-01T23:39:36.403   2216502039.8
RECEIVE_FREQ_1 =   2022-12-01T23:39:46.426   2216502038.6
RECEIVE_FREQ_1 =   2022-12-01T23:39:56.448   2216502037.6
RECEIVE_FREQ_1 =   2022-12-01T23:40:06.470   2216502036.7
RECEIVE_FREQ_1 =   2022-12-01T23:40:16.406   2216502035.1
RECEIVE_FREQ_1 =   2022-12-01T23:40:26.429   2216502034.5
RECEIVE_FREQ_1 =   2022-12-01T23:40:36.451   2216502033.4
RECEIVE_FREQ_1 =   2022-12-01T23:40:46.474   2216502032.2
RECEIVE_FREQ_1 =   2022-12-01T23:40:56.496   2216502031.0
RECEIVE_FREQ_1 =   2022-12-01T23:41:06.518   2216502029.9
RECEIVE_FREQ_1 =   2022-12-01T23:41:16.454   2216502029.0
RECEIVE_FREQ_1 =   2022-12-01T23:41:26.390   2216502027.5
RECEIVE_FREQ_1 =   2022-12-01T23:41:36.413   2216502026.9
RECEIVE_FREQ_1 =   2022-12-01T23:41:46.435   2216502025.6
RECEIVE_FREQ_1 =   2022-12-01T23:41:56.458   2216502024.6
RECEIVE_FREQ_1 =   2022-12-01T23:42:06.394   2216502023.5
RECEIVE_FREQ_1 =   2022-12-01T23:42:16.416   2216502022.4
RECEIVE_FREQ_1 =   2022-12-01T23:42:26.438   2216502021.2
RECEIVE_FREQ_1 =   2022-12-01T23:42:36.461   2216502020.1
RECEIVE_FREQ_1 =   2022-12-01T23:42:46.397   2216502019.2
RECEIVE_FREQ_1 =   2022-12-01T23:42:56.419   2216502017.8
RECEIVE_FREQ_1 =   2022-12-01T23:43:06.442   2216502017.0
RECEIVE_FREQ_1 =   2022-12-01T23:43:16.464   2216502015.7
RECEIVE_FREQ_1 =   2022-12-01T23:43:26.400   2216502014.8
RECEIVE_FREQ_1 =   2022-12-01T23:43:36.422   2216502013.4
RECEIVE_FREQ_1 =   2022-12-01T23:43:46.445   2216502012.5
RECEIVE_FREQ_1 =   2022-12-01T23:43:56.467   2216502011.4
RECEIVE_FREQ_1 =   2022-12-01T23:44:06.490   2216502010.0
RECEIVE_FREQ_1 =   2022-12-01T23:44:16.426   2216502009.1
RECEIVE_FREQ_1 =   2022-12-01T23:44:26.448   2216502008.0
RECEIVE_FREQ_1 =   2022-12-01T23:44:36.470   2216502006.8
RECEIVE_FREQ_1 =   2022-12-01T23:44:46.406   2216502005.9
RECEIVE_FREQ_1 =   2022-12-01T23:44:56.429   2216502004.9
RECEIVE_FREQ_1 =   2022-12-01T23:45:06.451   2216502003.8
RECEIVE_FREQ_1 =   2022-12-01T23:45:16.387   2216502002.5
RECEIVE_FREQ_1 =   2022-12-01T23:45:26.410   2216502001.6
RECEIVE_FREQ_1 =   2022-12-01T23:45:36.432   2216502000.6
RECEIVE_FREQ_1 =   2022-12-01T23:45:46.454   2216501999.4
RECEIVE_FREQ_1 =   2022-12-01T23:45:56.390   2216501998.8
RECEIVE_FREQ_1 =   2022-12-01T23:46:06.413   2216501997.7
RECEIVE_FREQ_1 =   2022-12-01T23:46:16.435   2216501996.7
RECEIVE_FREQ_1 =   2022-12-01T23:46:26.458   2216501995.6
RECEIVE_FREQ_1 =   2022-12-01T23:46:36.394   2216501994.6
RECEIVE_FREQ_1 =   2022-12-01T23:46:46.416   2216501993.7
RECEIVE_FREQ_1 =   2022-12-01T23:46:56.438   2216501992.5
RECEIVE_FREQ_1 =   2022-12-01T23:47:06.461   2216501991.5
RECEIVE_FREQ_1 =   2022-12-01T23:47:16.397   2216501990.7
RECEIVE_FREQ_1 =   2022-12-01T23:47:26.419   2216501989.4
RECEIVE_FREQ_1 =   2022-12-01T23:47:36.442   2216501988.6
RECEIVE_FREQ_1 =   2022-12-01T23:47:46.464   2216501987.5
RECEIVE_FREQ_1 =   2022-12-01T23:47:56.400   2216501986.4
RECEIVE_FREQ_1 =   2022-12-01T23:48:06.422   2216501985.1
RECEIVE_FREQ_1 =   2022-12-01T23:48:16.445   2216501984.0
RECEIVE_FREQ_1 =   2022-12-01T23:48:26.467   2216501983.1
RECEIVE_FREQ_1 =   2022-12-01T23:48:36.403   2216501982.2
RECEIVE_FREQ_1 =   2022-12-01T23:48:46.426   2216501980.8
RECEIVE_FREQ_1 =   2022-12-01T23:48:56.448   2216501980.1
RECEIVE_FREQ_1 =   2022-12-01T23:49:06.384   2216501978.9
RECEIVE_FREQ_1 =   2022-12-01T23:49:16.406   2216501978.1
RECEIVE_FREQ_1 =   2022-12-01T23:49:26.429   2216501976.8
RECEIVE_FREQ_1 =   2022-12-01T23:49:36.451   2216501975.8
RECEIVE_FREQ_1 =   2022-12-01T23:49:46.387   2216501974.6
RECEIVE_FREQ_1 =   2022-12-01T23:49:56.410   2216501973.6
RECEIVE_FREQ_1 =   2022-12-01T23:50:06.432   2216501972.5
RECEIVE_FREQ_1 =   2022-12-01T23:50:16.454   2216501971.7
RECEIVE_FREQ_1 =   2022-12-01T23:50:26.390   2216501970.7
RECEIVE_FREQ_1 =   2022-12-01T23:50:36.413   2216501969.5
RECEIVE_FREQ_1 =   2022-12-01T23:50:46.435   2216501968.3
RECEIVE_FREQ_1 =   2022-12-01T23:50:56.458   2216501967.1
RECEIVE_FREQ_1 =   2022-12-01T23:51:06.480   2216501966.3
RECEIVE_FREQ_1 =   2022-12-01T23:51:16.416   2216501965.0
RECEIVE_FREQ_1 =   2022-12-01T23:51:26.438   2216501964.2
RECEIVE_FREQ_1 =   2022-12-01T23:51:36.461   2216501962.9
RECEIVE_FREQ_1 =   2022-12-01T23:51:46.483   2216501962.0
RECEIVE_FREQ_1 =   2022-12-01T23:51:56.419   2216501961.0
RECEIVE_FREQ_1 =   2022-12-01T23:52:06.442   2216501959.7
RECEIVE_FREQ_1 =   2022-12-01T23:52:16.464   2216501958.7
RECEIVE_FREQ_1 =   2022-12-01T23:52:26.400   2216501957.7
RECEIVE_FREQ_1 =   2022-12-01T23:52:36.422   2216501956.5
RECEIVE_FREQ_1 =   2022-12-01T23:52:46.445   2216501955.5
RECEIVE_FREQ_1 =   2022-12-01T23:52:56.467   2216501954.5
RECEIVE_FREQ_1 =   2022-12-01T23:53:06.403   2216501953.2
RECEIVE_FREQ_1 =   2022-12-01T23:53:16.426   2216501952.1
RECEIVE_FREQ_1 =   2022-12-01T23:53:26.448   2216501951.2
RECEIVE_FREQ_1 =   2022-12-01T23:53:36.470   2216501950.2
RECEIVE_FREQ_1 =   2022-12-01T23:53:46.406   2216501949.1
RECEIVE_FREQ_1 =   2022-12-01T23:53:56.429   2216501948.0
RECEIVE_FREQ_1 =   2022-12-01T23:54:06.451   2216501946.8
RECEIVE_FREQ_1 =   2022-12-01T23:54:16.474   2216501945.7
RECEIVE_FREQ_1 =   2022-12-01T23:54:26.410   2216501944.9
RECEIVE_FREQ_1 =   2022-12-01T23:54:36.432   2216501943.6
RECEIVE_FREQ_1 =   2022-12-01T23:54:46.454   2216501942.5
RECEIVE_FREQ_1 =   2022-12-01T23:54:56.477   2216501941.6
RECEIVE_FREQ_1 =   2022-12-01T23:55:06.413   2216501940.5
RECEIVE_FREQ_1 =   2022-12-01T23:55:16.435   2216501938.9
RECEIVE_FREQ_1 =   2022-12-01T23:55:26.458   2216501937.8
RECEIVE_FREQ_1 =   2022-12-01T23:55:36.480   2216501936.9
RECEIVE_FREQ_1 =   2022-12-01T23:55:46.416   2216501935.9
RECEIVE_FREQ_1 =   2022-12-01T23:55:56.438   2216501934.7
RECEIVE_FREQ_1 =   2022-12-01T23:56:06.461   2216501933.3
RECEIVE_FREQ_1 =   2022-12-01T23:56:16.397   2216501932.3
RECEIVE_FREQ_1 =   2022-12-01T23:56:26.419   2216501931.2
RECEIVE_FREQ_1 =   2022-12-01T23:56:36.442   2216501930.3
RECEIVE_FREQ_1 =   2022-12-01T23:56:46.464   2216501929.1
RECEIVE_FREQ_1 =   2022-12-01T23:56:56.400   2216501928.3
RECEIVE_FREQ_1 =   2022-12-01T23:57:06.422   2216501926.8
RECEIVE_FREQ_1 =   2022-12-01T23:57:16.445   2216501925.7
RECEIVE_FREQ_1 =   2022-12-01T23:57:26.467   2216501924.6
RECEIVE_FREQ_1 =   2022-12-01T23:57:36.403   2216501923.5
RECEIVE_FREQ_1 =   2022-12-01T23:57:46.426   2216501922.3
RECEIVE_FREQ_1 =   2022-12-01T23:57:56.448   2216501921.3
RECEIVE_FREQ_1 =   2022-12-01T23:58:06.470   2216501920.2
RECEIVE_FREQ_1 =   2022-12-01T23:58:16.406   2216501919.3
RECEIVE_FREQ_1 =   2022-12-01T23:58:26.429   2216501917.9
RECEIVE_FREQ_1 =   2022-12-01T23:58:36.451   2216501916.8
RECEIVE_FREQ_1 =   2022-12-01T23:58:46.474   2216501915.4
RECEIVE_FREQ_1 =   2022-12-01T23:58:56.410   2216501914.5
RECEIVE_FREQ_1 =   2022-12-01T23:59:06.432   2216501913.4
RECEIVE_FREQ_1 =   2022-12-01T23:59:16.454   2216501912.2
RECEIVE_FREQ_1 =   2022-12-01T23:59:26.477   2216501911.3
RECEIVE_FREQ_1 =   2022-12-01T23:59:36.413   2216501910.1
RECEIVE_FREQ_1 =   2022-12-01T23:59:46.435   2216501908.6
RECEIVE_FREQ_1 =   2022-12-01T23:59:56.458   2216501907.6
RECEIVE_FREQ_1 =   2022-12-02T00:00:06.394   2216501906.5
RECEIVE_FREQ_1 =   2022-12-02T00:00:16.416   2216501905.5
RECEIVE_FREQ_1 =   2022-12-02T00:00:26.438   2216501904.2
RECEIVE_FREQ_1 =   2022-12-02T00:00:36.461   2216501902.8
RECEIVE_FREQ_1 =   2022-12-02T00:00:46.397   2216501901.9
RECEIVE_FREQ_1 =   2022-12-02T00:00:56.419   2216501900.5
RECEIVE_FREQ_1 =   2022-12-02T00:01:06.442   2216501899.5
RECEIVE_FREQ_1 =   2022-12-02T00:01:16.464   2216501898.3
RECEIVE_FREQ_1 =   2022-12-02T00:01:26.400   2216501897.0
RECEIVE_FREQ_1 =   2022-12-02T00:01:36.422   2216501895.9
RECEIVE_FREQ_1 =   2022-12-02T00:01:46.445   2216501894.6
RECEIVE_FREQ_1 =   2022-12-02T00:01:56.467   2216501893.7
RECEIVE_FREQ_1 =   2022-12-02T00:02:06.403   2216501892.3
RECEIVE_FREQ_1 =   2022-12-02T00:02:16.426   2216501891.0
RECEIVE_FREQ_1 =   2022-12-02T00:02:26.448   2216501890.0
RECEIVE_FREQ_1 =   2022-12-02T00:02:36.384   2216501889.1
RECEIVE_FREQ_1 =   2022-12-02T00:02:46.406   2216501887.6
RECEIVE_FREQ_1 =   2022-12-02T00:02:56.429   2216501886.7
RECEIVE_FREQ_1 =   2022-12-02T00:03:06.451   2216501885.2
RECEIVE_FREQ_1 =   2022-12-02T00:03:16.387   2216501884.2
RECEIVE_FREQ_1 =   2022-12-02T00:03:26.410   2216501883.2
RECEIVE_FREQ_1 =   2022-12-02T00:03:36.432   2216501881.7
RECEIVE_FREQ_1 =   2022-12-02T00:03:46.454   2216501880.6
RECEIVE_FREQ_1 =   2022-12-02T00:03:56.390   2216501879.3
RECEIVE_FREQ_1 =   2022-12-02T00:04:06.413   2216501878.4
RECEIVE_FREQ_1 =   2022-12-02T00:04:16.435   2216501877.3
RECEIVE_FREQ_1 =   2022-12-02T00:04:26.458   2216501875.9
RECEIVE_FREQ_1 =   2022-12-02T00:04:36.394   2216501875.0
RECEIVE_FREQ_1 =   2022-12-02T00:04:46.416   2216501873.7
RECEIVE_FREQ_1 =   2022-12-02T00:04:56.438   2216501872.3
RECEIVE_FREQ_1 =   2022-12-02T00:05:06.461   2216501871.4
RECEIVE_FREQ_1 =   2022-12-02T00:05:16.397   2216501870.2
RECEIVE_FREQ_1 =   2022-12-02T00:05:26.419   2216501868.6
RECEIVE_FREQ_1 =   2022-12-02T00:05:36.442   2216501867.4
RECEIVE_FREQ_1 =   2022-12-02T00:05:46.464   2216501866.3
RECEIVE_FREQ_1 =   2022-12-02T00:05:56.400   2216501865.4
RECEIVE_FREQ_1 =   2022-12-02T00:06:06.422   2216501864.0
RECEIVE_FREQ_1 =   2022-12-02T00:06:16.445   2216501862.7
RECEIVE_FREQ_1 =   2022-12-02T00:06:26.467   2216501861.6
RECEIVE_FREQ_1 =   2022-12-02T00:06:36.403   2216501860.5
RECEIVE_FREQ_1 =   2022-12-02T00:06:46.426   2216501859.3
RECEIVE_FREQ_1 =   2022-12-02T00:06:56.448   2216501858.1
RECEIVE_FREQ_1 =   2022-12-02T00:07:06.470   2216501856.6
RECEIVE_FREQ_1 =   2022-12-02T00:07:16.406   2216501855.4
RECEIVE_FREQ_1 =   2022-12-02T00:07:26.429   2216501854.3
RECEIVE_FREQ_1 =   2022-12-02T00:07:36.451   2216501852.9
RECEIVE_FREQ_1 =   2022-12-02T00:07:46.474   2216501851.9
RECEIVE_FREQ_1 =   2022-12-02T00:07:56.410   2216501850.6
RECEIVE_FREQ_1 =   2022-12-02T00:08:06.432   2216501849.3
RECEIVE_FREQ_1 =   2022-12-02T00:08:16.454   2216501848.2
RECEIVE_FREQ_1 =   2022-12-02T00:08:26.390   2216501846.7
RECEIVE_FREQ_1 =   2022-12-02T00:08:36.413   2216501845.8
RECEIVE_FREQ_1 =   2022-12-02T00:08:46.435   2216501844.8
RECEIVE_FREQ_1 =   2022-12-02T00:08:56.458   2216501843.6
RECEIVE_FREQ_1 =   2022-12-02T00:09:06.394   2216501842.0
RECEIVE_FREQ_1 =   2022-12-02T00:09:16.416   2216501841.0
RECEIVE_FREQ_1 =   2022-12-02T00:09:26.438   2216501839.8
RECEIVE_FREQ_1 =   2022-12-02T00:09:36.461   2216501838.8
RECEIVE_FREQ_1 =   2022-12-02T00:09:46.397   2216501837.7
RECEIVE_FREQ_1 =   2022-12-02T00:09:56.419   2216501836.6
RECEIVE_FREQ_1 =   2022-12-02T00:10:06.442   2216501835.1
RECEIVE_FREQ_1 =   2022-12-02T00:10:16.464   2216501834.1
RECEIVE_FREQ_1 =   2022-12-02T00:10:26.400   2216501833.0
RECEIVE_FREQ_1 =   2022-12-02T00:10:36.422   2216501831.8
RECEIVE_FREQ_1 =   2022-12-02T00:10:46.445   2216501831.1
RECEIVE_FREQ_1 =   2022-12-02T00:10:56.467   2216501829.6
RECEIVE_FREQ_1 =   2022-12-02T00:11:06.403   2216501828.4
RECEIVE_FREQ_1 =   2022-12-02T00:11:16.426   2216501827.5
RECEIVE_FREQ_1 =   2022-12-02T00:11:26.448   2216501826.1
RECEIVE_FREQ_1 =   2022-12-02T00:11:36.470   2216501825.2
RECEIVE_FREQ_1 =   2022-12-02T00:11:46.406   2216501824.1
RECEIVE_FREQ_1 =   2022-12-02T00:11:56.429   2216501822.8
RECEIVE_FREQ_1 =   2022-12-02T00:12:06.451   2216501821.5
RECEIVE_FREQ_1 =   2022-12-02T00:12:16.474   2216501820.4
RECEIVE_FREQ_1 =   2022-12-02T00:12:26.410   2216501819.4
RECEIVE_FREQ_1 =   2022-12-02T00:12:36.432   2216501818.3
RECEIVE_FREQ_1 =   2022-12-02T00:12:46.454   2216501817.1
RECEIVE_FREQ_1 =   2022-12-02T00:12:56.477   2216501815.8
RECEIVE_FREQ_1 =   2022-12-02T00:13:06.413   2216501815.0
RECEIVE_FREQ_1 =   2022-12-02T00:13:16.435   2216501813.6
RECEIVE_FREQ_1 =   2022-12-02T00:13:26.458   2216501812.6
RECEIVE_FREQ_1 =   2022-12-02T00:13:36.394   2216501811.6
RECEIVE_FREQ_1 =   2022-12-02T00:13:46.416   2216501810.2
RECEIVE_FREQ_1 =   2022-12-02T00:13:56.438   2216501808.9
RECEIVE_FREQ_1 =   2022-12-02T00:14:06.461   2216501807.8
RECEIVE_FREQ_1 =   2022-12-02T00:14:16.397   2216501806.7
RECEIVE_FREQ_1 =   2022-12-02T00:14:26.419   2216501805.3
RECEIVE_FREQ_1 =   2022-12-02T00:14:36.442   2216501804.3
RECEIVE_FREQ_1 =   2022-12-02T00:14:46.464   2216501803.5
RECEIVE_FREQ_1 =   2022-12-02T00:14:56.400   2216501802.1
RECEIVE_FREQ_1 =   2022-12-02T00:15:06.422   2216501801.1
RECEIVE_FREQ_1 =   2022-12-02T00:15:16.445   2216501799.8
RECEIVE_FREQ_1 =   2022-12-02T00:15:26.467   2216501798.7
RECEIVE_FREQ_1 =   2022-12-02T00:15:36.490   2216501797.3
RECEIVE_FREQ_1 =   2022-12-02T00:15:46.426   2216501796.4
RECEIVE_FREQ_1 =   2022-12-02T00:15:56.448   2216501795.3
RECEIVE_FREQ_1 =   2022-12-02T00:16:06.470   2216501793.8
RECEIVE_FREQ_1 =   2022-12-02T00:16:16.406   2216501792.8
RECEIVE_FREQ_1 =   2022-12-02T00:16:26.429   2216501791.6
RECEIVE_FREQ_1 =   2022-12-02T00:16:36.451   2216501790.5
RECEIVE_FREQ_1 =   2022-12-02T00:16:46.387   2216501789.6
RECEIVE_FREQ_1 =   2022-12-02T00:16:56.410   2216501788.0
RECEIVE_FREQ_1 =   2022-12-02T00:17:06.432   2216501786.9
RECEIVE_FREQ_1 =   2022-12-02T00:17:16.454   2216501785.8
RECEIVE_FREQ_1 =   2022-12-02T00:17:26.390   2216501784.4
RECEIVE_FREQ_1 =   2022-12-02T00:17:36.413   2216501783.3
RECEIVE_FREQ_1 =   2022-12-02T00:17:46.435   2216501782.1
RECEIVE_FREQ_1 =   2022-12-02T00:17:56.458   2216501780.8
RECEIVE_FREQ_1 =   2022-12-02T00:18:06.394   2216501779.7
RECEIVE_FREQ_1 =   2022-12-02T00:18:16.416   2216501778.7
RECEIVE_FREQ_1 =   2022-12-02T00:18:26.438   2216501777.1
RECEIVE_FREQ_1 =   2022-12-02T00:18:36.461   2216501776.3
RECEIVE_FREQ_1 =   2022-12-02T00:18:46.397   2216501775.0
RECEIVE_FREQ_1 =   2022-12-02T00:18:56.419   2216501773.6
RECEIVE_FREQ_1 =   2022-12-02T00:19:06.442   2216501772.6
RECEIVE_FREQ_1 =   2022-12-02T00:19:16.464   2216501770.945
RECEIVE_FREQ_1 =   2022-12-02T00:19:26.486   2216501770.0
RECEIVE_FREQ_1 =   2022-12-02T00:19:36.422   2216501769.1
RECEIVE_FREQ_1 =   2022-12-02T00:19:46.445   2216501767.9
RECEIVE_FREQ_1 =   2022-12-02T00:19:56.467   2216501766.5
RECEIVE_FREQ_1 =   2022-12-02T00:20:06.490   2216501765.2
RECEIVE_FREQ_1 =   2022-12-02T00:20:16.426   2216501764.4
RECEIVE_FREQ_1 =   2022-12-02T00:20:26.448   2216501762.9
RECEIVE_FREQ_1 =   2022-12-02T00:20:36.470   2216501761.8
RECEIVE_FREQ_1 =   2022-12-02T00:20:46.406   2216501760.7
RECEIVE_FREQ_1 =   2022-12-02T00:20:56.429   2216501759.5
RECEIVE_FREQ_1 =   2022-12-02T00:21:06.451   2216501758.0
RECEIVE_FREQ_1 =   2022-12-02T00:21:16.474   2216501756.8
RECEIVE_FREQ_1 =   2022-12-02T00:21:26.496   2216501755.8
RECEIVE_FREQ_1 =   2022-12-02T00:21:36.432   2216501754.4
RECEIVE_FREQ_1 =   2022-12-02T00:21:46.454   2216501752.9
RECEIVE_FREQ_1 =   2022-12-02T00:21:56.477   2216501752.0
RECEIVE_FREQ_1 =   2022-12-02T00:22:06.499   2216501750.9
RECEIVE_FREQ_1 =   2022-12-02T00:22:16.435   2216501749.6
RECEIVE_FREQ_1 =   2022-12-02T00:22:26.458   2216501748.3
RECEIVE_FREQ_1 =   2022-12-02T00:22:36.394   2216501747.4
RECEIVE_FREQ_1 =   2022-12-02T00:22:46.416   2216501745.5
RECEIVE_FREQ_1 =   2022-12-02T00:22:56.438   2216501744.5
RECEIVE_FREQ_1 =   2022-12-02T00:23:06.461   2216501743.245
RECEIVE_FREQ_1 =   2022-12-02T00:23:16.397   2216501742.3
RECEIVE_FREQ_1 =   2022-12-02T00:23:26.419   2216501741.1
RECEIVE_FREQ_1 =   2022-12-02T00:23:36.442   2216501739.5
RECEIVE_FREQ_1 =   2022-12-02T00:23:46.464   2216501738.4
RECEIVE_FREQ_1 =   2022-12-02T00:23:56.400   2216501737.0
RECEIVE_FREQ_1 =   2022-12-02T00:24:06.422   2216501735.9
RECEIVE_FREQ_1 =   2022-12-02T00:24:16.445   2216501734.6
RECEIVE_FREQ_1 =   2022-12-02T00:24:26.467   2216501733.5
RECEIVE_FREQ_1 =   2022-12-02T00:24:36.403   2216501732.1
RECEIVE_FREQ_1 =   2022-12-02T00:24:46.426   2216501730.9
RECEIVE_FREQ_1 =   2022-12-02T00:24:56.448   2216501730.0
RECEIVE_FREQ_1 =   2022-12-02T00:25:06.470   2216501728.7
RECEIVE_FREQ_1 =   2022-12-02T00:25:16.406   2216501727.4
RECEIVE_FREQ_1 =   2022-12-02T00:25:26.429   2216501725.7
RECEIVE_FREQ_1 =   2022-12-02T00:25:36.451   2216501725.1
RECEIVE_FREQ_1 =   2022-12-02T00:25:46.474   2216501723.445
RECEIVE_FREQ_1 =   2022-12-02T00:25:56.410   2216501722.245
RECEIVE_FREQ_1 =   2022-12-02T00:26:06.432   2216501721.0
RECEIVE_FREQ_1 =   2022-12-02T00:26:16.454   2216501719.8
RECEIVE_FREQ_1 =   2022-12-02T00:26:26.477   2216501718.5
RECEIVE_FREQ_1 =   2022-12-02T00:26:36.499   2216501717.2
RECEIVE_FREQ_1 =   2022-12-02T00:26:46.435   2216501716.3
RECEIVE_FREQ_1 =   2022-12-02T00:26:56.458   2216501714.7
RECEIVE_FREQ_1 =   2022-12-02T00:27:06.394   2216501713.8
RECEIVE_FREQ_1 =   2022-12-02T00:27:16.416   2216501712.1
RECEIVE_FREQ_1 =   2022-12-02T00:27:26.438   2216501710.9
RECEIVE_FREQ_1 =   2022-12-02T00:27:36.461   2216501709.8
RECEIVE_FREQ_1 =   2022-12-02T00:27:46.397   2216501708.3
RECEIVE_FREQ_1 =   2022-12-02T00:27:56.419   2216501707.1
RECEIVE_FREQ_1 =   2022-12-02T00:28:06.442   2216501706.3
RECEIVE_FREQ_1 =   2022-12-02T00:28:16.464   2216501704.6
RECEIVE_FREQ_1 =   2022-12-02T00:28:26.400   2216501703.6
RECEIVE_FREQ_1 =   2022-12-02T00:28:36.422   2216501702.1
RECEIVE_FREQ_1 =   2022-12-02T00:28:46.445   2216501700.8
RECEIVE_FREQ_1 =   2022-12-02T00:28:56.467   2216501699.6
RECEIVE_FREQ_1 =   2022-12-02T00:29:06.403   2216501698.4
RECEIVE_FREQ_1 =   2022-12-02T00:29:16.426   2216501696.9
RECEIVE_FREQ_1 =   2022-12-02T00:29:26.448   2216501695.7
RECEIVE_FREQ_1 =   2022-12-02T00:29:36.470   2216501694.6
RECEIVE_FREQ_1 =   2022-12-02T00:29:46.406   2216501692.845
RECEIVE_FREQ_1 =   2022-12-02T00:29:56.429   2216501692.1
RECEIVE_FREQ_1 =   2022-12-02T00:30:06.451   2216501690.7
RECEIVE_FREQ_1 =   2022-12-02T00:30:16.474   2216501689.3
RECEIVE_FREQ_1 =   2022-12-02T00:30:26.410   2216501688.0
RECEIVE_FREQ_1 =   2022-12-02T00:30:36.432   2216501686.645
RECEIVE_FREQ_1 =   2022-12-02T00:30:46.454   2216501685.1
RECEIVE_FREQ_1 =   2022-12-02T00:30:56.477   2216501684.0
RECEIVE_FREQ_1 =   2022-12-02T00:31:06.413   2216501682.8
RECEIVE_FREQ_1 =   2022-12-02T00:31:16.435   2216501681.7
RECEIVE_FREQ_1 =   2022-12-02T00:31:26.458   2216501680.0
RECEIVE_FREQ_1 =   2022-12-02T00:31:36.394   2216501679.1
RECEIVE_FREQ_1 =   2022-12-02T00:31:46.416   2216501677.2
RECEIVE_FREQ_1 =   2022-12-02T00:31:56.438   2216501676.3
RECEIVE_FREQ_1 =   2022-12-02T00:32:06.461   2216501675.1
RECEIVE_FREQ_1 =   2022-12-02T00:32:16.483   2216501673.3
RECEIVE_FREQ_1 =   2022-12-02T00:32:26.419   2216501672.4
RECEIVE_FREQ_1 =   2022-12-02T00:32:36.442   2216501671.0
RECEIVE_FREQ_1 =   2022-12-02T00:32:46.464   2216501669.7
RECEIVE_FREQ_1 =   2022-12-02T00:32:56.486   2216501668.4
RECEIVE_FREQ_1 =   2022-12-02T00:33:06.422   2216501667.3
RECEIVE_FREQ_1 =   2022-12-02T00:33:16.445   2216501666.2
RECEIVE_FREQ_1 =   2022-12-02T00:33:26.467   2216501664.6
RECEIVE_FREQ_1 =   2022-12-02T00:33:36.490   2216501663.1
RECEIVE_FREQ_1 =   2022-12-02T00:33:46.426   2216501662.2
RECEIVE_FREQ_1 =   2022-12-02T00:33:56.448   2216501661.0
RECEIVE_FREQ_1 =   2022-12-02T00:34:06.470   2216501659.6
RECEIVE_FREQ_1 =   2022-12-02T00:34:16.493   2216501658.4
RECEIVE_FREQ_1 =   2022-12-02T00:34:26.429   2216501657.0
RECEIVE_FREQ_1 =   2022-12-02T00:34:36.451   2216501655.7
RECEIVE_FREQ_1 =   2022-12-02T00:34:46.474   2216501654.3
RECEIVE_FREQ_1 =   2022-12-02T00:34:56.410   2216501652.7
RECEIVE_FREQ_1 =   2022-12-02T00:35:06.432   2216501651.4
RECEIVE_FREQ_1 =   2022-12-02T00:35:16.454   2216501649.8
RECEIVE_FREQ_1 =   2022-12-02T00:35:26.477   2216501648.9
RECEIVE_FREQ_1 =   2022-12-02T00:35:36.413   2216501647.045
RECEIVE_FREQ_1 =   2022-12-02T00:35:46.435   2216501645.8
RECEIVE_FREQ_1 =   2022-12-02T00:35:56.458   2216501645.3
RECEIVE_FREQ_1 =   2022-12-02T00:36:06.394   2216501643.6
RECEIVE_FREQ_1 =   2022-12-02T00:36:16.416   2216501642.3
RECEIVE_FREQ_1 =   2022-12-02T00:36:26.438   2216501641.4
RECEIVE_FREQ_1 =   2022-12-02T00:36:36.461   2216501639.9
RECEIVE_FREQ_1 =   2022-12-02T00:36:46.397   2216501638.445
RECEIVE_FREQ_1 =   2022-12-02T00:36:56.419   2216501637.6
RECEIVE_FREQ_1 =   2022-12-02T00:37:06.442   2216501636.2
RECEIVE_FREQ_1 =   2022-12-02T00:37:16.464   2216501635.2
RECEIVE_FREQ_1 =   2022-12-02T00:37:26.400   2216501633.8
RECEIVE_FREQ_1 =   2022-12-02T00:37:36.422   2216501632.8
RECEIVE_FREQ_1 =   2022-12-02T00:37:46.445   2216501631.3
RECEIVE_FREQ_1 =   2022-12-02T00:37:56.467   2216501630.0
RECEIVE_FREQ_1 =   2022-12-02T00:38:06.403   2216501628.8
RECEIVE_FREQ_1 =   2022-12-02T00:38:16.426   2216501627.7
RECEIVE_FREQ_1 =   2022-12-02T00:38:26.448   2216501626.4
RECEIVE_FREQ_1 =   2022-12-02T00:38:36.470   2216501625.2
RECEIVE_FREQ_1 =   2022-12-02T00:38:46.406   2216501623.9
RECEIVE_FREQ_1 =   2022-12-02T00:38:56.429   2216501622.7
RECEIVE_FREQ_1 =   2022-12-02T00:39:06.451   2216501621.5
RECEIVE_FREQ_1 =   2022-12-02T00:39:16.387   2216501620.2
RECEIVE_FREQ_1 =   2022-12-02T00:39:26.410   2216501619.1
RECEIVE_FREQ_1 =   2022-12-02T00:39:36.432   2216501617.6
RECEIVE_FREQ_1 =   2022-12-02T00:39:46.454   2216501616.7
RECEIVE_FREQ_1 =   2022-12-02T00:39:56.390   2216501615.2
RECEIVE_FREQ_1 =   2022-12-02T00:40:06.413   2216501613.8
RECEIVE_FREQ_1 =   2022-12-02T00:40:16.435   2216501612.7
RECEIVE_FREQ_1 =   2022-12-02T00:40:26.458   2216501611.8
RECEIVE_FREQ_1 =   2022-12-02T00:40:36.394   2216501609.8
RECEIVE_FREQ_1 =   2022-12-02T00:40:46.416   2216501608.9
RECEIVE_FREQ_1 =   2022-12-02T00:40:56.525   2216501607.5
RECEIVE_FREQ_1 =   2022-12-02T00:41:06.461   2216501606.1
RECEIVE_FREQ_1 =   2022-12-02T00:41:16.397   2216501604.8
RECEIVE_FREQ_1 =   2022-12-02T00:41:26.419   2216501604.0
RECEIVE_FREQ_1 =   2022-12-02T00:41:36.442   2216501602.3
RECEIVE_FREQ_1 =   2022-12-02T00:41:46.464   2216501601.2
RECEIVE_FREQ_1 =   2022-12-02T00:41:56.400   2216501600.1
RECEIVE_FREQ_1 =   2022-12-02T00:42:06.422   2216501598.6
RECEIVE_FREQ_1 =   2022-12-02T00:42:16.445   2216501597.3
RECEIVE_FREQ_1 =   2022-12-02T00:42:26.381   2216501596.3
RECEIVE_FREQ_1 =   2022-12-02T00:42:36.403   2216501595.2
RECEIVE_FREQ_1 =   2022-12-02T00:42:46.426   2216501593.7
RECEIVE_FREQ_1 =   2022-12-02T00:42:56.448   2216501592.1
RECEIVE_FREQ_1 =   2022-12-02T00:43:06.470   2216501591.3
RECEIVE_FREQ_1 =   2022-12-02T00:43:16.406   2216501589.7
RECEIVE_FREQ_1 =   2022-12-02T00:43:26.429   2216501588.6
RECEIVE_FREQ_1 =   2022-12-02T00:43:36.451   2216501587.3
RECEIVE_FREQ_1 =   2022-12-02T00:43:46.387   2216501586.0
RECEIVE_FREQ_1 =   2022-12-02T00:43:56.410   2216501584.5
RECEIVE_FREQ_1 =   2022-12-02T00:44:06.432   2216501583.4
RECEIVE_FREQ_1 =   2022-12-02T00:44:16.454   2216501582.1
RECEIVE_FREQ_1 =   2022-12-02T00:44:26.477   2216501580.8
RECEIVE_FREQ_1 =   2022-12-02T00:44:36.413   2216501579.8
RECEIVE_FREQ_1 =   2022-12-02T00:44:46.435   2216501578.3
RECEIVE_FREQ_1 =   2022-12-02T00:44:56.458   2216501577.2
RECEIVE_FREQ_1 =   2022-12-02T00:45:06.480   2216501575.7
RECEIVE_FREQ_1 =   2022-12-02T00:45:16.416   2216501574.3
RECEIVE_FREQ_1 =   2022-12-02T00:45:26.438   2216501573.2
RECEIVE_FREQ_1 =   2022-12-02T00:45:36.461   2216501571.7
RECEIVE_FREQ_1 =   2022-12-02T00:45:46.483   2216501570.5
RECEIVE_FREQ_1 =   2022-12-02T00:45:56.419   2216501569.0
RECEIVE_FREQ_1 =   2022-12-02T00:46:06.442   2216501568.2
RECEIVE_FREQ_1 =   2022-12-02T00:46:16.464   2216501566.645
RECEIVE_FREQ_1 =   2022-12-02T00:46:26.400   2216501565.5
RECEIVE_FREQ_1 =   2022-12-02T00:46:36.422   2216501564.0
RECEIVE_FREQ_1 =   2022-12-02T00:46:46.445   2216501562.8
RECEIVE_FREQ_1 =   2022-12-02T00:46:56.381   2216501561.5
RECEIVE_FREQ_1 =   2022-12-02T00:47:06.403   2216501560.1
RECEIVE_FREQ_1 =   2022-12-02T00:47:16.426   2216501558.9
RECEIVE_FREQ_1 =   2022-12-02T00:47:26.448   2216501557.5
RECEIVE_FREQ_1 =   2022-12-02T00:47:36.384   2216501556.5
RECEIVE_FREQ_1 =   2022-12-02T00:47:46.406   2216501555.145
RECEIVE_FREQ_1 =   2022-12-02T00:47:56.429   2216501553.6
RECEIVE_FREQ_1 =   2022-12-02T00:48:06.451   2216501552.3
RECEIVE_FREQ_1 =   2022-12-02T00:48:16.474   2216501550.8
RECEIVE_FREQ_1 =   2022-12-02T00:48:26.410   2216501549.8
RECEIVE_FREQ_1 =   2022-12-02T00:48:36.432   2216501548.145
RECEIVE_FREQ_1 =   2022-12-02T00:48:46.454   2216501546.945
RECEIVE_FREQ_1 =   2022-12-02T00:48:56.390   2216501545.645
RECEIVE_FREQ_1 =   2022-12-02T00:49:06.413   2216501544.9
RECEIVE_FREQ_1 =   2022-12-02T00:49:16.435   2216501543.1
RECEIVE_FREQ_1 =   2022-12-02T00:49:26.458   2216501542.145
RECEIVE_FREQ_1 =   2022-12-02T00:49:36.394   2216501540.5
RECEIVE_FREQ_1 =   2022-12-02T00:49:46.416   2216501539.7
RECEIVE_FREQ_1 =   2022-12-02T00:49:56.438   2216501537.8
RECEIVE_FREQ_1 =   2022-12-02T00:50:06.461   2216501536.4
RECEIVE_FREQ_1 =   2022-12-02T00:50:16.397   2216501535.2
RECEIVE_FREQ_1 =   2022-12-02T00:50:26.419   2216501534.0
RECEIVE_FREQ_1 =   2022-12-02T00:50:36.442   2216501532.6
RECEIVE_FREQ_1 =   2022-12-02T00:50:46.464   2216501531.4
RECEIVE_FREQ_1 =   2022-12-02T00:50:56.400   2216501529.945
RECEIVE_FREQ_1 =   2022-12-02T00:51:06.422   2216501528.5
RECEIVE_FREQ_1 =   2022-12-02T00:51:16.445   2216501527.1
RECEIVE_FREQ_1 =   2022-12-02T00:51:26.467   2216501525.9
RECEIVE_FREQ_1 =   2022-12-02T00:51:36.403   2216501524.5
RECEIVE_FREQ_1 =   2022-12-02T00:51:46.426   2216501523.6
RECEIVE_FREQ_1 =   2022-12-02T00:51:56.448   2216501521.9
RECEIVE_FREQ_1 =   2022-12-02T00:52:06.470   2216501520.345
RECEIVE_FREQ_1 =   2022-12-02T00:52:16.406   2216501519.7
RECEIVE_FREQ_1 =   2022-12-02T00:52:26.429   2216501518.1
RECEIVE_FREQ_1 =   2022-12-02T00:52:36.451   2216501516.5
RECEIVE_FREQ_1 =   2022-12-02T00:52:46.387   2216501514.9
RECEIVE_FREQ_1 =   2022-12-02T00:52:56.410   2216501513.9
RECEIVE_FREQ_1 =   2022-12-02T00:53:06.432   2216501512.7
RECEIVE_FREQ_1 =   2022-12-02T00:53:16.454   2216501511.3
RECEIVE_FREQ_1 =   2022-12-02T00:53:26.390   2216501510.3
RECEIVE_FREQ_1 =   2022-12-02T00:53:36.413   2216501508.8
RECEIVE_FREQ_1 =   2022-12-02T00:53:46.435   2216501507.2
RECEIVE_FREQ_1 =   2022-12-02T00:53:56.458   2216501505.7
RECEIVE_FREQ_1 =   2022-12-02T00:54:06.480   2216501504.5
RECEIVE_FREQ_1 =   2022-12-02T00:54:16.416   2216501503.3
RECEIVE_FREQ_1 =   2022-12-02T00:54:26.438   2216501502.045
RECEIVE_FREQ_1 =   2022-12-02T00:54:36.461   2216501500.8
RECEIVE_FREQ_1 =   2022-12-02T00:54:46.483   2216501499.2
RECEIVE_FREQ_1 =   2022-12-02T00:54:56.419   2216501497.9
RECEIVE_FREQ_1 =   2022-12-02T00:55:06.442   2216501496.3
RECEIVE_FREQ_1 =   2022-12-02T00:55:16.464   2216501495.0
RECEIVE_FREQ_1 =   2022-12-02T00:55:26.486   2216501493.9
RECEIVE_FREQ_1 =   2022-12-02T00:55:36.422   2216501492.5
RECEIVE_FREQ_1 =   2022-12-02T00:55:46.445   2216501491.3
RECEIVE_FREQ_1 =   2022-12-02T00:55:56.467   2216501489.8
RECEIVE_FREQ_1 =   2022-12-02T00:56:06.403   2216501488.0
RECEIVE_FREQ_1 =   2022-12-02T00:56:16.426   2216501487.0
RECEIVE_FREQ_1 =   2022-12-02T00:56:26.448   2216501485.5
RECEIVE_FREQ_1 =   2022-12-02T00:56:36.470   2216501484.0
RECEIVE_FREQ_1 =   2022-12-02T00:56:46.406   2216501483.0
RECEIVE_FREQ_1 =   2022-12-02T00:56:56.429   2216501481.7
RECEIVE_FREQ_1 =   2022-12-02T00:57:06.451   2216501480.1
RECEIVE_FREQ_1 =   2022-12-02T00:57:16.387   2216501479.0
RECEIVE_FREQ_1 =   2022-12-02T00:57:26.410   2216501477.3
RECEIVE_FREQ_1 =   2022-12-02T00:57:36.432   2216501476.2
RECEIVE_FREQ_1 =   2022-12-02T00:57:46.454   2216501474.8
RECEIVE_FREQ_1 =   2022-12-02T00:57:56.390   2216501473.6
RECEIVE_FREQ_1 =   2022-12-02T00:58:06.413   2216501471.9
RECEIVE_FREQ_1 =   2022-12-02T00:58:16.435   2216501470.6
RECEIVE_FREQ_1 =   2022-12-02T00:58:26.458   2216501469.3
RECEIVE_FREQ_1 =   2022-12-02T00:58:36.394   2216501467.8
RECEIVE_FREQ_1 =   2022-12-02T00:58:46.416   2216501466.3
RECEIVE_FREQ_1 =   2022-12-02T00:58:56.438   2216501464.8
RECEIVE_FREQ_1 =   2022-12-02T00:59:06.461   2216501463.6
RECEIVE_FREQ_1 =   2022-12-02T00:59:16.397   2216501462.2
RECEIVE_FREQ_1 =   2022-12-02T00:59:26.419   2216501460.9
RECEIVE_FREQ_1 =   2022-12-02T00:59:36.442   2216501459.4
RECEIVE_FREQ_1 =   2022-12-02T00:59:46.464   2216501458.1
RECEIVE_FREQ_1 =   2022-12-02T00:59:56.400   2216501456.7
RECEIVE_FREQ_1 =   2022-12-02T01:00:06.422   2216501455.5
RECEIVE_FREQ_1 =   2022-12-02T01:00:16.445   2216501454.1
RECEIVE_FREQ_1 =   2022-12-02T01:00:26.467   2216501452.745
RECEIVE_FREQ_1 =   2022-12-02T01:00:36.403   2216501451.5
RECEIVE_FREQ_1 =   2022-12-02T01:00:46.426   2216501449.7
RECEIVE_FREQ_1 =   2022-12-02T01:00:56.448   2216501448.5
RECEIVE_FREQ_1 =   2022-12-02T01:01:06.470   2216501447.1
RECEIVE_FREQ_1 =   2022-12-02T01:01:16.406   2216501445.9
RECEIVE_FREQ_1 =   2022-12-02T01:01:26.429   2216501444.6
RECEIVE_FREQ_1 =   2022-12-02T01:01:36.451   2216501443.1
RECEIVE_FREQ_1 =   2022-12-02T01:01:46.474   2216501441.6
RECEIVE_FREQ_1 =   2022-12-02T01:01:56.496   2216501440.5
RECEIVE_FREQ_1 =   2022-12-02T01:02:06.432   2216501439.0
RECEIVE_FREQ_1 =   2022-12-02T01:02:16.454   2216501437.6
RECEIVE_FREQ_1 =   2022-12-02T01:02:26.390   2216501435.9
RECEIVE_FREQ_1 =   2022-12-02T01:02:36.413   2216501434.5
RECEIVE_FREQ_1 =   2022-12-02T01:02:46.435   2216501433.2
RECEIVE_FREQ_1 =   2022-12-02T01:02:56.458   2216501432.2
RECEIVE_FREQ_1 =   2022-12-02T01:03:06.394   2216501430.7
RECEIVE_FREQ_1 =   2022-12-02T01:03:16.416   2216501429.2
RECEIVE_FREQ_1 =   2022-12-02T01:03:26.438   2216501427.4
RECEIVE_FREQ_1 =   2022-12-02T01:03:36.461   2216501426.1
RECEIVE_FREQ_1 =   2022-12-02T01:03:46.397   2216501424.8
RECEIVE_FREQ_1 =   2022-12-02T01:03:56.419   2216501423.8
RECEIVE_FREQ_1 =   2022-12-02T01:04:06.442   2216501421.9
RECEIVE_FREQ_1 =   2022-12-02T01:04:16.464   2216501420.7
RECEIVE_FREQ_1 =   2022-12-02T01:04:26.400   2216501419.3
RECEIVE_FREQ_1 =   2022-12-02T01:04:36.422   2216501418.1
RECEIVE_FREQ_1 =   2022-12-02T01:04:46.445   2216501416.5
RECEIVE_FREQ_1 =   2022-12-02T01:04:56.467   2216501414.8
RECEIVE_FREQ_1 =   2022-12-02T01:05:06.403   2216501413.7
RECEIVE_FREQ_1 =   2022-12-02T01:05:16.426   2216501412.2
RECEIVE_FREQ_1 =   2022-12-02T01:05:26.448   2216501410.8
RECEIVE_FREQ_1 =   2022-12-02T01:05:36.470   2216501409.6
RECEIVE_FREQ_1 =   2022-12-02T01:05:46.406   2216501408.1
RECEIVE_FREQ_1 =   2022-12-02T01:05:56.429   2216501406.6
RECEIVE_FREQ_1 =   2022-12-02T01:06:06.451   2216501405.0
RECEIVE_FREQ_1 =   2022-12-02T01:06:16.387   2216501404.0
RECEIVE_FREQ_1 =   2022-12-02T01:06:26.410   2216501402.4
RECEIVE_FREQ_1 =   2022-12-02T01:06:36.432   2216501401.4
RECEIVE_FREQ_1 =   2022-12-02T01:06:46.454   2216501400.0
RECEIVE_FREQ_1 =   2022-12-02T01:06:56.390   2216501398.745
RECEIVE_FREQ_1 =   2022-12-02T01:07:06.413   2216501397.6
RECEIVE_FREQ_1 =   2022-12-02T01:07:16.435   2216501395.9
RECEIVE_FREQ_1 =   2022-12-02T01:07:26.458   2216501394.4
RECEIVE_FREQ_1 =   2022-12-02T01:07:36.394   2216501393.5
RECEIVE_FREQ_1 =   2022-12-02T01:07:46.416   2216501392.1
RECEIVE_FREQ_1 =   2022-12-02T01:07:56.438   2216501390.5
RECEIVE_FREQ_1 =   2022-12-02T01:08:06.461   2216501388.9
RECEIVE_FREQ_1 =   2022-12-02T01:08:16.397   2216501387.7
RECEIVE_FREQ_1 =   2022-12-02T01:08:26.419   2216501386.7
RECEIVE_FREQ_1 =   2022-12-02T01:08:36.442   2216501385.4
RECEIVE_FREQ_1 =   2022-12-02T01:08:46.378   2216501383.9
RECEIVE_FREQ_1 =   2022-12-02T01:08:56.400   2216501382.6
RECEIVE_FREQ_1 =   2022-12-02T01:09:06.422   2216501381.1
RECEIVE_FREQ_1 =   2022-12-02T01:09:16.445   2216501379.7
RECEIVE_FREQ_1 =   2022-12-02T01:09:26.381   2216501378.4
RECEIVE_FREQ_1 =   2022-12-02T01:09:36.403   2216501376.9
RECEIVE_FREQ_1 =   2022-12-02T01:09:46.426   2216501375.8
RECEIVE_FREQ_1 =   2022-12-02T01:09:56.448   2216501374.5
RECEIVE_FREQ_1 =   2022-12-02T01:10:06.384   2216501373.2
RECEIVE_FREQ_1 =   2022-12-02T01:10:16.406   2216501371.8
RECEIVE_FREQ_1 =   2022-12-02T01:10:26.429   2216501370.3
RECEIVE_FREQ_1 =   2022-12-02T01:10:36.451   2216501369.0
RECEIVE_FREQ_1 =   2022-12-02T01:10:46.474   2216501367.6
RECEIVE_FREQ_1 =   2022-12-02T01:10:56.496   2216501366.2
RECEIVE_FREQ_1 =   2022-12-02T01:11:06.432   2216501365.3
RECEIVE_FREQ_1 =   2022-12-02T01:11:16.454   2216501363.4
RECEIVE_FREQ_1 =   2022-12-02T01:11:26.390   2216501362.345
RECEIVE_FREQ_1 =   2022-12-02T01:11:36.413   2216501361.045
RECEIVE_FREQ_1 =   2022-12-02T01:11:46.435   2216501359.6
RECEIVE_FREQ_1 =   2022-12-02T01:11:56.458   2216501358.3
RECEIVE_FREQ_1 =   2022-12-02T01:12:06.394   2216501357.3
RECEIVE_FREQ_1 =   2022-12-02T01:12:16.416   2216501355.4
RECEIVE_FREQ_1 =   2022-12-02T01:12:26.438   2216501354.2
RECEIVE_FREQ_1 =   2022-12-02T01:12:36.461   2216501352.9
RECEIVE_FREQ_1 =   2022-12-02T01:12:46.397   2216501351.4
RECEIVE_FREQ_1 =   2022-12-02T01:12:56.419   2216501350.0
RECEIVE_FREQ_1 =   2022-12-02T01:13:06.442   2216501348.6
RECEIVE_FREQ_1 =   2022-12-02T01:13:16.464   2216501347.1
RECEIVE_FREQ_1 =   2022-12-02T01:13:26.400   2216501346.0
RECEIVE_FREQ_1 =   2022-12-02T01:13:36.422   2216501344.6
RECEIVE_FREQ_1 =   2022-12-02T01:13:46.445   2216501343.4
RECEIVE_FREQ_1 =   2022-12-02T01:13:56.381   2216501341.6
RECEIVE_FREQ_1 =   2022-12-02T01:14:06.403   2216501340.2
RECEIVE_FREQ_1 =   2022-12-02T01:14:16.426   2216501339.1
RECEIVE_FREQ_1 =   2022-12-02T01:14:26.448   2216501337.8
RECEIVE_FREQ_1 =   2022-12-02T01:14:36.384   2216501336.3
RECEIVE_FREQ_1 =   2022-12-02T01:14:46.406   2216501335.0
RECEIVE_FREQ_1 =   2022-12-02T01:14:56.429   2216501333.7
RECEIVE_FREQ_1 =   2022-12-02T01:15:06.451   2216501332.4
RECEIVE_FREQ_1 =   2022-12-02T01:15:16.387   2216501330.8
RECEIVE_FREQ_1 =   2022-12-02T01:15:26.410   2216501329.4
RECEIVE_FREQ_1 =   2022-12-02T01:15:36.432   2216501328.3
RECEIVE_FREQ_1 =   2022-12-02T01:15:46.454   2216501326.7
RECEIVE_FREQ_1 =   2022-12-02T01:15:56.477   2216501325.4
RECEIVE_FREQ_1 =   2022-12-02T01:16:06.413   2216501323.9
RECEIVE_FREQ_1 =   2022-12-02T01:16:16.435   2216501322.6
RECEIVE_FREQ_1 =   2022-12-02T01:16:26.458   2216501321.0
RECEIVE_FREQ_1 =   2022-12-02T01:16:36.394   2216501319.6
RECEIVE_FREQ_1 =   2022-12-02T01:16:46.416   2216501318.9
RECEIVE_FREQ_1 =   2022-12-02T01:16:56.438   2216501316.8
RECEIVE_FREQ_1 =   2022-12-02T01:17:06.461   2216501315.6
RECEIVE_FREQ_1 =   2022-12-02T01:17:16.483   2216501314.5
RECEIVE_FREQ_1 =   2022-12-02T01:17:26.419   2216501312.6
RECEIVE_FREQ_1 =   2022-12-02T01:17:36.442   2216501311.645
RECEIVE_FREQ_1 =   2022-12-02T01:17:46.378   2216501310.3
RECEIVE_FREQ_1 =   2022-12-02T01:17:56.400   2216501308.6
RECEIVE_FREQ_1 =   2022-12-02T01:18:06.422   2216501307.1
RECEIVE_FREQ_1 =   2022-12-02T01:18:16.445   2216501305.9
RECEIVE_FREQ_1 =   2022-12-02T01:18:26.467   2216501304.3
RECEIVE_FREQ_1 =   2022-12-02T01:18:36.403   2216501303.3
RECEIVE_FREQ_1 =   2022-12-02T01:18:46.426   2216501301.7
RECEIVE_FREQ_1 =   2022-12-02T01:18:56.448   2216501300.3
RECEIVE_FREQ_1 =   2022-12-02T01:19:06.470   2216501298.945
RECEIVE_FREQ_1 =   2022-12-02T01:19:16.406   2216501297.7
RECEIVE_FREQ_1 =   2022-12-02T01:19:26.429   2216501296.0
RECEIVE_FREQ_1 =   2022-12-02T01:19:36.451   2216501295.0
RECEIVE_FREQ_1 =   2022-12-02T01:19:46.387   2216501293.4
RECEIVE_FREQ_1 =   2022-12-02T01:19:56.410   2216501292.1
RECEIVE_FREQ_1 =   2022-12-02T01:20:06.432   2216501290.6
RECEIVE_FREQ_1 =   2022-12-02T01:20:16.454   2216501289.2
RECEIVE_FREQ_1 =   2022-12-02T01:20:26.390   2216501287.8
RECEIVE_FREQ_1 =   2022-12-02T01:20:36.413   2216501286.5
RECEIVE_FREQ_1 =   2022-12-02T01:20:46.435   2216501285.1
RECEIVE_FREQ_1 =   2022-12-02T01:20:56.458   2216501283.4
RECEIVE_FREQ_1 =   2022-12-02T01:21:06.394   2216501282.5
RECEIVE_FREQ_1 =   2022-12-02T01:21:16.416   2216501280.9
RECEIVE_FREQ_1 =   2022-12-02T01:21:26.438   2216501279.7
RECEIVE_FREQ_1 =   2022-12-02T01:21:36.461   2216501278.0
RECEIVE_FREQ_1 =   2022-12-02T01:21:46.483   2216501276.745
RECEIVE_FREQ_1 =   2022-12-02T01:21:56.419   2216501275.1
RECEIVE_FREQ_1 =   2022-12-02T01:22:06.442   2216501274.0
RECEIVE_FREQ_1 =   2022-12-02T01:22:16.464   2216501272.2
RECEIVE_FREQ_1 =   2022-12-02T01:22:26.400   2216501271.145
RECEIVE_FREQ_1 =   2022-12-02T01:22:36.422   2216501269.845
RECEIVE_FREQ_1 =   2022-12-02T01:22:46.445   2216501268.1
RECEIVE_FREQ_1 =   2022-12-02T01:22:56.467   2216501266.9
RECEIVE_FREQ_1 =   2022-12-02T01:23:06.403   2216501265.0
RECEIVE_FREQ_1 =   2022-12-02T01:23:16.426   2216501263.6
RECEIVE_FREQ_1 =   2022-12-02T01:23:26.448   2216501262.2
RECEIVE_FREQ_1 =   2022-12-02T01:23:36.384   2216501261.3
RECEIVE_FREQ_1 =   2022-12-02T01:23:46.406   2216501260.1
RECEIVE_FREQ_1 =   2022-12-02T01:23:56.429   2216501258.3
RECEIVE_FREQ_1 =   2022-12-02T01:24:06.451   2216501256.4
RECEIVE_FREQ_1 =   2022-12-02T01:24:16.474   2216501255.6
RECEIVE_FREQ_1 =   2022-12-02T01:24:26.410   2216501253.6
RECEIVE_FREQ_1 =   2022-12-02T01:24:36.432   2216501252.4
RECEIVE_FREQ_1 =   2022-12-02T01:24:46.454   2216501251.0
RECEIVE_FREQ_1 =   2022-12-02T01:24:56.390   2216501249.9
RECEIVE_FREQ_1 =   2022-12-02T01:25:06.413   2216501248.0
RECEIVE_FREQ_1 =   2022-12-02T01:25:16.435   2216501246.9
RECEIVE_FREQ_1 =   2022-12-02T01:25:26.458   2216501245.5
RECEIVE_FREQ_1 =   2022-12-02T01:25:36.394   2216501244.2
RECEIVE_FREQ_1 =   2022-12-02T01:25:46.416   2216501242.6
RECEIVE_FREQ_1 =   2022-12-02T01:25:56.438   2216501241.2
RECEIVE_FREQ_1 =   2022-12-02T01:26:06.461   2216501239.8
RECEIVE_FREQ_1 =   2022-12-02T01:26:16.397   2216501238.045
RECEIVE_FREQ_1 =   2022-12-02T01:26:26.419   2216501236.745
RECEIVE_FREQ_1 =   2022-12-02T01:26:36.442   2216501235.5
RECEIVE_FREQ_1 =   2022-12-02T01:26:46.464   2216501234.0
RECEIVE_FREQ_1 =   2022-12-02T01:26:56.400   2216501232.7
RECEIVE_FREQ_1 =   2022-12-02T01:27:06.422   2216501231.1
RECEIVE_FREQ_1 =   2022-12-02T01:27:16.445   2216501229.7
RECEIVE_FREQ_1 =   2022-12-02T01:27:26.381   2216501228.0
RECEIVE_FREQ_1 =   2022-12-02T01:27:36.403   2216501227.2
RECEIVE_FREQ_1 =   2022-12-02T01:27:46.426   2216501225.8
RECEIVE_FREQ_1 =   2022-12-02T01:27:56.448   2216501223.945
RECEIVE_FREQ_1 =   2022-12-02T01:28:06.384   2216501222.7
RECEIVE_FREQ_1 =   2022-12-02T01:28:16.406   2216501221.1
RECEIVE_FREQ_1 =   2022-12-02T01:28:26.429   2216501219.6
RECEIVE_FREQ_1 =   2022-12-02T01:28:36.451   2216501218.6
RECEIVE_FREQ_1 =   2022-12-02T01:28:46.387   2216501216.9
RECEIVE_FREQ_1 =   2022-12-02T01:28:56.410   2216501215.6
RECEIVE_FREQ_1 =   2022-12-02T01:29:06.432   2216501214.2
RECEIVE_FREQ_1 =   2022-12-02T01:29:16.454   2216501212.7
RECEIVE_FREQ_1 =   2022-12-02T01:29:26.390   2216501211.1
RECEIVE_FREQ_1 =   2022-12-02T01:29:36.413   2216501209.5
RECEIVE_FREQ_1 =   2022-12-02T01:29:46.435   2216501208.4
RECEIVE_FREQ_1 =   2022-12-02T01:29:56.458   2216501207.1
RECEIVE_FREQ_1 =   2022-12-02T01:30:06.394   2216501205.2
RECEIVE_FREQ_1 =   2022-12-02T01:30:16.416   2216501203.9
RECEIVE_FREQ_1 =   2022-12-02T01:30:26.438   2216501202.4
RECEIVE_FREQ_1 =   2022-12-02T01:30:36.461   2216501201.0
RECEIVE_FREQ_1 =   2022-12-02T01:30:46.397   2216501199.3
RECEIVE_FREQ_1 =   2022-12-02T01:30:56.419   2216501198.0
RECEIVE_FREQ_1 =   2022-12-02T01:31:06.442   2216501196.7
RECEIVE_FREQ_1 =   2022-12-02T01:31:16.464   2216501195.6
RECEIVE_FREQ_1 =   2022-12-02T01:31:26.400   2216501193.7
RECEIVE_FREQ_1 =   2022-12-02T01:31:36.422   2216501192.1
RECEIVE_FREQ_1 =   2022-12-02T01:31:46.445   2216501190.9
RECEIVE_FREQ_1 =   2022-12-02T01:31:56.381   2216501189.445
RECEIVE_FREQ_1 =   2022-12-02T01:32:06.403   2216501188.145
RECEIVE_FREQ_1 =   2022-12-02T01:32:16.426   2216501186.4
RECEIVE_FREQ_1 =   2022-12-02T01:32:26.448   2216501185.0
RECEIVE_FREQ_1 =   2022-12-02T01:32:36.384   2216501183.5
RECEIVE_FREQ_1 =   2022-12-02T01:32:46.406   2216501182.2
RECEIVE_FREQ_1 =   2022-12-02T01:32:56.429   2216501180.9
RECEIVE_FREQ_1 =   2022-12-02T01:33:06.451   2216501178.9
RECEIVE_FREQ_1 =   2022-12-02T01:33:16.474   2216501177.9
RECEIVE_FREQ_1 =   2022-12-02T01:33:26.410   2216501176.4
RECEIVE_FREQ_1 =   2022-12-02T01:33:36.432   2216501175.045
RECEIVE_FREQ_1 =   2022-12-02T01:33:46.454   2216501173.545
RECEIVE_FREQ_1 =   2022-12-02T01:33:56.390   2216501172.1
RECEIVE_FREQ_1 =   2022-12-02T01:34:06.413   2216501170.145
RECEIVE_FREQ_1 =   2022-12-02T01:34:16.435   2216501169.245
RECEIVE_FREQ_1 =   2022-12-02T01:34:26.458   2216501167.545
RECEIVE_FREQ_1 =   2022-12-02T01:34:36.394   2216501166.3
RECEIVE_FREQ_1 =   2022-12-02T01:34:46.416   2216501164.8
RECEIVE_FREQ_1 =   2022-12-02T01:34:56.438   2216501163.445
RECEIVE_FREQ_1 =   2022-12-02T01:35:06.461   2216501161.7
RECEIVE_FREQ_1 =   2022-12-02T01:35:16.397   2216501160.6
RECEIVE_FREQ_1 =   2022-12-02T01:35:26.419   2216501158.9
RECEIVE_FREQ_1 =   2022-12-02T01:35:36.442   2216501157.645
RECEIVE_FREQ_1 =   2022-12-02T01:35:46.464   2216501155.945
RECEIVE_FREQ_1 =   2022-12-02T01:35:56.400   2216501154.5
RECEIVE_FREQ_1 =   2022-12-02T01:36:06.422   2216501153.145
RECEIVE_FREQ_1 =   2022-12-02T01:36:16.445   2216501151.3
RECEIVE_FREQ_1 =   2022-12-02T01:36:26.381   2216501150.545
RECEIVE_FREQ_1 =   2022-12-02T01:36:36.403   2216501148.5
RECEIVE_FREQ_1 =   2022-12-02T01:36:46.426   2216501147.1
RECEIVE_FREQ_1 =   2022-12-02T01:36:56.448   2216501146.1
RECEIVE_FREQ_1 =   2022-12-02T01:37:06.470   2216501144.445
RECEIVE_FREQ_1 =   2022-12-02T01:37:16.406   2216501142.945
RECEIVE_FREQ_1 =   2022-12-02T01:37:26.429   2216501141.4
RECEIVE_FREQ_1 =   2022-12-02T01:37:36.451   2216501139.9
RECEIVE_FREQ_1 =   2022-12-02T01:37:46.387   2216501138.445
RECEIVE_FREQ_1 =   2022-12-02T01:37:56.410   2216501137.045
RECEIVE_FREQ_1 =   2022-12-02T01:38:06.432   2216501135.5
RECEIVE_FREQ_1 =   2022-12-02T01:38:16.454   2216501133.845
RECEIVE_FREQ_1 =   2022-12-02T01:38:26.390   2216501132.545
RECEIVE_FREQ_1 =   2022-12-02T01:38:36.413   2216501131.1
RECEIVE_FREQ_1 =   2022-12-02T01:38:46.435   2216501129.645
RECEIVE_FREQ_1 =   2022-12-02T01:38:56.458   2216501127.745
RECEIVE_FREQ_1 =   2022-12-02T01:39:06.394   2216501126.6
RECEIVE_FREQ_1 =   2022-12-02T01:39:16.416   2216501125.045
RECEIVE_FREQ_1 =   2022-12-02T01:39:26.438   2216501123.845
RECEIVE_FREQ_1 =   2022-12-02T01:39:36.461   2216501122.4
RECEIVE_FREQ_1 =   2022-12-02T01:39:46.397   2216501121.145
RECEIVE_FREQ_1 =   2022-12-02T01:39:56.419   2216501119.3
RECEIVE_FREQ_1 =   2022-12-02T01:40:06.442   2216501117.7
RECEIVE_FREQ_1 =   2022-12-02T01:40:16.464   2216501116.2
RECEIVE_FREQ_1 =   2022-12-02T01:40:26.400   2216501114.6
RECEIVE_FREQ_1 =   2022-12-02T01:40:36.422   2216501113.4
RECEIVE_FREQ_1 =   2022-12-02T01:40:46.445   2216501111.9
RECEIVE_FREQ_1 =   2022-12-02T01:40:56.467   2216501110.2
