data/tdm/2022-11-21Z_2022-156A.tdm

CCSDS_TDM_VERS = 2.0
COMMENT TDM ARTEMIS 1 Doppler data by Scott Tilley for 2022-11-21 UTC
COMMENT Signal not demodulated, to low of SNR, centre carrier integrated in 10s by 0.1Hz bin and extracted for peak value.
CREATION_DATE = 2022-11-21Z
ORIGINATOR = SCOTT TILLEY

META_START
COMMENT 
COMMENT 
SYSTEM TIME = UTC
PARTICIPANT_1 = COSPAR 8049
PARTICIPANT_2 = 2022-156A
MODE = SEQUENTIAL
PATH = 2,1
INTEGRATION_INTERVAL = 10
INTEGRATION_REF = MIDDLE
FREQ_OFFSET = 0
TRANSMIT_DELAY_1 = 0
RECEIVE_DELAY_1 = 0
DATA_QUALITY = RAW
META_STOP

DATA_START
RECEIVE_FREQ_1 =   2022-11-21T14:38:06.029   2216508230.227
RECEIVE_FREQ_1 =   2022-11-21T14:38:16.483   2216508222.627
RECEIVE_FREQ_1 =   2022-11-21T14:38:58.387   2216508192.727
RECEIVE_FREQ_1 =   2022-11-21T14:39:08.842   2216508186.327
RECEIVE_FREQ_1 =   2022-11-21T14:39:19.296   2216508177.827
RECEIVE_FREQ_1 =   2022-11-21T14:39:50.746   2216508152.727
RECEIVE_FREQ_1 =   2022-11-21T14:40:01.200   2216508146.327
RECEIVE_FREQ_1 =   2022-11-21T14:40:11.741   2216508139.627
RECEIVE_FREQ_1 =   2022-11-21T14:40:22.195   2216508132.127
RECEIVE_FREQ_1 =   2022-11-21T14:40:32.736   2216508124.227
RECEIVE_FREQ_1 =   2022-11-21T14:40:43.190   2216508117.927
RECEIVE_FREQ_1 =   2022-11-21T14:40:53.645   2216508108.127
RECEIVE_FREQ_1 =   2022-11-21T14:41:25.094   2216508086.227
RECEIVE_FREQ_1 =   2022-11-21T14:41:35.635   2216508077.627
RECEIVE_FREQ_1 =   2022-11-21T14:41:46.090   2216508070.527
RECEIVE_FREQ_1 =   2022-11-21T14:41:56.544   2216508061.927
RECEIVE_FREQ_1 =   2022-11-21T14:42:06.998   2216508057.227
RECEIVE_FREQ_1 =   2022-11-21T14:42:17.453   2216508049.327
RECEIVE_FREQ_1 =   2022-11-21T14:42:27.907   2216508041.927
RECEIVE_FREQ_1 =   2022-11-21T14:42:38.448   2216508035.727
RECEIVE_FREQ_1 =   2022-11-21T14:42:48.989   2216508027.027
RECEIVE_FREQ_1 =   2022-11-21T14:43:09.898   2216508012.127
RECEIVE_FREQ_1 =   2022-11-21T14:43:20.352   2216508006.827
RECEIVE_FREQ_1 =   2022-11-21T14:43:30.893   2216507998.427
RECEIVE_FREQ_1 =   2022-11-21T14:43:41.347   2216507992.527
RECEIVE_FREQ_1 =   2022-11-21T14:43:51.802   2216507984.627
RECEIVE_FREQ_1 =   2022-11-21T14:44:02.256   2216507977.827
RECEIVE_FREQ_1 =   2022-11-21T14:44:12.710   2216507971.427
RECEIVE_FREQ_1 =   2022-11-21T14:44:23.251   2216507964.027
RECEIVE_FREQ_1 =   2022-11-21T14:44:33.706   2216507957.327
RECEIVE_FREQ_1 =   2022-11-21T14:44:44.246   2216507950.927
RECEIVE_FREQ_1 =   2022-11-21T14:45:15.696   2216507929.727
RECEIVE_FREQ_1 =   2022-11-21T14:45:26.237   2216507922.027
RECEIVE_FREQ_1 =   2022-11-21T14:45:47.146   2216507907.727
RECEIVE_FREQ_1 =   2022-11-21T14:45:57.600   2216507901.127
RECEIVE_FREQ_1 =   2022-11-21T14:46:18.509   2216507886.827
RECEIVE_FREQ_1 =   2022-11-21T14:46:28.963   2216507881.527
RECEIVE_FREQ_1 =   2022-11-21T14:46:49.958   2216507864.827
RECEIVE_FREQ_1 =   2022-11-21T14:47:00.413   2216507855.227
RECEIVE_FREQ_1 =   2022-11-21T14:47:10.867   2216507850.527
RECEIVE_FREQ_1 =   2022-11-21T14:47:21.322   2216507846.127
RECEIVE_FREQ_1 =   2022-11-21T15:13:44.342   2216506917.027
RECEIVE_FREQ_1 =   2022-11-21T15:14:05.251   2216506907.327
RECEIVE_FREQ_1 =   2022-11-21T15:14:15.792   2216506901.027
RECEIVE_FREQ_1 =   2022-11-21T15:14:26.246   2216506896.227
RECEIVE_FREQ_1 =   2022-11-21T15:14:36.701   2216506890.927
RECEIVE_FREQ_1 =   2022-11-21T15:14:47.155   2216506886.427
RECEIVE_FREQ_1 =   2022-11-21T15:14:57.696   2216506880.127
RECEIVE_FREQ_1 =   2022-11-21T15:15:08.150   2216506873.627
RECEIVE_FREQ_1 =   2022-11-21T15:15:18.605   2216506868.527
RECEIVE_FREQ_1 =   2022-11-21T15:15:39.600   2216506860.827
RECEIVE_FREQ_1 =   2022-11-21T15:15:50.141   2216506851.027
RECEIVE_FREQ_1 =   2022-11-21T15:16:32.045   2216506829.427
RECEIVE_FREQ_1 =   2022-11-21T15:16:42.499   2216506824.727
RECEIVE_FREQ_1 =   2022-11-21T15:17:13.949   2216506811.427
RECEIVE_FREQ_1 =   2022-11-21T15:17:24.403   2216506802.627
RECEIVE_FREQ_1 =   2022-11-21T15:17:45.398   2216506792.027
RECEIVE_FREQ_1 =   2022-11-21T15:17:55.853   2216506787.427
RECEIVE_FREQ_1 =   2022-11-21T15:18:06.394   2216506780.727
RECEIVE_FREQ_1 =   2022-11-21T15:18:16.848   2216506775.727
RECEIVE_FREQ_1 =   2022-11-21T15:18:27.302   2216506771.027
RECEIVE_FREQ_1 =   2022-11-21T15:18:37.843   2216506763.727
RECEIVE_FREQ_1 =   2022-11-21T15:18:48.384   2216506761.127
RECEIVE_FREQ_1 =   2022-11-21T15:18:58.925   2216506753.827
RECEIVE_FREQ_1 =   2022-11-21T15:19:09.379   2216506748.627
RECEIVE_FREQ_1 =   2022-11-21T15:19:19.920   2216506744.027
RECEIVE_FREQ_1 =   2022-11-21T15:19:30.374   2216506737.727
RECEIVE_FREQ_1 =   2022-11-21T15:19:51.370   2216506729.027
RECEIVE_FREQ_1 =   2022-11-21T15:20:01.824   2216506722.527
RECEIVE_FREQ_1 =   2022-11-21T15:20:12.278   2216506717.027
RECEIVE_FREQ_1 =   2022-11-21T15:20:22.733   2216506713.127
RECEIVE_FREQ_1 =   2022-11-21T15:20:33.187   2216506706.427
RECEIVE_FREQ_1 =   2022-11-21T15:20:43.728   2216506701.627
RECEIVE_FREQ_1 =   2022-11-21T15:20:54.182   2216506697.127
RECEIVE_FREQ_1 =   2022-11-21T15:21:04.637   2216506691.427
RECEIVE_FREQ_1 =   2022-11-21T15:21:15.091   2216506687.627
RECEIVE_FREQ_1 =   2022-11-21T15:21:25.546   2216506681.527
RECEIVE_FREQ_1 =   2022-11-21T15:21:36.000   2216506676.527
RECEIVE_FREQ_1 =   2022-11-21T15:21:46.454   2216506671.427
RECEIVE_FREQ_1 =   2022-11-21T15:21:56.909   2216506667.527
RECEIVE_FREQ_1 =   2022-11-21T15:22:07.363   2216506660.927
RECEIVE_FREQ_1 =   2022-11-21T15:22:17.904   2216506656.927
RECEIVE_FREQ_1 =   2022-11-21T15:22:28.358   2216506651.327
RECEIVE_FREQ_1 =   2022-11-21T15:22:38.899   2216506645.927
RECEIVE_FREQ_1 =   2022-11-21T15:22:49.354   2216506641.027
RECEIVE_FREQ_1 =   2022-11-21T15:22:59.808   2216506636.427
RECEIVE_FREQ_1 =   2022-11-21T15:23:10.349   2216506631.527
RECEIVE_FREQ_1 =   2022-11-21T15:23:20.803   2216506626.427
RECEIVE_FREQ_1 =   2022-11-21T15:23:31.258   2216506622.427
RECEIVE_FREQ_1 =   2022-11-21T15:23:41.798   2216506616.227
RECEIVE_FREQ_1 =   2022-11-21T15:23:52.253   2216506610.727
RECEIVE_FREQ_1 =   2022-11-21T15:24:02.794   2216506600.827
RECEIVE_FREQ_1 =   2022-11-21T15:24:13.334   2216506599.627
RECEIVE_FREQ_1 =   2022-11-21T15:24:44.784   2216506584.727
RECEIVE_FREQ_1 =   2022-11-21T15:24:55.238   2216506579.627
RECEIVE_FREQ_1 =   2022-11-21T15:25:05.693   2216506575.627
RECEIVE_FREQ_1 =   2022-11-21T15:25:16.234   2216506569.027
RECEIVE_FREQ_1 =   2022-11-21T15:25:37.229   2216506558.427
RECEIVE_FREQ_1 =   2022-11-21T15:25:47.683   2216506553.327
RECEIVE_FREQ_1 =   2022-11-21T15:25:58.224   2216506549.327
RECEIVE_FREQ_1 =   2022-11-21T15:26:08.765   2216506544.027
RECEIVE_FREQ_1 =   2022-11-21T15:26:19.219   2216506533.927
RECEIVE_FREQ_1 =   2022-11-21T15:27:01.210   2216506517.227
RECEIVE_FREQ_1 =   2022-11-21T15:27:43.114   2216506498.027
RECEIVE_FREQ_1 =   2022-11-21T15:27:53.654   2216506497.327
RECEIVE_FREQ_1 =   2022-11-21T15:28:04.195   2216506488.227
RECEIVE_FREQ_1 =   2022-11-21T15:28:14.650   2216506483.227
RECEIVE_FREQ_1 =   2022-11-21T15:28:25.104   2216506477.927
RECEIVE_FREQ_1 =   2022-11-21T15:28:35.645   2216506473.727
RECEIVE_FREQ_1 =   2022-11-21T15:28:56.554   2216506463.827
RECEIVE_FREQ_1 =   2022-11-21T15:29:07.008   2216506458.027
RECEIVE_FREQ_1 =   2022-11-21T15:29:17.462   2216506453.927
RECEIVE_FREQ_1 =   2022-11-21T15:29:27.917   2216506448.427
RECEIVE_FREQ_1 =   2022-11-21T15:29:38.458   2216506443.627
RECEIVE_FREQ_1 =   2022-11-21T15:29:48.912   2216506437.627
RECEIVE_FREQ_1 =   2022-11-21T15:29:59.453   2216506434.327
RECEIVE_FREQ_1 =   2022-11-21T15:30:20.362   2216506424.627
RECEIVE_FREQ_1 =   2022-11-21T15:30:30.902   2216506419.627
RECEIVE_FREQ_1 =   2022-11-21T15:30:41.357   2216506412.627
RECEIVE_FREQ_1 =   2022-11-21T15:30:51.898   2216506410.527
RECEIVE_FREQ_1 =   2022-11-21T15:31:02.352   2216506405.727
RECEIVE_FREQ_1 =   2022-11-21T15:31:12.806   2216506400.427
RECEIVE_FREQ_1 =   2022-11-21T15:31:23.261   2216506396.627
RECEIVE_FREQ_1 =   2022-11-21T15:31:33.802   2216506391.227
RECEIVE_FREQ_1 =   2022-11-21T15:31:44.256   2216506385.927
RECEIVE_FREQ_1 =   2022-11-21T15:31:54.710   2216506382.127
RECEIVE_FREQ_1 =   2022-11-21T15:32:05.165   2216506376.327
RECEIVE_FREQ_1 =   2022-11-21T15:32:15.706   2216506372.527
RECEIVE_FREQ_1 =   2022-11-21T15:32:26.160   2216506366.927
RECEIVE_FREQ_1 =   2022-11-21T15:38:54.096   2216506190.827
RECEIVE_FREQ_1 =   2022-11-21T15:39:04.637   2216506184.727
RECEIVE_FREQ_1 =   2022-11-21T15:39:15.091   2216506180.527
RECEIVE_FREQ_1 =   2022-11-21T15:39:25.546   2216506175.627
RECEIVE_FREQ_1 =   2022-11-21T15:39:36.086   2216506171.127
RECEIVE_FREQ_1 =   2022-11-21T15:39:46.541   2216506165.8
RECEIVE_FREQ_1 =   2022-11-21T15:39:56.995   2216506161.927
RECEIVE_FREQ_1 =   2022-11-21T15:40:07.536   2216506157.327
RECEIVE_FREQ_1 =   2022-11-21T15:40:17.990   2216506153.0
RECEIVE_FREQ_1 =   2022-11-21T15:40:28.445   2216506147.9
RECEIVE_FREQ_1 =   2022-11-21T15:40:38.899   2216506143.427
RECEIVE_FREQ_1 =   2022-11-21T15:40:49.354   2216506139.327
RECEIVE_FREQ_1 =   2022-11-21T15:40:59.808   2216506134.727
RECEIVE_FREQ_1 =   2022-11-21T15:41:10.349   2216506130.427
RECEIVE_FREQ_1 =   2022-11-21T15:41:20.803   2216506125.427
RECEIVE_FREQ_1 =   2022-11-21T15:41:31.258   2216506121.427
RECEIVE_FREQ_1 =   2022-11-21T15:41:41.798   2216506117.227
RECEIVE_FREQ_1 =   2022-11-21T15:41:52.253   2216506112.127
RECEIVE_FREQ_1 =   2022-11-21T15:42:02.794   2216506107.627
RECEIVE_FREQ_1 =   2022-11-21T15:42:13.248   2216506103.127
RECEIVE_FREQ_1 =   2022-11-21T15:42:23.702   2216506099.4
RECEIVE_FREQ_1 =   2022-11-21T15:42:34.243   2216506094.327
RECEIVE_FREQ_1 =   2022-11-21T15:42:44.698   2216506089.227
RECEIVE_FREQ_1 =   2022-11-21T15:42:55.152   2216506085.227
RECEIVE_FREQ_1 =   2022-11-21T15:43:05.606   2216506081.027
RECEIVE_FREQ_1 =   2022-11-21T15:43:16.147   2216506076.727
RECEIVE_FREQ_1 =   2022-11-21T15:43:26.602   2216506073.627
RECEIVE_FREQ_1 =   2022-11-21T15:50:26.074   2216505894.927
RECEIVE_FREQ_1 =   2022-11-21T15:50:36.614   2216505890.727
RECEIVE_FREQ_1 =   2022-11-21T15:52:10.877   2216505848.527
RECEIVE_FREQ_1 =   2022-11-21T15:52:42.326   2216505835.827
RECEIVE_FREQ_1 =   2022-11-21T15:53:03.408   2216505827.127
RECEIVE_FREQ_1 =   2022-11-21T15:53:13.862   2216505822.727
RECEIVE_FREQ_1 =   2022-11-21T15:54:06.221   2216505803.827
RECEIVE_FREQ_1 =   2022-11-21T15:54:16.762   2216505797.627
RECEIVE_FREQ_1 =   2022-11-21T15:55:30.115   2216505764.127
RECEIVE_FREQ_1 =   2022-11-21T15:55:40.570   2216505760.327
RECEIVE_FREQ_1 =   2022-11-21T15:56:33.014   2216505742.327
RECEIVE_FREQ_1 =   2022-11-21T15:56:43.469   2216505738.427
RECEIVE_FREQ_1 =   2022-11-21T16:00:23.443   2216505647.727
RECEIVE_FREQ_1 =   2022-11-21T16:01:26.342   2216505623.127
RECEIVE_FREQ_1 =   2022-11-21T16:02:08.246   2216505606.427
RECEIVE_FREQ_1 =   2022-11-21T16:04:34.954   2216505549.727
RECEIVE_FREQ_1 =   2022-11-21T16:04:45.494   2216505544.627
RECEIVE_FREQ_1 =   2022-11-21T16:04:55.949   2216505540.127
RECEIVE_FREQ_1 =   2022-11-21T16:05:06.490   2216505536.727
RECEIVE_FREQ_1 =   2022-11-21T16:05:16.944   2216505532.527
RECEIVE_FREQ_1 =   2022-11-21T16:06:30.298   2216505504.227
RECEIVE_FREQ_1 =   2022-11-21T16:06:40.838   2216505496.827
RECEIVE_FREQ_1 =   2022-11-21T16:16:07.104   2216505283.027
RECEIVE_FREQ_1 =   2022-11-21T16:16:17.558   2216505279.7
RECEIVE_FREQ_1 =   2022-11-21T16:16:28.099   2216505276.027
RECEIVE_FREQ_1 =   2022-11-21T16:16:38.554   2216505272.527
RECEIVE_FREQ_1 =   2022-11-21T16:16:49.008   2216505268.127
RECEIVE_FREQ_1 =   2022-11-21T16:16:59.462   2216505264.727
RECEIVE_FREQ_1 =   2022-11-21T16:17:09.917   2216505259.9
RECEIVE_FREQ_1 =   2022-11-21T16:17:20.371   2216505255.8
RECEIVE_FREQ_1 =   2022-11-21T16:17:30.912   2216505253.0
RECEIVE_FREQ_1 =   2022-11-21T16:17:41.366   2216505248.627
RECEIVE_FREQ_1 =   2022-11-21T16:17:51.907   2216505244.627
RECEIVE_FREQ_1 =   2022-11-21T16:18:02.362   2216505241.427
RECEIVE_FREQ_1 =   2022-11-21T16:18:12.816   2216505237.327
RECEIVE_FREQ_1 =   2022-11-21T16:18:23.357   2216505233.327
RECEIVE_FREQ_1 =   2022-11-21T16:18:33.898   2216505229.9
RECEIVE_FREQ_1 =   2022-11-21T16:18:44.438   2216505226.027
RECEIVE_FREQ_1 =   2022-11-21T16:18:54.893   2216505221.5
RECEIVE_FREQ_1 =   2022-11-21T16:19:05.347   2216505217.7
RECEIVE_FREQ_1 =   2022-11-21T16:19:15.888   2216505214.227
RECEIVE_FREQ_1 =   2022-11-21T16:19:26.342   2216505211.0
RECEIVE_FREQ_1 =   2022-11-21T16:19:36.797   2216505206.4
RECEIVE_FREQ_1 =   2022-11-21T16:19:47.251   2216505203.127
RECEIVE_FREQ_1 =   2022-11-21T16:19:57.706   2216505199.4
RECEIVE_FREQ_1 =   2022-11-21T16:20:08.160   2216505195.7
RECEIVE_FREQ_1 =   2022-11-21T16:20:18.614   2216505191.0
RECEIVE_FREQ_1 =   2022-11-21T16:20:29.155   2216505188.0
RECEIVE_FREQ_1 =   2022-11-21T16:20:39.610   2216505183.627
RECEIVE_FREQ_1 =   2022-11-21T16:20:50.150   2216505180.9
RECEIVE_FREQ_1 =   2022-11-21T16:21:00.605   2216505176.2
RECEIVE_FREQ_1 =   2022-11-21T16:21:11.059   2216505173.427
RECEIVE_FREQ_1 =   2022-11-21T16:21:21.600   2216505169.527
RECEIVE_FREQ_1 =   2022-11-21T16:21:32.054   2216505165.127
RECEIVE_FREQ_1 =   2022-11-21T16:21:42.509   2216505161.727
RECEIVE_FREQ_1 =   2022-11-21T16:21:53.050   2216505157.527
RECEIVE_FREQ_1 =   2022-11-21T16:22:03.504   2216505153.9
RECEIVE_FREQ_1 =   2022-11-21T16:22:13.958   2216505150.627
RECEIVE_FREQ_1 =   2022-11-21T16:22:24.413   2216505146.327
RECEIVE_FREQ_1 =   2022-11-21T16:22:34.954   2216505141.827
RECEIVE_FREQ_1 =   2022-11-21T16:22:45.408   2216505138.427
RECEIVE_FREQ_1 =   2022-11-21T16:22:55.949   2216505135.127
RECEIVE_FREQ_1 =   2022-11-21T16:23:06.403   2216505131.027
RECEIVE_FREQ_1 =   2022-11-21T16:23:16.858   2216505126.227
RECEIVE_FREQ_1 =   2022-11-21T16:23:27.312   2216505123.127
RECEIVE_FREQ_1 =   2022-11-21T16:23:37.766   2216505119.027
RECEIVE_FREQ_1 =   2022-11-21T16:23:48.307   2216505115.127
RECEIVE_FREQ_1 =   2022-11-21T16:23:58.762   2216505111.127
RECEIVE_FREQ_1 =   2022-11-21T16:24:09.216   2216505106.927
RECEIVE_FREQ_1 =   2022-11-21T16:24:19.670   2216505103.5
RECEIVE_FREQ_1 =   2022-11-21T16:24:30.211   2216505100.127
RECEIVE_FREQ_1 =   2022-11-21T16:24:40.666   2216505095.3
RECEIVE_FREQ_1 =   2022-11-21T16:24:51.120   2216505091.927
RECEIVE_FREQ_1 =   2022-11-21T16:25:01.574   2216505087.827
RECEIVE_FREQ_1 =   2022-11-21T16:25:12.115   2216505083.827
RECEIVE_FREQ_1 =   2022-11-21T16:25:22.570   2216505080.627
RECEIVE_FREQ_1 =   2022-11-21T16:25:33.024   2216505076.827
RECEIVE_FREQ_1 =   2022-11-21T16:25:43.478   2216505072.5
RECEIVE_FREQ_1 =   2022-11-21T16:25:54.019   2216505068.9
RECEIVE_FREQ_1 =   2022-11-21T16:26:04.560   2216505064.827
RECEIVE_FREQ_1 =   2022-11-21T16:26:15.014   2216505061.627
RECEIVE_FREQ_1 =   2022-11-21T16:26:25.469   2216505057.127
RECEIVE_FREQ_1 =   2022-11-21T16:26:36.010   2216505053.327
RECEIVE_FREQ_1 =   2022-11-21T16:26:46.550   2216505050.027
RECEIVE_FREQ_1 =   2022-11-21T16:26:57.005   2216505046.127
RECEIVE_FREQ_1 =   2022-11-21T16:27:07.459   2216505042.627
RECEIVE_FREQ_1 =   2022-11-21T16:27:18.000   2216505037.927
RECEIVE_FREQ_1 =   2022-11-21T16:27:28.454   2216505034.527
RECEIVE_FREQ_1 =   2022-11-21T16:27:38.995   2216505030.6
RECEIVE_FREQ_1 =   2022-11-21T16:27:49.450   2216505026.827
RECEIVE_FREQ_1 =   2022-11-21T16:27:59.990   2216505023.2
RECEIVE_FREQ_1 =   2022-11-21T16:28:10.531   2216505019.227
RECEIVE_FREQ_1 =   2022-11-21T16:28:20.986   2216505015.127
RECEIVE_FREQ_1 =   2022-11-21T16:28:31.526   2216505011.927
RECEIVE_FREQ_1 =   2022-11-21T16:28:41.981   2216505007.927
RECEIVE_FREQ_1 =   2022-11-21T16:28:52.522   2216505003.827
RECEIVE_FREQ_1 =   2022-11-21T16:29:02.976   2216505000.327
RECEIVE_FREQ_1 =   2022-11-21T16:29:13.517   2216504996.4
RECEIVE_FREQ_1 =   2022-11-21T16:29:24.058   2216504993.127
RECEIVE_FREQ_1 =   2022-11-21T16:29:34.512   2216504989.027
RECEIVE_FREQ_1 =   2022-11-21T16:29:44.966   2216504985.7
RECEIVE_FREQ_1 =   2022-11-21T16:29:55.507   2216504982.6
RECEIVE_FREQ_1 =   2022-11-21T16:30:05.962   2216504978.3
RECEIVE_FREQ_1 =   2022-11-21T16:30:16.416   2216504974.627
RECEIVE_FREQ_1 =   2022-11-21T16:30:26.870   2216504971.527
RECEIVE_FREQ_1 =   2022-11-21T16:30:37.411   2216504966.827
RECEIVE_FREQ_1 =   2022-11-21T16:30:47.866   2216504963.427
RECEIVE_FREQ_1 =   2022-11-21T16:30:58.406   2216504959.527
RECEIVE_FREQ_1 =   2022-11-21T16:31:08.861   2216504955.7
RECEIVE_FREQ_1 =   2022-11-21T16:31:19.315   2216504952.127
RECEIVE_FREQ_1 =   2022-11-21T16:31:29.770   2216504948.427
RECEIVE_FREQ_1 =   2022-11-21T16:31:40.310   2216504945.2
RECEIVE_FREQ_1 =   2022-11-21T16:31:50.765   2216504940.927
RECEIVE_FREQ_1 =   2022-11-21T16:32:01.306   2216504937.127
RECEIVE_FREQ_1 =   2022-11-21T16:32:11.846   2216504933.9
RECEIVE_FREQ_1 =   2022-11-21T16:32:22.387   2216504929.5
RECEIVE_FREQ_1 =   2022-11-21T16:32:32.842   2216504926.027
RECEIVE_FREQ_1 =   2022-11-21T16:32:43.382   2216504922.227
RECEIVE_FREQ_1 =   2022-11-21T16:32:53.837   2216504918.4
RECEIVE_FREQ_1 =   2022-11-21T16:33:04.291   2216504915.5
RECEIVE_FREQ_1 =   2022-11-21T16:33:14.832   2216504912.227
RECEIVE_FREQ_1 =   2022-11-21T16:33:25.286   2216504907.8
RECEIVE_FREQ_1 =   2022-11-21T16:33:35.827   2216504904.1
RECEIVE_FREQ_1 =   2022-11-21T16:33:46.282   2216504900.9
RECEIVE_FREQ_1 =   2022-11-21T16:33:56.736   2216504897.427
RECEIVE_FREQ_1 =   2022-11-21T16:34:07.277   2216504894.2
RECEIVE_FREQ_1 =   2022-11-21T16:34:17.731   2216504889.527
RECEIVE_FREQ_1 =   2022-11-21T16:34:28.272   2216504886.7
RECEIVE_FREQ_1 =   2022-11-21T16:34:38.813   2216504882.827
RECEIVE_FREQ_1 =   2022-11-21T16:34:49.354   2216504878.5
RECEIVE_FREQ_1 =   2022-11-21T16:34:59.894   2216504875.4
RECEIVE_FREQ_1 =   2022-11-21T16:35:10.349   2216504872.027
RECEIVE_FREQ_1 =   2022-11-21T16:35:20.890   2216504867.927
RECEIVE_FREQ_1 =   2022-11-21T16:35:31.258   2216504864.5
RECEIVE_FREQ_1 =   2022-11-21T16:35:41.712   2216504861.3
RECEIVE_FREQ_1 =   2022-11-21T16:35:52.166   2216504857.0
RECEIVE_FREQ_1 =   2022-11-21T16:36:02.707   2216504854.027
RECEIVE_FREQ_1 =   2022-11-21T16:36:13.162   2216504850.3
RECEIVE_FREQ_1 =   2022-11-21T16:36:23.702   2216504846.427
RECEIVE_FREQ_1 =   2022-11-21T16:36:34.243   2216504842.927
RECEIVE_FREQ_1 =   2022-11-21T16:36:44.784   2216504840.127
RECEIVE_FREQ_1 =   2022-11-21T16:36:55.238   2216504836.427
RECEIVE_FREQ_1 =   2022-11-21T16:37:05.779   2216504832.627
RECEIVE_FREQ_1 =   2022-11-21T16:37:16.234   2216504828.827
RECEIVE_FREQ_1 =   2022-11-21T16:37:26.688   2216504824.627
RECEIVE_FREQ_1 =   2022-11-21T16:37:37.229   2216504821.127
RECEIVE_FREQ_1 =   2022-11-21T16:37:47.770   2216504817.727
RECEIVE_FREQ_1 =   2022-11-21T16:37:58.224   2216504813.727
RECEIVE_FREQ_1 =   2022-11-21T16:38:08.765   2216504811.027
RECEIVE_FREQ_1 =   2022-11-21T16:38:19.219   2216504806.327
RECEIVE_FREQ_1 =   2022-11-21T16:38:29.933   2216504803.227
RECEIVE_FREQ_1 =   2022-11-21T16:38:40.733   2216504798.927
RECEIVE_FREQ_1 =   2022-11-21T16:38:51.360   2216504795.427
RECEIVE_FREQ_1 =   2022-11-21T16:39:01.987   2216504791.527
RECEIVE_FREQ_1 =   2022-11-21T16:39:12.528   2216504787.627
RECEIVE_FREQ_1 =   2022-11-21T16:39:23.155   2216504784.427
RECEIVE_FREQ_1 =   2022-11-21T16:39:33.782   2216504780.927
RECEIVE_FREQ_1 =   2022-11-21T16:39:44.237   2216504776.127
RECEIVE_FREQ_1 =   2022-11-21T16:39:54.778   2216504773.0
RECEIVE_FREQ_1 =   2022-11-21T16:40:05.318   2216504769.627
RECEIVE_FREQ_1 =   2022-11-21T16:40:15.773   2216504765.427
RECEIVE_FREQ_1 =   2022-11-21T16:40:26.227   2216504761.827
RECEIVE_FREQ_1 =   2022-11-21T16:40:36.768   2216504758.927
RECEIVE_FREQ_1 =   2022-11-21T16:40:47.309   2216504754.927
RECEIVE_FREQ_1 =   2022-11-21T16:40:57.763   2216504751.227
RECEIVE_FREQ_1 =   2022-11-21T16:41:08.304   2216504746.927
RECEIVE_FREQ_1 =   2022-11-21T16:41:18.758   2216504743.9
RECEIVE_FREQ_1 =   2022-11-21T16:41:29.299   2216504740.527
RECEIVE_FREQ_1 =   2022-11-21T16:41:39.754   2216504736.227
RECEIVE_FREQ_1 =   2022-11-21T16:41:50.294   2216504732.327
RECEIVE_FREQ_1 =   2022-11-21T16:42:00.749   2216504729.3
RECEIVE_FREQ_1 =   2022-11-21T16:42:11.203   2216504725.427
RECEIVE_FREQ_1 =   2022-11-21T16:42:21.744   2216504721.7
RECEIVE_FREQ_1 =   2022-11-21T16:42:32.285   2216504718.427
RECEIVE_FREQ_1 =   2022-11-21T16:42:42.826   2216504714.627
RECEIVE_FREQ_1 =   2022-11-21T16:42:53.280   2216504710.327
RECEIVE_FREQ_1 =   2022-11-21T16:43:03.821   2216504707.527
RECEIVE_FREQ_1 =   2022-11-21T16:43:14.362   2216504703.627
RECEIVE_FREQ_1 =   2022-11-21T16:43:24.816   2216504700.327
RECEIVE_FREQ_1 =   2022-11-21T16:43:35.357   2216504696.027
RECEIVE_FREQ_1 =   2022-11-21T16:43:45.811   2216504693.127
RECEIVE_FREQ_1 =   2022-11-21T16:43:56.352   2216504689.327
RECEIVE_FREQ_1 =   2022-11-21T16:44:06.893   2216504685.427
RECEIVE_FREQ_1 =   2022-11-21T16:44:17.434   2216504681.727
RECEIVE_FREQ_1 =   2022-11-21T16:44:27.888   2216504678.827
RECEIVE_FREQ_1 =   2022-11-21T16:44:38.342   2216504674.827
RECEIVE_FREQ_1 =   2022-11-21T16:44:48.797   2216504671.327
RECEIVE_FREQ_1 =   2022-11-21T16:44:59.338   2216504667.427
RECEIVE_FREQ_1 =   2022-11-21T16:45:09.792   2216504664.227
RECEIVE_FREQ_1 =   2022-11-21T16:45:20.333   2216504660.827
RECEIVE_FREQ_1 =   2022-11-21T16:45:30.874   2216504656.827
RECEIVE_FREQ_1 =   2022-11-21T16:45:41.414   2216504653.927
RECEIVE_FREQ_1 =   2022-11-21T16:45:51.955   2216504649.927
RECEIVE_FREQ_1 =   2022-11-21T16:46:02.496   2216504646.127
RECEIVE_FREQ_1 =   2022-11-21T16:46:12.950   2216504642.727
RECEIVE_FREQ_1 =   2022-11-21T16:46:23.491   2216504639.3
RECEIVE_FREQ_1 =   2022-11-21T16:46:33.946   2216504640.1
RECEIVE_FREQ_1 =   2022-11-21T16:46:44.486   2216504632.427
RECEIVE_FREQ_1 =   2022-11-21T16:46:54.941   2216504629.327
RECEIVE_FREQ_1 =   2022-11-21T16:47:05.395   2216504625.527
RECEIVE_FREQ_1 =   2022-11-21T16:47:15.936   2216504621.627
RECEIVE_FREQ_1 =   2022-11-21T16:47:26.390   2216504618.527
RECEIVE_FREQ_1 =   2022-11-21T16:47:36.931   2216504615.227
RECEIVE_FREQ_1 =   2022-11-21T16:47:47.386   2216504611.727
RECEIVE_FREQ_1 =   2022-11-21T16:47:57.840   2216504607.927
RECEIVE_FREQ_1 =   2022-11-21T16:48:08.294   2216504604.227
RECEIVE_FREQ_1 =   2022-11-21T16:48:18.835   2216504600.827
RECEIVE_FREQ_1 =   2022-11-21T16:48:29.290   2216504597.227
RECEIVE_FREQ_1 =   2022-11-21T16:48:39.830   2216504594.127
RECEIVE_FREQ_1 =   2022-11-21T16:48:50.285   2216504590.527
RECEIVE_FREQ_1 =   2022-11-21T16:49:00.739   2216504587.127
RECEIVE_FREQ_1 =   2022-11-21T16:49:11.280   2216504582.7
RECEIVE_FREQ_1 =   2022-11-21T16:49:21.734   2216504580.4
RECEIVE_FREQ_1 =   2022-11-21T16:49:32.275   2216504576.6
RECEIVE_FREQ_1 =   2022-11-21T16:49:42.730   2216504572.727
RECEIVE_FREQ_1 =   2022-11-21T16:49:53.270   2216504569.527
RECEIVE_FREQ_1 =   2022-11-21T16:50:03.811   2216504566.427
RECEIVE_FREQ_1 =   2022-11-21T16:50:14.352   2216504563.327
RECEIVE_FREQ_1 =   2022-11-21T16:50:24.806   2216504559.027
RECEIVE_FREQ_1 =   2022-11-21T16:50:35.347   2216504555.227
RECEIVE_FREQ_1 =   2022-11-21T16:50:45.802   2216504552.127
RECEIVE_FREQ_1 =   2022-11-21T16:50:56.342   2216504548.627
RECEIVE_FREQ_1 =   2022-11-21T16:51:06.883   2216504545.927
RECEIVE_FREQ_1 =   2022-11-21T16:51:17.338   2216504541.427
RECEIVE_FREQ_1 =   2022-11-21T16:51:27.878   2216504538.5
RECEIVE_FREQ_1 =   2022-11-21T16:51:38.333   2216504535.227
RECEIVE_FREQ_1 =   2022-11-21T16:51:48.787   2216504531.727
RECEIVE_FREQ_1 =   2022-11-21T16:51:59.328   2216504528.527
RECEIVE_FREQ_1 =   2022-11-21T16:52:09.869   2216504524.927
RECEIVE_FREQ_1 =   2022-11-21T16:52:20.496   2216504520.827
RECEIVE_FREQ_1 =   2022-11-21T16:52:31.037   2216504517.527
RECEIVE_FREQ_1 =   2022-11-21T16:52:41.578   2216504515.3
RECEIVE_FREQ_1 =   2022-11-21T16:52:52.032   2216504511.127
RECEIVE_FREQ_1 =   2022-11-21T16:53:02.486   2216504507.327
RECEIVE_FREQ_1 =   2022-11-21T16:53:12.941   2216504504.427
RECEIVE_FREQ_1 =   2022-11-21T16:53:23.482   2216504500.5
RECEIVE_FREQ_1 =   2022-11-21T16:53:34.022   2216504497.427
RECEIVE_FREQ_1 =   2022-11-21T16:53:44.477   2216504493.727
RECEIVE_FREQ_1 =   2022-11-21T16:53:54.931   2216504491.0
RECEIVE_FREQ_1 =   2022-11-21T16:54:05.472   2216504487.327
RECEIVE_FREQ_1 =   2022-11-21T16:54:15.926   2216504483.627
RECEIVE_FREQ_1 =   2022-11-21T16:54:26.467   2216504480.027
RECEIVE_FREQ_1 =   2022-11-21T16:54:36.922   2216504476.727
RECEIVE_FREQ_1 =   2022-11-21T16:54:47.462   2216504473.627
RECEIVE_FREQ_1 =   2022-11-21T16:54:57.917   2216504469.227
RECEIVE_FREQ_1 =   2022-11-21T16:55:08.458   2216504466.427
RECEIVE_FREQ_1 =   2022-11-21T16:55:18.998   2216504462.527
RECEIVE_FREQ_1 =   2022-11-21T16:55:29.539   2216504458.727
RECEIVE_FREQ_1 =   2022-11-21T16:55:40.166   2216504455.227
RECEIVE_FREQ_1 =   2022-11-21T16:55:50.707   2216504451.727
RECEIVE_FREQ_1 =   2022-11-21T16:56:01.248   2216504448.327
RECEIVE_FREQ_1 =   2022-11-21T16:56:11.789   2216504444.627
RECEIVE_FREQ_1 =   2022-11-21T16:56:22.330   2216504440.527
RECEIVE_FREQ_1 =   2022-11-21T16:56:32.784   2216504437.127
RECEIVE_FREQ_1 =   2022-11-21T16:56:43.238   2216504433.927
RECEIVE_FREQ_1 =   2022-11-21T16:56:53.779   2216504430.427
RECEIVE_FREQ_1 =   2022-11-21T16:57:04.234   2216504427.427
RECEIVE_FREQ_1 =   2022-11-21T16:57:14.774   2216504423.027
RECEIVE_FREQ_1 =   2022-11-21T16:57:25.315   2216504419.927
RECEIVE_FREQ_1 =   2022-11-21T16:57:35.856   2216504416.527
RECEIVE_FREQ_1 =   2022-11-21T16:57:46.310   2216504412.627
RECEIVE_FREQ_1 =   2022-11-21T16:57:56.851   2216504409.227
RECEIVE_FREQ_1 =   2022-11-21T16:58:07.306   2216504406.027
RECEIVE_FREQ_1 =   2022-11-21T16:58:17.933   2216504402.827
RECEIVE_FREQ_1 =   2022-11-21T16:58:28.387   2216504399.327
RECEIVE_FREQ_1 =   2022-11-21T16:58:39.014   2216504395.927
RECEIVE_FREQ_1 =   2022-11-21T16:58:49.555   2216504391.727
RECEIVE_FREQ_1 =   2022-11-21T16:59:00.096   2216504389.427
RECEIVE_FREQ_1 =   2022-11-21T16:59:10.637   2216504385.327
RECEIVE_FREQ_1 =   2022-11-21T16:59:21.178   2216504381.727
RECEIVE_FREQ_1 =   2022-11-21T16:59:31.718   2216504378.127
RECEIVE_FREQ_1 =   2022-11-21T16:59:42.259   2216504374.927
RECEIVE_FREQ_1 =   2022-11-21T16:59:52.800   2216504371.127
RECEIVE_FREQ_1 =   2022-11-21T17:00:03.254   2216504367.427
RECEIVE_FREQ_1 =   2022-11-21T17:00:13.795   2216504364.627
RECEIVE_FREQ_1 =   2022-11-21T17:00:24.336   2216504360.827
RECEIVE_FREQ_1 =   2022-11-21T17:00:34.963   2216504357.027
RECEIVE_FREQ_1 =   2022-11-21T17:00:45.763   2216504353.827
RECEIVE_FREQ_1 =   2022-11-21T17:00:56.477   2216504350.927
RECEIVE_FREQ_1 =   2022-11-21T17:01:07.104   2216504347.427
RECEIVE_FREQ_1 =   2022-11-21T17:01:17.731   2216504343.727
RECEIVE_FREQ_1 =   2022-11-21T17:01:28.358   2216504340.927
RECEIVE_FREQ_1 =   2022-11-21T17:01:38.986   2216504337.027
RECEIVE_FREQ_1 =   2022-11-21T17:01:49.613   2216504333.027
RECEIVE_FREQ_1 =   2022-11-21T17:02:00.240   2216504329.5
RECEIVE_FREQ_1 =   2022-11-21T17:02:10.867   2216504326.527
RECEIVE_FREQ_1 =   2022-11-21T17:02:21.408   2216504323.327
RECEIVE_FREQ_1 =   2022-11-21T17:02:32.035   2216504319.827
RECEIVE_FREQ_1 =   2022-11-21T17:02:42.490   2216504316.327
RECEIVE_FREQ_1 =   2022-11-21T17:02:53.030   2216504312.927
RECEIVE_FREQ_1 =   2022-11-21T17:03:03.485   2216504308.827
RECEIVE_FREQ_1 =   2022-11-21T17:03:14.026   2216504305.927
RECEIVE_FREQ_1 =   2022-11-21T17:03:24.480   2216504302.627
RECEIVE_FREQ_1 =   2022-11-21T17:03:35.021   2216504299.827
RECEIVE_FREQ_1 =   2022-11-21T17:03:45.475   2216504296.027
RECEIVE_FREQ_1 =   2022-11-21T17:03:56.016   2216504292.727
RECEIVE_FREQ_1 =   2022-11-21T17:04:06.557   2216504288.927
RECEIVE_FREQ_1 =   2022-11-21T17:04:17.184   2216504285.927
RECEIVE_FREQ_1 =   2022-11-21T17:04:27.725   2216504282.927
RECEIVE_FREQ_1 =   2022-11-21T17:04:38.266   2216504279.9
RECEIVE_FREQ_1 =   2022-11-21T17:04:48.720   2216504276.2
RECEIVE_FREQ_1 =   2022-11-21T17:04:59.261   2216504272.827
RECEIVE_FREQ_1 =   2022-11-21T17:05:09.715   2216504269.027
RECEIVE_FREQ_1 =   2022-11-21T17:05:20.256   2216504266.227
RECEIVE_FREQ_1 =   2022-11-21T17:05:30.710   2216504261.827
RECEIVE_FREQ_1 =   2022-11-21T17:05:41.251   2216504259.727
RECEIVE_FREQ_1 =   2022-11-21T17:05:51.706   2216504255.427
RECEIVE_FREQ_1 =   2022-11-21T17:06:02.246   2216504252.8
RECEIVE_FREQ_1 =   2022-11-21T17:06:12.874   2216504249.227
RECEIVE_FREQ_1 =   2022-11-21T17:06:23.414   2216504245.027
RECEIVE_FREQ_1 =   2022-11-21T17:06:33.869   2216504242.727
RECEIVE_FREQ_1 =   2022-11-21T17:06:44.410   2216504238.927
RECEIVE_FREQ_1 =   2022-11-21T17:06:54.950   2216504235.827
RECEIVE_FREQ_1 =   2022-11-21T17:07:05.405   2216504232.027
RECEIVE_FREQ_1 =   2022-11-21T17:07:15.946   2216504229.427
RECEIVE_FREQ_1 =   2022-11-21T17:07:26.486   2216504225.727
RECEIVE_FREQ_1 =   2022-11-21T17:07:36.941   2216504222.7
RECEIVE_FREQ_1 =   2022-11-21T17:07:47.482   2216504218.527
RECEIVE_FREQ_1 =   2022-11-21T17:07:57.936   2216504215.827
RECEIVE_FREQ_1 =   2022-11-21T17:08:08.477   2216504212.2
RECEIVE_FREQ_1 =   2022-11-21T17:08:18.931   2216504209.827
RECEIVE_FREQ_1 =   2022-11-21T17:08:29.472   2216504206.427
RECEIVE_FREQ_1 =   2022-11-21T17:08:40.013   2216504202.9
RECEIVE_FREQ_1 =   2022-11-21T17:08:50.554   2216504199.227
RECEIVE_FREQ_1 =   2022-11-21T17:09:01.094   2216504195.527
RECEIVE_FREQ_1 =   2022-11-21T17:09:11.635   2216504193.327
RECEIVE_FREQ_1 =   2022-11-21T17:09:22.262   2216504189.327
RECEIVE_FREQ_1 =   2022-11-21T17:09:32.890   2216504186.427
RECEIVE_FREQ_1 =   2022-11-21T17:09:43.430   2216504182.827
RECEIVE_FREQ_1 =   2022-11-21T17:09:53.885   2216504179.827
RECEIVE_FREQ_1 =   2022-11-21T17:10:04.426   2216504176.227
RECEIVE_FREQ_1 =   2022-11-21T17:10:14.966   2216504173.427
RECEIVE_FREQ_1 =   2022-11-21T17:10:25.594   2216504169.527
RECEIVE_FREQ_1 =   2022-11-21T17:10:36.134   2216504166.627
RECEIVE_FREQ_1 =   2022-11-21T17:10:46.589   2216504163.227
RECEIVE_FREQ_1 =   2022-11-21T17:10:57.130   2216504160.327
RECEIVE_FREQ_1 =   2022-11-21T17:11:07.670   2216504156.127
RECEIVE_FREQ_1 =   2022-11-21T17:11:18.298   2216504153.527
RECEIVE_FREQ_1 =   2022-11-21T17:11:28.838   2216504150.4
RECEIVE_FREQ_1 =   2022-11-21T17:11:39.379   2216504147.2
RECEIVE_FREQ_1 =   2022-11-21T17:11:49.834   2216504143.427
RECEIVE_FREQ_1 =   2022-11-21T17:12:00.374   2216504140.1
RECEIVE_FREQ_1 =   2022-11-21T17:12:10.915   2216504135.8
RECEIVE_FREQ_1 =   2022-11-21T17:12:21.370   2216504133.327
RECEIVE_FREQ_1 =   2022-11-21T17:12:31.824   2216504129.927
RECEIVE_FREQ_1 =   2022-11-21T17:12:42.365   2216504126.827
RECEIVE_FREQ_1 =   2022-11-21T17:12:52.819   2216504123.727
RECEIVE_FREQ_1 =   2022-11-21T17:13:03.360   2216504119.727
RECEIVE_FREQ_1 =   2022-11-21T17:13:13.814   2216504116.8
RECEIVE_FREQ_1 =   2022-11-21T17:13:24.269   2216504113.727
RECEIVE_FREQ_1 =   2022-11-21T17:13:34.810   2216504110.927
RECEIVE_FREQ_1 =   2022-11-21T17:13:45.350   2216504106.327
RECEIVE_FREQ_1 =   2022-11-21T17:13:55.805   2216504102.527
RECEIVE_FREQ_1 =   2022-11-21T17:14:06.346   2216504099.427
RECEIVE_FREQ_1 =   2022-11-21T17:14:16.886   2216504096.627
RECEIVE_FREQ_1 =   2022-11-21T17:14:27.341   2216504093.127
RECEIVE_FREQ_1 =   2022-11-21T17:14:37.882   2216504089.727
RECEIVE_FREQ_1 =   2022-11-21T17:14:48.422   2216504086.127
RECEIVE_FREQ_1 =   2022-11-21T17:14:58.963   2216504083.027
RECEIVE_FREQ_1 =   2022-11-21T17:15:09.418   2216504079.827
RECEIVE_FREQ_1 =   2022-11-21T17:15:19.872   2216504076.427
RECEIVE_FREQ_1 =   2022-11-21T17:15:30.413   2216504073.327
RECEIVE_FREQ_1 =   2022-11-21T17:15:40.954   2216504070.027
RECEIVE_FREQ_1 =   2022-11-21T17:15:51.667   2216504065.927
RECEIVE_FREQ_1 =   2022-11-21T17:16:02.294   2216504063.127
RECEIVE_FREQ_1 =   2022-11-21T17:16:12.835   2216504059.227
RECEIVE_FREQ_1 =   2022-11-21T17:16:23.376   2216504056.427
RECEIVE_FREQ_1 =   2022-11-21T17:16:34.003   2216504053.327
RECEIVE_FREQ_1 =   2022-11-21T17:16:44.544   2216504049.627
RECEIVE_FREQ_1 =   2022-11-21T17:16:55.085   2216504047.327
RECEIVE_FREQ_1 =   2022-11-21T17:17:58.157   2216504025.0
RECEIVE_FREQ_1 =   2022-11-21T17:18:29.606   2216504015.927
RECEIVE_FREQ_1 =   2022-11-21T17:18:50.515   2216504009.927
RECEIVE_FREQ_1 =   2022-11-21T17:19:01.056   2216504007.227
RECEIVE_FREQ_1 =   2022-11-21T17:19:11.597   2216504003.027
RECEIVE_FREQ_1 =   2022-11-21T17:19:22.138   2216504000.127
RECEIVE_FREQ_1 =   2022-11-21T17:19:32.592   2216503996.727
RECEIVE_FREQ_1 =   2022-11-21T17:19:43.133   2216503993.827
RECEIVE_FREQ_1 =   2022-11-21T17:19:53.587   2216503990.927
RECEIVE_FREQ_1 =   2022-11-21T17:20:04.128   2216503987.727
RECEIVE_FREQ_1 =   2022-11-21T17:20:56.573   2216503970.027
RECEIVE_FREQ_1 =   2022-11-21T17:21:38.477   2216503958.027
RECEIVE_FREQ_1 =   2022-11-21T17:21:59.386   2216503951.327
RECEIVE_FREQ_1 =   2022-11-21T17:22:09.926   2216503948.127
RECEIVE_FREQ_1 =   2022-11-21T17:22:20.467   2216503945.127
RECEIVE_FREQ_1 =   2022-11-21T17:23:02.544   2216503932.7
RECEIVE_FREQ_1 =   2022-11-21T17:23:23.539   2216503925.227
RECEIVE_FREQ_1 =   2022-11-21T17:23:34.080   2216503923.027
RECEIVE_FREQ_1 =   2022-11-21T17:23:44.621   2216503919.527
RECEIVE_FREQ_1 =   2022-11-21T17:23:55.162   2216503915.7
RECEIVE_FREQ_1 =   2022-11-21T17:24:05.616   2216503913.9
RECEIVE_FREQ_1 =   2022-11-21T17:24:16.243   2216503909.027
RECEIVE_FREQ_1 =   2022-11-21T17:24:26.784   2216503906.7
RECEIVE_FREQ_1 =   2022-11-21T17:24:37.325   2216503903.127
RECEIVE_FREQ_1 =   2022-11-21T17:24:47.952   2216503899.827
RECEIVE_FREQ_1 =   2022-11-21T17:24:58.493   2216503896.8
RECEIVE_FREQ_1 =   2022-11-21T17:25:51.024   2216503881.2
RECEIVE_FREQ_1 =   2022-11-21T17:26:01.565   2216503877.727
RECEIVE_FREQ_1 =   2022-11-21T17:26:12.106   2216503874.927
RECEIVE_FREQ_1 =   2022-11-21T17:26:22.646   2216503871.227
RECEIVE_FREQ_1 =   2022-11-21T17:26:33.101   2216503869.027
RECEIVE_FREQ_1 =   2022-11-21T17:26:43.642   2216503864.827
RECEIVE_FREQ_1 =   2022-11-21T17:26:54.182   2216503861.227
RECEIVE_FREQ_1 =   2022-11-21T17:27:04.637   2216503858.327
RECEIVE_FREQ_1 =   2022-11-21T17:27:15.091   2216503855.227
RECEIVE_FREQ_1 =   2022-11-21T17:27:36.086   2216503850.127
RECEIVE_FREQ_1 =   2022-11-21T17:27:57.082   2216503843.827
RECEIVE_FREQ_1 =   2022-11-21T17:28:18.077   2216503838.127
RECEIVE_FREQ_1 =   2022-11-21T17:28:39.072   2216503830.627
RECEIVE_FREQ_1 =   2022-11-21T17:28:49.526   2216503827.427
RECEIVE_FREQ_1 =   2022-11-21T17:29:00.067   2216503825.127
RECEIVE_FREQ_1 =   2022-11-21T17:29:10.522   2216503821.827
RECEIVE_FREQ_1 =   2022-11-21T17:29:21.062   2216503817.927
RECEIVE_FREQ_1 =   2022-11-21T17:29:31.603   2216503815.427
RECEIVE_FREQ_1 =   2022-11-21T17:29:42.144   2216503812.627
RECEIVE_FREQ_1 =   2022-11-21T17:30:13.594   2216503802.727
RECEIVE_FREQ_1 =   2022-11-21T17:30:24.134   2216503799.327
RECEIVE_FREQ_1 =   2022-11-21T17:30:34.675   2216503796.327
RECEIVE_FREQ_1 =   2022-11-21T17:30:45.216   2216503793.227
RECEIVE_FREQ_1 =   2022-11-21T17:30:55.670   2216503790.127
RECEIVE_FREQ_1 =   2022-11-21T17:31:16.666   2216503784.127
RECEIVE_FREQ_1 =   2022-11-21T17:31:27.206   2216503779.827
RECEIVE_FREQ_1 =   2022-11-21T17:31:48.202   2216503773.627
RECEIVE_FREQ_1 =   2022-11-21T17:33:01.901   2216503751.727
RECEIVE_FREQ_1 =   2022-11-21T17:33:44.237   2216503739.227
RECEIVE_FREQ_1 =   2022-11-21T17:34:05.232   2216503732.127
RECEIVE_FREQ_1 =   2022-11-21T17:34:15.773   2216503728.327
RECEIVE_FREQ_1 =   2022-11-21T17:34:36.768   2216503722.127
RECEIVE_FREQ_1 =   2022-11-21T17:34:57.936   2216503715.827
RECEIVE_FREQ_1 =   2022-11-21T17:35:18.931   2216503710.127
RECEIVE_FREQ_1 =   2022-11-21T17:35:39.926   2216503700.727
RECEIVE_FREQ_1 =   2022-11-21T17:35:50.467   2216503703.1
RECEIVE_FREQ_1 =   2022-11-21T17:36:00.922   2216503696.727
RECEIVE_FREQ_1 =   2022-11-21T17:36:11.462   2216503693.727
RECEIVE_FREQ_1 =   2022-11-21T17:36:21.917   2216503690.327
RECEIVE_FREQ_1 =   2022-11-21T17:36:32.458   2216503686.927
RECEIVE_FREQ_1 =   2022-11-21T17:36:42.912   2216503684.427
RECEIVE_FREQ_1 =   2022-11-21T17:36:53.453   2216503681.6
RECEIVE_FREQ_1 =   2022-11-21T17:37:03.907   2216503678.227
RECEIVE_FREQ_1 =   2022-11-21T17:37:14.362   2216503674.727
RECEIVE_FREQ_1 =   2022-11-21T17:37:24.902   2216503671.927
RECEIVE_FREQ_1 =   2022-11-21T17:37:35.443   2216503668.0
RECEIVE_FREQ_1 =   2022-11-21T17:37:45.898   2216503665.427
RECEIVE_FREQ_1 =   2022-11-21T17:37:56.438   2216503662.027
RECEIVE_FREQ_1 =   2022-11-21T17:38:06.979   2216503659.127
RECEIVE_FREQ_1 =   2022-11-21T17:38:17.520   2216503656.127
RECEIVE_FREQ_1 =   2022-11-21T17:38:28.061   2216503652.727
RECEIVE_FREQ_1 =   2022-11-21T17:38:38.515   2216503649.627
RECEIVE_FREQ_1 =   2022-11-21T17:38:49.056   2216503646.327
RECEIVE_FREQ_1 =   2022-11-21T17:38:59.510   2216503643.2
RECEIVE_FREQ_1 =   2022-11-21T17:39:10.051   2216503640.727
RECEIVE_FREQ_1 =   2022-11-21T17:39:20.506   2216503637.427
RECEIVE_FREQ_1 =   2022-11-21T17:39:31.046   2216503634.527
RECEIVE_FREQ_1 =   2022-11-21T17:39:41.587   2216503631.127
RECEIVE_FREQ_1 =   2022-11-21T17:39:52.128   2216503627.627
RECEIVE_FREQ_1 =   2022-11-21T17:40:02.582   2216503625.027
RECEIVE_FREQ_1 =   2022-11-21T17:40:13.037   2216503621.227
RECEIVE_FREQ_1 =   2022-11-21T17:40:23.578   2216503618.4
RECEIVE_FREQ_1 =   2022-11-21T17:40:34.032   2216503616.0
RECEIVE_FREQ_1 =   2022-11-21T17:40:44.573   2216503612.427
RECEIVE_FREQ_1 =   2022-11-21T17:40:55.027   2216503609.827
RECEIVE_FREQ_1 =   2022-11-21T17:41:05.568   2216503606.227
RECEIVE_FREQ_1 =   2022-11-21T17:41:16.022   2216503603.127
RECEIVE_FREQ_1 =   2022-11-21T17:41:26.563   2216503600.2
RECEIVE_FREQ_1 =   2022-11-21T17:41:37.018   2216503596.7
RECEIVE_FREQ_1 =   2022-11-21T17:41:47.558   2216503594.027
RECEIVE_FREQ_1 =   2022-11-21T17:41:58.099   2216503590.4
RECEIVE_FREQ_1 =   2022-11-21T17:42:08.554   2216503587.927
RECEIVE_FREQ_1 =   2022-11-21T17:42:19.094   2216503584.427
RECEIVE_FREQ_1 =   2022-11-21T17:42:29.549   2216503581.627
RECEIVE_FREQ_1 =   2022-11-21T17:42:40.090   2216503578.727
RECEIVE_FREQ_1 =   2022-11-21T17:42:50.544   2216503575.827
RECEIVE_FREQ_1 =   2022-11-21T17:43:01.085   2216503572.227
RECEIVE_FREQ_1 =   2022-11-21T17:43:11.626   2216503569.027
RECEIVE_FREQ_1 =   2022-11-21T17:43:22.166   2216503566.027
RECEIVE_FREQ_1 =   2022-11-21T17:43:32.707   2216503562.627
RECEIVE_FREQ_1 =   2022-11-21T17:43:43.162   2216503560.0
RECEIVE_FREQ_1 =   2022-11-21T17:43:53.702   2216503557.127
RECEIVE_FREQ_1 =   2022-11-21T17:44:04.243   2216503553.827
RECEIVE_FREQ_1 =   2022-11-21T17:44:14.698   2216503551.227
RECEIVE_FREQ_1 =   2022-11-21T17:44:25.238   2216503548.227
RECEIVE_FREQ_1 =   2022-11-21T17:44:35.779   2216503544.927
RECEIVE_FREQ_1 =   2022-11-21T17:44:46.320   2216503541.927
RECEIVE_FREQ_1 =   2022-11-21T17:44:56.861   2216503538.827
RECEIVE_FREQ_1 =   2022-11-21T17:45:07.402   2216503535.727
RECEIVE_FREQ_1 =   2022-11-21T17:45:17.942   2216503532.727
RECEIVE_FREQ_1 =   2022-11-21T17:45:28.397   2216503529.127
RECEIVE_FREQ_1 =   2022-11-21T17:45:38.938   2216503526.627
RECEIVE_FREQ_1 =   2022-11-21T17:45:49.392   2216503523.627
RECEIVE_FREQ_1 =   2022-11-21T17:45:59.933   2216503521.127
RECEIVE_FREQ_1 =   2022-11-21T17:46:10.387   2216503516.827
RECEIVE_FREQ_1 =   2022-11-21T17:46:20.842   2216503514.327
RECEIVE_FREQ_1 =   2022-11-21T17:46:31.382   2216503511.527
RECEIVE_FREQ_1 =   2022-11-21T17:46:41.837   2216503507.927
RECEIVE_FREQ_1 =   2022-11-21T17:46:52.291   2216503505.027
RECEIVE_FREQ_1 =   2022-11-21T17:47:02.832   2216503502.427
RECEIVE_FREQ_1 =   2022-11-21T17:47:13.286   2216503499.227
RECEIVE_FREQ_1 =   2022-11-21T17:47:23.741   2216503496.127
RECEIVE_FREQ_1 =   2022-11-21T17:47:34.195   2216503493.527
RECEIVE_FREQ_1 =   2022-11-21T17:47:44.736   2216503490.327
RECEIVE_FREQ_1 =   2022-11-21T17:47:55.190   2216503487.327
RECEIVE_FREQ_1 =   2022-11-21T17:48:05.731   2216503484.527
RECEIVE_FREQ_1 =   2022-11-21T17:48:16.186   2216503481.427
RECEIVE_FREQ_1 =   2022-11-21T17:48:26.726   2216503478.127
RECEIVE_FREQ_1 =   2022-11-21T17:48:37.181   2216503474.927
RECEIVE_FREQ_1 =   2022-11-21T17:48:47.722   2216503471.727
RECEIVE_FREQ_1 =   2022-11-21T17:48:58.262   2216503468.927
RECEIVE_FREQ_1 =   2022-11-21T17:49:08.803   2216503466.227
RECEIVE_FREQ_1 =   2022-11-21T17:49:19.344   2216503463.427
RECEIVE_FREQ_1 =   2022-11-21T17:49:29.798   2216503460.527
RECEIVE_FREQ_1 =   2022-11-21T17:49:40.339   2216503457.327
RECEIVE_FREQ_1 =   2022-11-21T17:49:50.880   2216503453.727
RECEIVE_FREQ_1 =   2022-11-21T17:50:01.334   2216503450.727
RECEIVE_FREQ_1 =   2022-11-21T17:50:11.875   2216503448.127
RECEIVE_FREQ_1 =   2022-11-21T17:50:22.416   2216503444.8
RECEIVE_FREQ_1 =   2022-11-21T17:50:32.957   2216503442.227
RECEIVE_FREQ_1 =   2022-11-21T17:50:43.411   2216503439.327
RECEIVE_FREQ_1 =   2022-11-21T17:50:53.952   2216503435.9
RECEIVE_FREQ_1 =   2022-11-21T17:51:04.406   2216503432.927
RECEIVE_FREQ_1 =   2022-11-21T17:51:14.861   2216503430.327
RECEIVE_FREQ_1 =   2022-11-21T17:51:25.402   2216503426.627
RECEIVE_FREQ_1 =   2022-11-21T17:51:35.856   2216503424.027
RECEIVE_FREQ_1 =   2022-11-21T17:51:46.397   2216503421.027
RECEIVE_FREQ_1 =   2022-11-21T17:51:56.851   2216503417.827
RECEIVE_FREQ_1 =   2022-11-21T17:52:07.392   2216503414.5
RECEIVE_FREQ_1 =   2022-11-21T17:52:17.846   2216503411.427
RECEIVE_FREQ_1 =   2022-11-21T17:52:28.387   2216503409.0
RECEIVE_FREQ_1 =   2022-11-21T17:52:38.928   2216503405.527
RECEIVE_FREQ_1 =   2022-11-21T17:52:49.469   2216503402.927
RECEIVE_FREQ_1 =   2022-11-21T17:52:59.923   2216503399.327
RECEIVE_FREQ_1 =   2022-11-21T17:53:10.464   2216503396.127
RECEIVE_FREQ_1 =   2022-11-21T17:53:21.005   2216503392.927
RECEIVE_FREQ_1 =   2022-11-21T17:53:31.459   2216503389.827
RECEIVE_FREQ_1 =   2022-11-21T17:53:42.000   2216503386.927
RECEIVE_FREQ_1 =   2022-11-21T17:53:52.454   2216503384.127
RECEIVE_FREQ_1 =   2022-11-21T17:54:02.995   2216503380.927
RECEIVE_FREQ_1 =   2022-11-21T17:54:13.450   2216503377.4
RECEIVE_FREQ_1 =   2022-11-21T17:54:23.990   2216503374.627
RECEIVE_FREQ_1 =   2022-11-21T17:54:34.531   2216503372.127
RECEIVE_FREQ_1 =   2022-11-21T17:54:44.986   2216503368.927
RECEIVE_FREQ_1 =   2022-11-21T17:54:55.526   2216503365.327
RECEIVE_FREQ_1 =   2022-11-21T17:55:05.981   2216503362.327
RECEIVE_FREQ_1 =   2022-11-21T17:55:16.522   2216503359.827
RECEIVE_FREQ_1 =   2022-11-21T17:55:27.062   2216503356.727
RECEIVE_FREQ_1 =   2022-11-21T17:55:37.603   2216503353.027
RECEIVE_FREQ_1 =   2022-11-21T17:55:48.058   2216503350.727
RECEIVE_FREQ_1 =   2022-11-21T17:55:58.598   2216503347.1
RECEIVE_FREQ_1 =   2022-11-21T17:56:09.139   2216503344.5
RECEIVE_FREQ_1 =   2022-11-21T17:56:19.594   2216503341.027
RECEIVE_FREQ_1 =   2022-11-21T17:56:30.134   2216503338.0
RECEIVE_FREQ_1 =   2022-11-21T17:56:40.589   2216503335.3
RECEIVE_FREQ_1 =   2022-11-21T17:56:51.130   2216503331.527
RECEIVE_FREQ_1 =   2022-11-21T17:57:01.584   2216503329.527
RECEIVE_FREQ_1 =   2022-11-21T17:57:12.038   2216503325.927
RECEIVE_FREQ_1 =   2022-11-21T17:57:22.579   2216503323.327
RECEIVE_FREQ_1 =   2022-11-21T17:57:33.034   2216503319.6
RECEIVE_FREQ_1 =   2022-11-21T17:57:43.574   2216503316.9
RECEIVE_FREQ_1 =   2022-11-21T17:57:54.115   2216503313.9
RECEIVE_FREQ_1 =   2022-11-21T17:58:04.570   2216503310.727
RECEIVE_FREQ_1 =   2022-11-21T17:58:15.110   2216503307.9
RECEIVE_FREQ_1 =   2022-11-21T17:58:25.565   2216503305.027
RECEIVE_FREQ_1 =   2022-11-21T17:58:36.106   2216503301.827
RECEIVE_FREQ_1 =   2022-11-21T17:58:46.560   2216503298.927
RECEIVE_FREQ_1 =   2022-11-21T17:58:57.101   2216503296.127
RECEIVE_FREQ_1 =   2022-11-21T17:59:07.642   2216503292.6
RECEIVE_FREQ_1 =   2022-11-21T17:59:18.182   2216503290.327
RECEIVE_FREQ_1 =   2022-11-21T17:59:28.637   2216503286.727
RECEIVE_FREQ_1 =   2022-11-21T17:59:39.178   2216503284.427
RECEIVE_FREQ_1 =   2022-11-21T17:59:49.718   2216503280.527
RECEIVE_FREQ_1 =   2022-11-21T18:00:00.173   2216503278.327
RECEIVE_FREQ_1 =   2022-11-21T18:00:10.714   2216503275.027
RECEIVE_FREQ_1 =   2022-11-21T18:00:21.168   2216503271.727
RECEIVE_FREQ_1 =   2022-11-21T18:00:31.622   2216503269.527
RECEIVE_FREQ_1 =   2022-11-21T18:00:42.163   2216503266.527
RECEIVE_FREQ_1 =   2022-11-21T18:00:52.618   2216503263.127
RECEIVE_FREQ_1 =   2022-11-21T18:01:03.158   2216503259.827
RECEIVE_FREQ_1 =   2022-11-21T18:01:13.613   2216503257.027
RECEIVE_FREQ_1 =   2022-11-21T18:01:24.154   2216503253.827
RECEIVE_FREQ_1 =   2022-11-21T18:01:34.694   2216503251.4
RECEIVE_FREQ_1 =   2022-11-21T18:01:45.235   2216503248.327
RECEIVE_FREQ_1 =   2022-11-21T18:01:55.776   2216503245.2
RECEIVE_FREQ_1 =   2022-11-21T18:02:06.317   2216503242.427
RECEIVE_FREQ_1 =   2022-11-21T18:02:16.771   2216503239.427
RECEIVE_FREQ_1 =   2022-11-21T18:02:27.312   2216503237.0
RECEIVE_FREQ_1 =   2022-11-21T18:02:37.853   2216503233.127
RECEIVE_FREQ_1 =   2022-11-21T18:02:48.394   2216503230.4
RECEIVE_FREQ_1 =   2022-11-21T18:02:58.934   2216503227.627
RECEIVE_FREQ_1 =   2022-11-21T18:03:09.475   2216503224.527
RECEIVE_FREQ_1 =   2022-11-21T18:03:19.930   2216503221.2
RECEIVE_FREQ_1 =   2022-11-21T18:03:30.470   2216503218.4
RECEIVE_FREQ_1 =   2022-11-21T18:03:41.011   2216503215.227
RECEIVE_FREQ_1 =   2022-11-21T18:03:51.466   2216503213.027
RECEIVE_FREQ_1 =   2022-11-21T18:04:02.006   2216503210.327
RECEIVE_FREQ_1 =   2022-11-21T18:04:12.461   2216503206.927
RECEIVE_FREQ_1 =   2022-11-21T18:04:22.915   2216503203.727
RECEIVE_FREQ_1 =   2022-11-21T18:04:33.456   2216503201.127
RECEIVE_FREQ_1 =   2022-11-21T18:04:43.997   2216503198.227
RECEIVE_FREQ_1 =   2022-11-21T18:04:54.538   2216503194.627
RECEIVE_FREQ_1 =   2022-11-21T18:05:04.992   2216503191.6
RECEIVE_FREQ_1 =   2022-11-21T18:05:15.533   2216503189.127
RECEIVE_FREQ_1 =   2022-11-21T18:05:26.160   2216503186.527
RECEIVE_FREQ_1 =   2022-11-21T18:05:36.701   2216503183.2
RECEIVE_FREQ_1 =   2022-11-21T18:05:47.242   2216503180.4
RECEIVE_FREQ_1 =   2022-11-21T18:05:57.782   2216503177.327
RECEIVE_FREQ_1 =   2022-11-21T18:06:08.323   2216503174.927
RECEIVE_FREQ_1 =   2022-11-21T18:06:18.864   2216503171.927
RECEIVE_FREQ_1 =   2022-11-21T18:06:29.405   2216503168.627
RECEIVE_FREQ_1 =   2022-11-21T18:06:39.946   2216503166.027
RECEIVE_FREQ_1 =   2022-11-21T18:06:50.400   2216503162.827
RECEIVE_FREQ_1 =   2022-11-21T18:07:01.027   2216503160.427
RECEIVE_FREQ_1 =   2022-11-21T18:07:11.568   2216503157.327
RECEIVE_FREQ_1 =   2022-11-21T18:07:22.109   2216503154.227
RECEIVE_FREQ_1 =   2022-11-21T18:07:32.563   2216503151.827
RECEIVE_FREQ_1 =   2022-11-21T18:07:43.104   2216503148.227
RECEIVE_FREQ_1 =   2022-11-21T18:07:53.558   2216503145.927
RECEIVE_FREQ_1 =   2022-11-21T18:08:04.099   2216503143.327
RECEIVE_FREQ_1 =   2022-11-21T18:08:14.640   2216503139.927
RECEIVE_FREQ_1 =   2022-11-21T18:08:25.094   2216503137.5
RECEIVE_FREQ_1 =   2022-11-21T18:08:35.635   2216503133.6
RECEIVE_FREQ_1 =   2022-11-21T18:08:46.176   2216503131.727
RECEIVE_FREQ_1 =   2022-11-21T18:08:56.630   2216503128.7
RECEIVE_FREQ_1 =   2022-11-21T18:09:07.171   2216503125.727
RECEIVE_FREQ_1 =   2022-11-21T18:09:17.626   2216503122.727
RECEIVE_FREQ_1 =   2022-11-21T18:09:28.166   2216503119.127
RECEIVE_FREQ_1 =   2022-11-21T18:09:38.621   2216503116.827
RECEIVE_FREQ_1 =   2022-11-21T18:09:49.162   2216503114.227
RECEIVE_FREQ_1 =   2022-11-21T18:09:59.702   2216503111.027
RECEIVE_FREQ_1 =   2022-11-21T18:10:10.157   2216503108.0
RECEIVE_FREQ_1 =   2022-11-21T18:10:20.611   2216503105.3
RECEIVE_FREQ_1 =   2022-11-21T18:10:31.152   2216503102.427
RECEIVE_FREQ_1 =   2022-11-21T18:10:41.606   2216503099.327
RECEIVE_FREQ_1 =   2022-11-21T18:10:52.147   2216503097.427
RECEIVE_FREQ_1 =   2022-11-21T18:11:02.602   2216503093.5
RECEIVE_FREQ_1 =   2022-11-21T18:11:13.142   2216503091.2
RECEIVE_FREQ_1 =   2022-11-21T18:11:23.597   2216503088.4
RECEIVE_FREQ_1 =   2022-11-21T18:11:34.051   2216503085.427
RECEIVE_FREQ_1 =   2022-11-21T18:11:44.592   2216503082.727
RECEIVE_FREQ_1 =   2022-11-21T18:11:55.046   2216503079.627
RECEIVE_FREQ_1 =   2022-11-21T18:12:05.587   2216503076.727
RECEIVE_FREQ_1 =   2022-11-21T18:12:16.128   2216503073.827
RECEIVE_FREQ_1 =   2022-11-21T18:12:26.669   2216503070.9
RECEIVE_FREQ_1 =   2022-11-21T18:12:37.123   2216503067.427
RECEIVE_FREQ_1 =   2022-11-21T18:12:47.664   2216503065.027
RECEIVE_FREQ_1 =   2022-11-21T18:12:58.205   2216503061.627
RECEIVE_FREQ_1 =   2022-11-21T18:13:08.746   2216503058.427
RECEIVE_FREQ_1 =   2022-11-21T18:13:19.200   2216503055.727
RECEIVE_FREQ_1 =   2022-11-21T18:13:29.654   2216503052.4
RECEIVE_FREQ_1 =   2022-11-21T18:13:40.195   2216503050.327
RECEIVE_FREQ_1 =   2022-11-21T18:13:50.650   2216503046.827
RECEIVE_FREQ_1 =   2022-11-21T18:14:01.190   2216503043.827
RECEIVE_FREQ_1 =   2022-11-21T18:14:11.731   2216503041.127
RECEIVE_FREQ_1 =   2022-11-21T18:14:22.186   2216503038.1
RECEIVE_FREQ_1 =   2022-11-21T18:14:32.726   2216503035.2
RECEIVE_FREQ_1 =   2022-11-21T18:14:43.354   2216503032.327
RECEIVE_FREQ_1 =   2022-11-21T18:14:53.894   2216503029.227
RECEIVE_FREQ_1 =   2022-11-21T18:15:04.435   2216503025.5
RECEIVE_FREQ_1 =   2022-11-21T18:15:14.976   2216503023.427
RECEIVE_FREQ_1 =   2022-11-21T18:15:25.517   2216503019.7
RECEIVE_FREQ_1 =   2022-11-21T18:15:36.058   2216503018.0
RECEIVE_FREQ_1 =   2022-11-21T18:15:46.512   2216503014.8
RECEIVE_FREQ_1 =   2022-11-21T18:15:57.053   2216503011.6
RECEIVE_FREQ_1 =   2022-11-21T18:16:07.594   2216503008.327
RECEIVE_FREQ_1 =   2022-11-21T18:16:18.048   2216503005.627
RECEIVE_FREQ_1 =   2022-11-21T18:16:28.589   2216503002.6
RECEIVE_FREQ_1 =   2022-11-21T18:16:39.130   2216502999.627
RECEIVE_FREQ_1 =   2022-11-21T18:16:49.670   2216502996.927
RECEIVE_FREQ_1 =   2022-11-21T18:17:00.211   2216502993.727
RECEIVE_FREQ_1 =   2022-11-21T18:17:10.666   2216502990.927
RECEIVE_FREQ_1 =   2022-11-21T18:17:21.120   2216502987.727
RECEIVE_FREQ_1 =   2022-11-21T18:17:31.661   2216502985.027
RECEIVE_FREQ_1 =   2022-11-21T18:17:42.115   2216502982.7
RECEIVE_FREQ_1 =   2022-11-21T18:17:52.656   2216502979.7
RECEIVE_FREQ_1 =   2022-11-21T18:18:03.110   2216502976.3
RECEIVE_FREQ_1 =   2022-11-21T18:18:13.651   2216502973.227
RECEIVE_FREQ_1 =   2022-11-21T18:18:24.192   2216502970.527
RECEIVE_FREQ_1 =   2022-11-21T18:18:34.646   2216502967.8
RECEIVE_FREQ_1 =   2022-11-21T18:18:45.187   2216502965.0
RECEIVE_FREQ_1 =   2022-11-21T18:18:55.642   2216502961.727
RECEIVE_FREQ_1 =   2022-11-21T18:19:06.182   2216502959.427
RECEIVE_FREQ_1 =   2022-11-21T18:19:16.637   2216502956.4
RECEIVE_FREQ_1 =   2022-11-21T18:19:27.178   2216502953.5
RECEIVE_FREQ_1 =   2022-11-21T18:19:37.632   2216502950.427
RECEIVE_FREQ_1 =   2022-11-21T18:19:48.173   2216502947.8
RECEIVE_FREQ_1 =   2022-11-21T18:19:58.627   2216502944.627
RECEIVE_FREQ_1 =   2022-11-21T18:20:09.082   2216502942.3
RECEIVE_FREQ_1 =   2022-11-21T18:20:19.622   2216502939.227
RECEIVE_FREQ_1 =   2022-11-21T18:20:30.163   2216502936.027
RECEIVE_FREQ_1 =   2022-11-21T18:20:40.618   2216502933.327
RECEIVE_FREQ_1 =   2022-11-21T18:20:51.158   2216502930.5
RECEIVE_FREQ_1 =   2022-11-21T18:21:01.613   2216502927.627
RECEIVE_FREQ_1 =   2022-11-21T18:21:12.154   2216502924.227
RECEIVE_FREQ_1 =   2022-11-21T18:21:22.694   2216502921.627
RECEIVE_FREQ_1 =   2022-11-21T18:21:33.149   2216502918.727
RECEIVE_FREQ_1 =   2022-11-21T18:21:43.603   2216502916.027
RECEIVE_FREQ_1 =   2022-11-21T18:21:54.144   2216502913.4
RECEIVE_FREQ_1 =   2022-11-21T18:22:04.685   2216502910.4
RECEIVE_FREQ_1 =   2022-11-21T18:22:15.226   2216502907.6
RECEIVE_FREQ_1 =   2022-11-21T18:22:25.766   2216502904.6
RECEIVE_FREQ_1 =   2022-11-21T18:22:36.221   2216502902.027
RECEIVE_FREQ_1 =   2022-11-21T18:22:46.762   2216502899.1
RECEIVE_FREQ_1 =   2022-11-21T18:22:57.302   2216502896.1
RECEIVE_FREQ_1 =   2022-11-21T18:23:07.930   2216502892.9
RECEIVE_FREQ_1 =   2022-11-21T18:23:18.557   2216502890.6
RECEIVE_FREQ_1 =   2022-11-21T18:23:29.098   2216502888.0
RECEIVE_FREQ_1 =   2022-11-21T18:23:39.638   2216502885.2
RECEIVE_FREQ_1 =   2022-11-21T18:23:50.179   2216502881.927
RECEIVE_FREQ_1 =   2022-11-21T18:24:00.720   2216502879.1
RECEIVE_FREQ_1 =   2022-11-21T18:24:11.174   2216502876.1
RECEIVE_FREQ_1 =   2022-11-21T18:24:21.802   2216502873.6
RECEIVE_FREQ_1 =   2022-11-21T18:24:32.342   2216502870.427
RECEIVE_FREQ_1 =   2022-11-21T18:24:42.883   2216502867.827
RECEIVE_FREQ_1 =   2022-11-21T18:24:53.510   2216502865.827
RECEIVE_FREQ_1 =   2022-11-21T18:25:04.051   2216502862.4
RECEIVE_FREQ_1 =   2022-11-21T18:25:14.506   2216502859.927
RECEIVE_FREQ_1 =   2022-11-21T18:25:25.046   2216502856.9
RECEIVE_FREQ_1 =   2022-11-21T18:25:35.501   2216502853.727
RECEIVE_FREQ_1 =   2022-11-21T18:25:46.042   2216502851.1
RECEIVE_FREQ_1 =   2022-11-21T18:25:56.582   2216502848.227
RECEIVE_FREQ_1 =   2022-11-21T18:26:07.123   2216502846.027
RECEIVE_FREQ_1 =   2022-11-21T18:26:17.578   2216502842.5
RECEIVE_FREQ_1 =   2022-11-21T18:26:28.118   2216502839.5
RECEIVE_FREQ_1 =   2022-11-21T18:26:38.573   2216502836.827
RECEIVE_FREQ_1 =   2022-11-21T18:26:49.027   2216502834.4
RECEIVE_FREQ_1 =   2022-11-21T18:26:59.482   2216502831.8
RECEIVE_FREQ_1 =   2022-11-21T18:27:10.022   2216502828.827
RECEIVE_FREQ_1 =   2022-11-21T18:27:20.563   2216502826.527
RECEIVE_FREQ_1 =   2022-11-21T18:27:31.018   2216502823.2
RECEIVE_FREQ_1 =   2022-11-21T18:27:41.558   2216502820.627
RECEIVE_FREQ_1 =   2022-11-21T18:27:52.013   2216502817.527
RECEIVE_FREQ_1 =   2022-11-21T18:28:02.554   2216502814.4
RECEIVE_FREQ_1 =   2022-11-21T18:28:13.008   2216502811.7
RECEIVE_FREQ_1 =   2022-11-21T18:28:23.549   2216502809.3
RECEIVE_FREQ_1 =   2022-11-21T18:28:34.003   2216502806.2
RECEIVE_FREQ_1 =   2022-11-21T18:28:44.458   2216502804.127
RECEIVE_FREQ_1 =   2022-11-21T18:28:54.998   2216502801.127
RECEIVE_FREQ_1 =   2022-11-21T18:29:05.453   2216502798.027
RECEIVE_FREQ_1 =   2022-11-21T18:29:15.994   2216502795.827
RECEIVE_FREQ_1 =   2022-11-21T18:29:26.448   2216502792.6
RECEIVE_FREQ_1 =   2022-11-21T18:29:36.989   2216502789.927
RECEIVE_FREQ_1 =   2022-11-21T18:29:47.530   2216502787.027
RECEIVE_FREQ_1 =   2022-11-21T18:29:57.984   2216502784.3
RECEIVE_FREQ_1 =   2022-11-21T18:30:08.525   2216502783.827
RECEIVE_FREQ_1 =   2022-11-21T18:30:19.066   2216502781.027
RECEIVE_FREQ_1 =   2022-11-21T18:30:29.606   2216502778.027
RECEIVE_FREQ_1 =   2022-11-21T18:30:40.061   2216502775.2
RECEIVE_FREQ_1 =   2022-11-21T18:30:50.602   2216502772.9
RECEIVE_FREQ_1 =   2022-11-21T18:31:01.056   2216502769.527
RECEIVE_FREQ_1 =   2022-11-21T18:31:11.597   2216502766.627
RECEIVE_FREQ_1 =   2022-11-21T18:31:22.051   2216502764.527
RECEIVE_FREQ_1 =   2022-11-21T18:31:32.592   2216502761.527
RECEIVE_FREQ_1 =   2022-11-21T18:31:43.133   2216502758.627
RECEIVE_FREQ_1 =   2022-11-21T18:31:53.587   2216502755.7
RECEIVE_FREQ_1 =   2022-11-21T18:32:04.042   2216502752.9
RECEIVE_FREQ_1 =   2022-11-21T18:32:14.582   2216502749.8
RECEIVE_FREQ_1 =   2022-11-21T18:32:25.037   2216502747.127
RECEIVE_FREQ_1 =   2022-11-21T18:32:35.578   2216502744.427
RECEIVE_FREQ_1 =   2022-11-21T18:32:46.118   2216502741.2
RECEIVE_FREQ_1 =   2022-11-21T18:32:56.573   2216502738.527
RECEIVE_FREQ_1 =   2022-11-21T18:33:07.114   2216502735.427
RECEIVE_FREQ_1 =   2022-11-21T18:33:17.568   2216502733.127
RECEIVE_FREQ_1 =   2022-11-21T18:33:28.109   2216502730.0
RECEIVE_FREQ_1 =   2022-11-21T18:33:38.563   2216502727.1
RECEIVE_FREQ_1 =   2022-11-21T18:33:49.104   2216502724.727
RECEIVE_FREQ_1 =   2022-11-21T18:33:59.558   2216502721.5
RECEIVE_FREQ_1 =   2022-11-21T18:34:10.013   2216502718.827
RECEIVE_FREQ_1 =   2022-11-21T18:34:20.554   2216502716.027
RECEIVE_FREQ_1 =   2022-11-21T18:34:31.094   2216502713.327
RECEIVE_FREQ_1 =   2022-11-21T18:34:41.635   2216502710.727
RECEIVE_FREQ_1 =   2022-11-21T18:34:52.176   2216502707.627
RECEIVE_FREQ_1 =   2022-11-21T18:35:02.717   2216502704.527
RECEIVE_FREQ_1 =   2022-11-21T18:35:13.171   2216502701.8
RECEIVE_FREQ_1 =   2022-11-21T18:35:23.712   2216502699.027
RECEIVE_FREQ_1 =   2022-11-21T18:35:34.253   2216502696.2
RECEIVE_FREQ_1 =   2022-11-21T18:35:44.707   2216502693.4
RECEIVE_FREQ_1 =   2022-11-21T18:35:55.248   2216502691.027
RECEIVE_FREQ_1 =   2022-11-21T18:36:05.702   2216502688.1
RECEIVE_FREQ_1 =   2022-11-21T18:36:16.243   2216502685.327
RECEIVE_FREQ_1 =   2022-11-21T18:36:26.784   2216502682.427
RECEIVE_FREQ_1 =   2022-11-21T18:36:37.238   2216502679.7
RECEIVE_FREQ_1 =   2022-11-21T18:36:47.779   2216502676.6
RECEIVE_FREQ_1 =   2022-11-21T18:36:58.320   2216502673.6
RECEIVE_FREQ_1 =   2022-11-21T18:37:08.774   2216502670.727
RECEIVE_FREQ_1 =   2022-11-21T18:37:19.315   2216502668.2
RECEIVE_FREQ_1 =   2022-11-21T18:37:29.856   2216502665.227
RECEIVE_FREQ_1 =   2022-11-21T18:37:40.397   2216502662.427
RECEIVE_FREQ_1 =   2022-11-21T18:37:50.938   2216502660.027
RECEIVE_FREQ_1 =   2022-11-21T18:38:01.478   2216502657.027
RECEIVE_FREQ_1 =   2022-11-21T18:38:11.933   2216502654.527
RECEIVE_FREQ_1 =   2022-11-21T18:38:22.474   2216502651.827
RECEIVE_FREQ_1 =   2022-11-21T18:38:33.101   2216502649.0
RECEIVE_FREQ_1 =   2022-11-21T18:38:43.555   2216502646.227
RECEIVE_FREQ_1 =   2022-11-21T18:38:54.096   2216502644.027
RECEIVE_FREQ_1 =   2022-11-21T18:39:04.637   2216502641.327
RECEIVE_FREQ_1 =   2022-11-21T18:39:15.178   2216502638.1
RECEIVE_FREQ_1 =   2022-11-21T18:39:25.718   2216502636.127
RECEIVE_FREQ_1 =   2022-11-21T18:39:36.173   2216502632.6
RECEIVE_FREQ_1 =   2022-11-21T18:39:46.714   2216502630.1
RECEIVE_FREQ_1 =   2022-11-21T18:39:57.168   2216502627.3
RECEIVE_FREQ_1 =   2022-11-21T18:40:07.709   2216502624.5
RECEIVE_FREQ_1 =   2022-11-21T18:40:18.250   2216502621.7
RECEIVE_FREQ_1 =   2022-11-21T18:40:28.704   2216502619.1
RECEIVE_FREQ_1 =   2022-11-21T18:40:39.245   2216502616.6
RECEIVE_FREQ_1 =   2022-11-21T18:40:49.699   2216502613.027
RECEIVE_FREQ_1 =   2022-11-21T18:41:00.240   2216502610.9
RECEIVE_FREQ_1 =   2022-11-21T18:41:10.867   2216502607.9
RECEIVE_FREQ_1 =   2022-11-21T18:41:21.322   2216502605.6
RECEIVE_FREQ_1 =   2022-11-21T18:41:31.776   2216502602.8
RECEIVE_FREQ_1 =   2022-11-21T18:41:42.317   2216502600.1
RECEIVE_FREQ_1 =   2022-11-21T18:41:52.771   2216502597.8
RECEIVE_FREQ_1 =   2022-11-21T18:42:03.312   2216502595.1
RECEIVE_FREQ_1 =   2022-11-21T18:42:13.766   2216502592.3
RECEIVE_FREQ_1 =   2022-11-21T18:42:24.307   2216502588.9
RECEIVE_FREQ_1 =   2022-11-21T18:42:34.762   2216502587.1
RECEIVE_FREQ_1 =   2022-11-21T18:42:45.302   2216502584.1
RECEIVE_FREQ_1 =   2022-11-21T18:42:55.757   2216502581.3
RECEIVE_FREQ_1 =   2022-11-21T18:43:06.384   2216502578.4
RECEIVE_FREQ_1 =   2022-11-21T18:43:17.098   2216502575.9
RECEIVE_FREQ_1 =   2022-11-21T18:43:27.811   2216502573.3
RECEIVE_FREQ_1 =   2022-11-21T18:43:38.525   2216502570.4
RECEIVE_FREQ_1 =   2022-11-21T18:43:49.152   2216502567.2
RECEIVE_FREQ_1 =   2022-11-21T18:43:59.779   2216502564.427
RECEIVE_FREQ_1 =   2022-11-21T18:44:10.406   2216502562.127
RECEIVE_FREQ_1 =   2022-11-21T18:44:20.947   2216502559.727
RECEIVE_FREQ_1 =   2022-11-21T18:44:31.488   2216502557.1
RECEIVE_FREQ_1 =   2022-11-21T18:44:41.942   2216502553.827
RECEIVE_FREQ_1 =   2022-11-21T18:44:52.483   2216502551.327
RECEIVE_FREQ_1 =   2022-11-21T18:45:02.938   2216502548.827
RECEIVE_FREQ_1 =   2022-11-21T18:45:13.392   2216502546.4
RECEIVE_FREQ_1 =   2022-11-21T18:45:23.933   2216502543.6
RECEIVE_FREQ_1 =   2022-11-21T18:45:34.387   2216502540.427
RECEIVE_FREQ_1 =   2022-11-21T18:45:44.842   2216502537.7
RECEIVE_FREQ_1 =   2022-11-21T18:45:55.382   2216502535.027
RECEIVE_FREQ_1 =   2022-11-21T18:46:05.837   2216502532.527
RECEIVE_FREQ_1 =   2022-11-21T18:46:16.378   2216502529.6
RECEIVE_FREQ_1 =   2022-11-21T18:46:26.918   2216502527.027
RECEIVE_FREQ_1 =   2022-11-21T18:46:37.459   2216502524.327
RECEIVE_FREQ_1 =   2022-11-21T18:46:48.000   2216502521.227
RECEIVE_FREQ_1 =   2022-11-21T18:46:58.541   2216502519.427
RECEIVE_FREQ_1 =   2022-11-21T18:47:08.995   2216502516.527
RECEIVE_FREQ_1 =   2022-11-21T18:47:19.536   2216502513.727
RECEIVE_FREQ_1 =   2022-11-21T18:47:30.077   2216502511.027
RECEIVE_FREQ_1 =   2022-11-21T18:47:40.531   2216502507.7
