data/tdm/2022-12-07Z_2022-156A.tdm

CCSDS_TDM_VERS = 2.0
COMMENT TDM ARTEMIS 1 Doppler data by Scott Tilley for 2022-12-07 UTC
COMMENT Signal not demodulated, to low of SNR, centre carrier integrated in 10s by 0.1Hz bin and extracted for peak value.
CREATION_DATE = 2022-12-07Z
ORIGINATOR = SCOTT TILLEY

META_START
COMMENT 
COMMENT 
SYSTEM TIME = UTC
PARTICIPANT_1 = COSPAR 8049
PARTICIPANT_2 = 2022-156A
MODE = SEQUENTIAL
PATH = 2,1
INTEGRATION_INTERVAL = 10
INTEGRATION_REF = MIDDLE
FREQ_OFFSET = 0
TRANSMIT_DELAY_1 = 0
RECEIVE_DELAY_1 = 0
DATA_QUALITY = RAW
META_STOP

DATA_START
RECEIVE_FREQ_1 =   2022-12-08T04:23:17.549   2216502872.8
RECEIVE_FREQ_1 =   2022-12-08T04:23:27.571   2216502871.3
RECEIVE_FREQ_1 =   2022-12-08T04:23:37.594   2216502870.0
RECEIVE_FREQ_1 =   2022-12-08T04:23:47.616   2216502868.6
RECEIVE_FREQ_1 =   2022-12-08T04:23:57.638   2216502867.4
RECEIVE_FREQ_1 =   2022-12-08T04:24:07.574   2216502865.7
RECEIVE_FREQ_1 =   2022-12-08T04:24:17.597   2216502864.2
RECEIVE_FREQ_1 =   2022-12-08T04:24:27.619   2216502863.1
RECEIVE_FREQ_1 =   2022-12-08T04:24:37.555   2216502861.8
RECEIVE_FREQ_1 =   2022-12-08T04:24:47.578   2216502860.0
RECEIVE_FREQ_1 =   2022-12-08T04:24:57.600   2216502859.4
RECEIVE_FREQ_1 =   2022-12-08T04:25:07.622   2216502857.4
RECEIVE_FREQ_1 =   2022-12-08T04:25:17.558   2216502856.4
RECEIVE_FREQ_1 =   2022-12-08T04:25:27.581   2216502854.9
RECEIVE_FREQ_1 =   2022-12-08T04:25:37.603   2216502853.7
RECEIVE_FREQ_1 =   2022-12-08T04:25:47.626   2216502852.5
RECEIVE_FREQ_1 =   2022-12-08T04:25:57.562   2216502850.9
RECEIVE_FREQ_1 =   2022-12-08T04:26:07.584   2216502849.5
RECEIVE_FREQ_1 =   2022-12-08T04:26:17.606   2216502848.2
RECEIVE_FREQ_1 =   2022-12-08T04:26:27.542   2216502847.1
RECEIVE_FREQ_1 =   2022-12-08T04:26:37.565   2216502845.7
RECEIVE_FREQ_1 =   2022-12-08T04:26:47.587   2216502844.5
RECEIVE_FREQ_1 =   2022-12-08T04:26:57.610   2216502843.0
RECEIVE_FREQ_1 =   2022-12-08T04:27:07.632   2216502841.6
RECEIVE_FREQ_1 =   2022-12-08T04:27:17.568   2216502840.5
RECEIVE_FREQ_1 =   2022-12-08T04:27:27.590   2216502839.1
RECEIVE_FREQ_1 =   2022-12-08T04:27:37.613   2216502837.8
RECEIVE_FREQ_1 =   2022-12-08T04:27:47.635   2216502836.7
RECEIVE_FREQ_1 =   2022-12-08T04:27:57.571   2216502835.3
RECEIVE_FREQ_1 =   2022-12-08T04:28:07.594   2216502834.1
RECEIVE_FREQ_1 =   2022-12-08T04:28:17.616   2216502832.8
RECEIVE_FREQ_1 =   2022-12-08T04:28:27.552   2216502831.5
RECEIVE_FREQ_1 =   2022-12-08T04:28:37.574   2216502830.2
RECEIVE_FREQ_1 =   2022-12-08T04:28:47.597   2216502828.8
RECEIVE_FREQ_1 =   2022-12-08T04:28:57.619   2216502827.4
RECEIVE_FREQ_1 =   2022-12-08T04:29:07.555   2216502826.2
RECEIVE_FREQ_1 =   2022-12-08T04:29:17.578   2216502825.0
RECEIVE_FREQ_1 =   2022-12-08T04:29:27.600   2216502823.6
RECEIVE_FREQ_1 =   2022-12-08T04:29:37.622   2216502822.6
RECEIVE_FREQ_1 =   2022-12-08T04:29:47.558   2216502821.3
RECEIVE_FREQ_1 =   2022-12-08T04:29:57.581   2216502819.8
RECEIVE_FREQ_1 =   2022-12-08T04:30:07.603   2216502818.5
RECEIVE_FREQ_1 =   2022-12-08T04:30:17.539   2216502817.2
RECEIVE_FREQ_1 =   2022-12-08T04:30:27.562   2216502815.9
RECEIVE_FREQ_1 =   2022-12-08T04:30:37.584   2216502814.6
RECEIVE_FREQ_1 =   2022-12-08T04:30:47.606   2216502813.3
RECEIVE_FREQ_1 =   2022-12-08T04:30:57.629   2216502811.8
RECEIVE_FREQ_1 =   2022-12-08T04:31:07.565   2216502810.6
RECEIVE_FREQ_1 =   2022-12-08T04:31:17.587   2216502809.5
RECEIVE_FREQ_1 =   2022-12-08T04:31:27.610   2216502808.5
RECEIVE_FREQ_1 =   2022-12-08T04:31:37.546   2216502806.9
RECEIVE_FREQ_1 =   2022-12-08T04:31:47.568   2216502805.5
RECEIVE_FREQ_1 =   2022-12-08T04:31:57.590   2216502804.2
RECEIVE_FREQ_1 =   2022-12-08T04:32:07.613   2216502803.2
RECEIVE_FREQ_1 =   2022-12-08T04:32:17.549   2216502801.5
RECEIVE_FREQ_1 =   2022-12-08T04:32:27.571   2216502800.0
RECEIVE_FREQ_1 =   2022-12-08T04:32:37.594   2216502799.0
RECEIVE_FREQ_1 =   2022-12-08T04:32:47.616   2216502797.5
RECEIVE_FREQ_1 =   2022-12-08T04:32:57.552   2216502796.7
RECEIVE_FREQ_1 =   2022-12-08T04:33:07.574   2216502795.6
RECEIVE_FREQ_1 =   2022-12-08T04:33:17.597   2216502793.6
RECEIVE_FREQ_1 =   2022-12-08T04:33:27.619   2216502792.5
RECEIVE_FREQ_1 =   2022-12-08T04:33:37.555   2216502791.2
RECEIVE_FREQ_1 =   2022-12-08T04:33:47.578   2216502789.8
RECEIVE_FREQ_1 =   2022-12-08T04:33:57.600   2216502788.6
RECEIVE_FREQ_1 =   2022-12-08T04:34:07.622   2216502787.6
RECEIVE_FREQ_1 =   2022-12-08T04:34:17.558   2216502786.3
RECEIVE_FREQ_1 =   2022-12-08T04:34:27.581   2216502784.4
RECEIVE_FREQ_1 =   2022-12-08T04:34:37.603   2216502783.4
RECEIVE_FREQ_1 =   2022-12-08T04:34:47.626   2216502782.4
RECEIVE_FREQ_1 =   2022-12-08T04:34:57.562   2216502780.9
RECEIVE_FREQ_1 =   2022-12-08T04:35:07.584   2216502779.3
RECEIVE_FREQ_1 =   2022-12-08T04:35:17.606   2216502778.0
RECEIVE_FREQ_1 =   2022-12-08T04:35:27.542   2216502777.0
RECEIVE_FREQ_1 =   2022-12-08T04:35:37.565   2216502775.7
RECEIVE_FREQ_1 =   2022-12-08T04:35:47.587   2216502774.4
RECEIVE_FREQ_1 =   2022-12-08T04:35:57.610   2216502772.8
RECEIVE_FREQ_1 =   2022-12-08T04:36:07.546   2216502771.5
RECEIVE_FREQ_1 =   2022-12-08T04:36:17.568   2216502770.1
RECEIVE_FREQ_1 =   2022-12-08T04:36:27.590   2216502769.0
RECEIVE_FREQ_1 =   2022-12-08T04:36:37.613   2216502768.1
RECEIVE_FREQ_1 =   2022-12-08T04:36:47.549   2216502766.2
RECEIVE_FREQ_1 =   2022-12-08T04:36:57.571   2216502764.9
RECEIVE_FREQ_1 =   2022-12-08T04:37:07.594   2216502763.5
RECEIVE_FREQ_1 =   2022-12-08T04:37:17.616   2216502762.6
RECEIVE_FREQ_1 =   2022-12-08T04:37:27.552   2216502761.3
RECEIVE_FREQ_1 =   2022-12-08T04:37:37.574   2216502759.9
RECEIVE_FREQ_1 =   2022-12-08T04:37:47.597   2216502758.5
RECEIVE_FREQ_1 =   2022-12-08T04:37:57.619   2216502756.9
RECEIVE_FREQ_1 =   2022-12-08T04:38:07.555   2216502756.2
RECEIVE_FREQ_1 =   2022-12-08T04:38:17.578   2216502754.8
RECEIVE_FREQ_1 =   2022-12-08T04:38:27.600   2216502753.5
RECEIVE_FREQ_1 =   2022-12-08T04:38:37.622   2216502751.9
RECEIVE_FREQ_1 =   2022-12-08T04:38:47.558   2216502750.6
RECEIVE_FREQ_1 =   2022-12-08T04:38:57.581   2216502749.3
RECEIVE_FREQ_1 =   2022-12-08T04:39:07.603   2216502747.7
RECEIVE_FREQ_1 =   2022-12-08T04:39:17.626   2216502746.7
RECEIVE_FREQ_1 =   2022-12-08T04:39:27.562   2216502745.5
RECEIVE_FREQ_1 =   2022-12-08T04:39:37.584   2216502743.7
RECEIVE_FREQ_1 =   2022-12-08T04:39:47.606   2216502742.6
RECEIVE_FREQ_1 =   2022-12-08T04:39:57.629   2216502741.4
RECEIVE_FREQ_1 =   2022-12-08T04:40:07.565   2216502739.8
RECEIVE_FREQ_1 =   2022-12-08T04:40:17.587   2216502738.7
RECEIVE_FREQ_1 =   2022-12-08T04:40:27.610   2216502737.1
RECEIVE_FREQ_1 =   2022-12-08T04:40:37.546   2216502735.6
RECEIVE_FREQ_1 =   2022-12-08T04:40:47.568   2216502734.7
RECEIVE_FREQ_1 =   2022-12-08T04:40:57.590   2216502732.9
RECEIVE_FREQ_1 =   2022-12-08T04:41:07.613   2216502732.0
RECEIVE_FREQ_1 =   2022-12-08T04:41:17.549   2216502730.4
RECEIVE_FREQ_1 =   2022-12-08T04:41:27.571   2216502729.5
RECEIVE_FREQ_1 =   2022-12-08T04:41:37.594   2216502727.8
RECEIVE_FREQ_1 =   2022-12-08T04:41:47.616   2216502726.7
RECEIVE_FREQ_1 =   2022-12-08T04:41:57.552   2216502725.1
RECEIVE_FREQ_1 =   2022-12-08T04:42:07.574   2216502723.9
RECEIVE_FREQ_1 =   2022-12-08T04:42:17.597   2216502722.2
RECEIVE_FREQ_1 =   2022-12-08T04:42:27.619   2216502721.0
RECEIVE_FREQ_1 =   2022-12-08T04:42:37.555   2216502719.7
RECEIVE_FREQ_1 =   2022-12-08T04:42:47.578   2216502718.7
RECEIVE_FREQ_1 =   2022-12-08T04:42:57.600   2216502717.1
RECEIVE_FREQ_1 =   2022-12-08T04:43:07.622   2216502716.0
RECEIVE_FREQ_1 =   2022-12-08T04:43:17.558   2216502714.6
RECEIVE_FREQ_1 =   2022-12-08T04:43:27.581   2216502712.9
RECEIVE_FREQ_1 =   2022-12-08T04:43:37.603   2216502712.0
RECEIVE_FREQ_1 =   2022-12-08T04:43:47.626   2216502710.3
RECEIVE_FREQ_1 =   2022-12-08T04:43:57.562   2216502709.1
RECEIVE_FREQ_1 =   2022-12-08T04:44:07.584   2216502708.1
RECEIVE_FREQ_1 =   2022-12-08T04:44:17.606   2216502706.4
RECEIVE_FREQ_1 =   2022-12-08T04:44:27.629   2216502705.3
RECEIVE_FREQ_1 =   2022-12-08T04:44:37.565   2216502703.7
RECEIVE_FREQ_1 =   2022-12-08T04:44:47.587   2216502702.5
RECEIVE_FREQ_1 =   2022-12-08T04:44:57.610   2216502701.3
RECEIVE_FREQ_1 =   2022-12-08T04:45:07.632   2216502699.9
RECEIVE_FREQ_1 =   2022-12-08T04:45:17.568   2216502698.2
RECEIVE_FREQ_1 =   2022-12-08T04:45:27.590   2216502696.9
RECEIVE_FREQ_1 =   2022-12-08T04:45:37.613   2216502695.2
RECEIVE_FREQ_1 =   2022-12-08T04:45:47.549   2216502694.6
RECEIVE_FREQ_1 =   2022-12-08T04:45:57.571   2216502692.7
RECEIVE_FREQ_1 =   2022-12-08T04:46:07.594   2216502691.6
RECEIVE_FREQ_1 =   2022-12-08T04:46:17.616   2216502690.4
RECEIVE_FREQ_1 =   2022-12-08T04:46:27.552   2216502688.8
RECEIVE_FREQ_1 =   2022-12-08T04:46:37.574   2216502687.4
RECEIVE_FREQ_1 =   2022-12-08T04:46:47.597   2216502685.9
RECEIVE_FREQ_1 =   2022-12-08T04:46:57.619   2216502684.7
RECEIVE_FREQ_1 =   2022-12-08T04:47:07.555   2216502683.5
RECEIVE_FREQ_1 =   2022-12-08T04:47:17.578   2216502682.1
RECEIVE_FREQ_1 =   2022-12-08T04:47:27.600   2216502680.8
RECEIVE_FREQ_1 =   2022-12-08T04:47:37.622   2216502679.3
RECEIVE_FREQ_1 =   2022-12-08T04:47:47.558   2216502677.5
RECEIVE_FREQ_1 =   2022-12-08T04:47:57.581   2216502676.4
RECEIVE_FREQ_1 =   2022-12-08T04:48:07.603   2216502675.4
RECEIVE_FREQ_1 =   2022-12-08T04:48:17.539   2216502673.7
RECEIVE_FREQ_1 =   2022-12-08T04:48:27.562   2216502672.2
RECEIVE_FREQ_1 =   2022-12-08T04:48:37.584   2216502670.8
RECEIVE_FREQ_1 =   2022-12-08T04:48:47.606   2216502669.8
RECEIVE_FREQ_1 =   2022-12-08T04:48:57.629   2216502668.5
RECEIVE_FREQ_1 =   2022-12-08T04:49:07.565   2216502667.1
RECEIVE_FREQ_1 =   2022-12-08T04:49:17.587   2216502665.4
RECEIVE_FREQ_1 =   2022-12-08T04:49:27.610   2216502664.6
RECEIVE_FREQ_1 =   2022-12-08T04:49:37.546   2216502662.6
RECEIVE_FREQ_1 =   2022-12-08T04:49:47.568   2216502661.6
RECEIVE_FREQ_1 =   2022-12-08T04:49:57.590   2216502660.2
RECEIVE_FREQ_1 =   2022-12-08T04:50:07.613   2216502658.8
RECEIVE_FREQ_1 =   2022-12-08T04:50:17.549   2216502657.2
RECEIVE_FREQ_1 =   2022-12-08T04:50:27.571   2216502656.0
RECEIVE_FREQ_1 =   2022-12-08T04:50:37.594   2216502654.6
RECEIVE_FREQ_1 =   2022-12-08T04:50:47.616   2216502653.3
RECEIVE_FREQ_1 =   2022-12-08T04:50:57.552   2216502651.9
RECEIVE_FREQ_1 =   2022-12-08T04:51:07.574   2216502650.5
RECEIVE_FREQ_1 =   2022-12-08T04:51:17.597   2216502649.2
RECEIVE_FREQ_1 =   2022-12-08T04:51:27.619   2216502647.6
RECEIVE_FREQ_1 =   2022-12-08T04:51:37.555   2216502646.4
RECEIVE_FREQ_1 =   2022-12-08T04:51:47.578   2216502645.4
RECEIVE_FREQ_1 =   2022-12-08T04:51:57.600   2216502643.7
RECEIVE_FREQ_1 =   2022-12-08T04:52:07.622   2216502642.2
RECEIVE_FREQ_1 =   2022-12-08T04:52:17.558   2216502640.9
RECEIVE_FREQ_1 =   2022-12-08T04:52:27.581   2216502639.3
RECEIVE_FREQ_1 =   2022-12-08T04:52:37.603   2216502637.9
RECEIVE_FREQ_1 =   2022-12-08T04:52:47.626   2216502636.7
RECEIVE_FREQ_1 =   2022-12-08T04:52:57.562   2216502635.6
RECEIVE_FREQ_1 =   2022-12-08T04:53:07.584   2216502634.0
RECEIVE_FREQ_1 =   2022-12-08T04:53:17.606   2216502632.5
RECEIVE_FREQ_1 =   2022-12-08T04:53:27.629   2216502631.2
RECEIVE_FREQ_1 =   2022-12-08T04:53:37.565   2216502629.8
RECEIVE_FREQ_1 =   2022-12-08T04:53:47.587   2216502628.3
RECEIVE_FREQ_1 =   2022-12-08T04:53:57.610   2216502627.0
RECEIVE_FREQ_1 =   2022-12-08T04:54:07.632   2216502625.7
RECEIVE_FREQ_1 =   2022-12-08T04:54:17.568   2216502624.3
RECEIVE_FREQ_1 =   2022-12-08T04:54:27.590   2216502622.6
RECEIVE_FREQ_1 =   2022-12-08T04:54:37.613   2216502621.5
RECEIVE_FREQ_1 =   2022-12-08T04:54:47.549   2216502620.1
RECEIVE_FREQ_1 =   2022-12-08T04:54:57.571   2216502618.6
RECEIVE_FREQ_1 =   2022-12-08T04:55:07.594   2216502616.9
RECEIVE_FREQ_1 =   2022-12-08T04:55:17.616   2216502615.9
RECEIVE_FREQ_1 =   2022-12-08T04:55:27.552   2216502614.6
RECEIVE_FREQ_1 =   2022-12-08T04:55:37.574   2216502613.1
RECEIVE_FREQ_1 =   2022-12-08T04:55:47.597   2216502611.8
RECEIVE_FREQ_1 =   2022-12-08T04:55:57.619   2216502610.4
RECEIVE_FREQ_1 =   2022-12-08T04:56:07.555   2216502609.1
RECEIVE_FREQ_1 =   2022-12-08T04:56:17.578   2216502607.3
RECEIVE_FREQ_1 =   2022-12-08T04:56:27.600   2216502606.2
RECEIVE_FREQ_1 =   2022-12-08T04:56:37.622   2216502604.6
RECEIVE_FREQ_1 =   2022-12-08T04:56:47.558   2216502603.4
RECEIVE_FREQ_1 =   2022-12-08T04:56:57.581   2216502601.9
RECEIVE_FREQ_1 =   2022-12-08T04:57:07.603   2216502600.7
RECEIVE_FREQ_1 =   2022-12-08T04:57:17.539   2216502599.3
RECEIVE_FREQ_1 =   2022-12-08T04:57:27.562   2216502597.7
RECEIVE_FREQ_1 =   2022-12-08T04:57:37.584   2216502596.1
RECEIVE_FREQ_1 =   2022-12-08T04:57:47.606   2216502594.9
RECEIVE_FREQ_1 =   2022-12-08T04:57:57.542   2216502593.4
RECEIVE_FREQ_1 =   2022-12-08T04:58:07.565   2216502592.1
RECEIVE_FREQ_1 =   2022-12-08T04:58:17.587   2216502590.6
RECEIVE_FREQ_1 =   2022-12-08T04:58:27.610   2216502589.3
RECEIVE_FREQ_1 =   2022-12-08T04:58:37.632   2216502588.0
RECEIVE_FREQ_1 =   2022-12-08T04:58:47.568   2216502586.8
RECEIVE_FREQ_1 =   2022-12-08T04:58:57.590   2216502585.1
RECEIVE_FREQ_1 =   2022-12-08T04:59:07.613   2216502583.8
RECEIVE_FREQ_1 =   2022-12-08T04:59:17.549   2216502582.0
RECEIVE_FREQ_1 =   2022-12-08T04:59:27.571   2216502580.8
RECEIVE_FREQ_1 =   2022-12-08T04:59:37.594   2216502579.8
RECEIVE_FREQ_1 =   2022-12-08T04:59:47.616   2216502578.3
RECEIVE_FREQ_1 =   2022-12-08T04:59:57.552   2216502576.6
RECEIVE_FREQ_1 =   2022-12-08T05:00:07.574   2216502575.4
RECEIVE_FREQ_1 =   2022-12-08T05:00:17.597   2216502573.9
RECEIVE_FREQ_1 =   2022-12-08T05:00:27.619   2216502572.4
RECEIVE_FREQ_1 =   2022-12-08T05:00:37.555   2216502571.2
RECEIVE_FREQ_1 =   2022-12-08T05:00:47.578   2216502570.1
RECEIVE_FREQ_1 =   2022-12-08T05:00:57.600   2216502568.3
RECEIVE_FREQ_1 =   2022-12-08T05:01:07.536   2216502567.0
RECEIVE_FREQ_1 =   2022-12-08T05:01:17.558   2216502565.4
RECEIVE_FREQ_1 =   2022-12-08T05:01:27.581   2216502563.7
RECEIVE_FREQ_1 =   2022-12-08T05:01:37.603   2216502562.5
RECEIVE_FREQ_1 =   2022-12-08T05:01:47.539   2216502561.3
RECEIVE_FREQ_1 =   2022-12-08T05:01:57.562   2216502559.8
RECEIVE_FREQ_1 =   2022-12-08T05:02:07.584   2216502558.5
RECEIVE_FREQ_1 =   2022-12-08T05:02:17.606   2216502557.3
RECEIVE_FREQ_1 =   2022-12-08T05:02:27.542   2216502555.9
RECEIVE_FREQ_1 =   2022-12-08T05:02:37.565   2216502554.5
RECEIVE_FREQ_1 =   2022-12-08T05:02:47.587   2216502553.0
RECEIVE_FREQ_1 =   2022-12-08T05:02:57.610   2216502551.6
RECEIVE_FREQ_1 =   2022-12-08T05:03:07.546   2216502550.3
RECEIVE_FREQ_1 =   2022-12-08T05:03:17.568   2216502548.9
RECEIVE_FREQ_1 =   2022-12-08T05:03:27.590   2216502547.6
RECEIVE_FREQ_1 =   2022-12-08T05:03:37.613   2216502546.1
RECEIVE_FREQ_1 =   2022-12-08T05:03:47.549   2216502544.9
RECEIVE_FREQ_1 =   2022-12-08T05:03:57.571   2216502543.1
RECEIVE_FREQ_1 =   2022-12-08T05:04:07.594   2216502542.2
RECEIVE_FREQ_1 =   2022-12-08T05:04:17.616   2216502540.5
RECEIVE_FREQ_1 =   2022-12-08T05:04:27.552   2216502538.9
RECEIVE_FREQ_1 =   2022-12-08T05:04:37.574   2216502538.0
RECEIVE_FREQ_1 =   2022-12-08T05:04:47.597   2216502536.8
RECEIVE_FREQ_1 =   2022-12-08T05:04:57.619   2216502535.0
RECEIVE_FREQ_1 =   2022-12-08T05:05:07.555   2216502533.7
RECEIVE_FREQ_1 =   2022-12-08T05:05:17.578   2216502532.3
RECEIVE_FREQ_1 =   2022-12-08T05:05:27.600   2216502530.9
RECEIVE_FREQ_1 =   2022-12-08T05:05:37.622   2216502529.7
RECEIVE_FREQ_1 =   2022-12-08T05:05:47.558   2216502528.3
RECEIVE_FREQ_1 =   2022-12-08T05:05:57.581   2216502526.5
RECEIVE_FREQ_1 =   2022-12-08T05:06:07.603   2216502525.7
RECEIVE_FREQ_1 =   2022-12-08T05:06:17.539   2216502524.4
RECEIVE_FREQ_1 =   2022-12-08T05:06:27.562   2216502522.6
RECEIVE_FREQ_1 =   2022-12-08T05:06:37.584   2216502521.7
RECEIVE_FREQ_1 =   2022-12-08T05:06:47.606   2216502519.9
RECEIVE_FREQ_1 =   2022-12-08T05:06:57.629   2216502518.7
RECEIVE_FREQ_1 =   2022-12-08T05:07:07.565   2216502517.3
RECEIVE_FREQ_1 =   2022-12-08T05:07:17.587   2216502516.0
RECEIVE_FREQ_1 =   2022-12-08T05:07:27.610   2216502514.2
RECEIVE_FREQ_1 =   2022-12-08T05:07:37.632   2216502513.1
RECEIVE_FREQ_1 =   2022-12-08T05:07:47.568   2216502511.6
RECEIVE_FREQ_1 =   2022-12-08T05:07:57.590   2216502510.5
RECEIVE_FREQ_1 =   2022-12-08T05:08:07.613   2216502509.2
RECEIVE_FREQ_1 =   2022-12-08T05:08:17.549   2216502507.2
RECEIVE_FREQ_1 =   2022-12-08T05:08:27.571   2216502505.9
RECEIVE_FREQ_1 =   2022-12-08T05:08:37.594   2216502504.7
RECEIVE_FREQ_1 =   2022-12-08T05:08:47.616   2216502503.1
RECEIVE_FREQ_1 =   2022-12-08T05:08:57.552   2216502502.0
RECEIVE_FREQ_1 =   2022-12-08T05:09:07.574   2216502500.6
RECEIVE_FREQ_1 =   2022-12-08T05:09:17.597   2216502499.2
RECEIVE_FREQ_1 =   2022-12-08T05:09:27.619   2216502497.7
RECEIVE_FREQ_1 =   2022-12-08T05:09:37.555   2216502496.6
RECEIVE_FREQ_1 =   2022-12-08T05:09:47.578   2216502495.0
RECEIVE_FREQ_1 =   2022-12-08T05:09:57.600   2216502493.5
RECEIVE_FREQ_1 =   2022-12-08T05:10:07.622   2216502492.3
RECEIVE_FREQ_1 =   2022-12-08T05:10:17.558   2216502490.5
RECEIVE_FREQ_1 =   2022-12-08T05:10:27.581   2216502489.7
RECEIVE_FREQ_1 =   2022-12-08T05:10:37.603   2216502488.1
RECEIVE_FREQ_1 =   2022-12-08T05:10:47.626   2216502486.6
RECEIVE_FREQ_1 =   2022-12-08T05:10:57.562   2216502485.3
RECEIVE_FREQ_1 =   2022-12-08T05:11:07.584   2216502483.4
RECEIVE_FREQ_1 =   2022-12-08T05:11:17.606   2216502482.0
RECEIVE_FREQ_1 =   2022-12-08T05:11:27.542   2216502481.0
RECEIVE_FREQ_1 =   2022-12-08T05:11:37.565   2216502479.8
RECEIVE_FREQ_1 =   2022-12-08T05:11:47.587   2216502478.2
RECEIVE_FREQ_1 =   2022-12-08T05:11:57.610   2216502476.9
RECEIVE_FREQ_1 =   2022-12-08T05:12:07.546   2216502475.8
RECEIVE_FREQ_1 =   2022-12-08T05:12:17.568   2216502474.0
RECEIVE_FREQ_1 =   2022-12-08T05:12:27.590   2216502473.0
RECEIVE_FREQ_1 =   2022-12-08T05:12:37.613   2216502471.5
RECEIVE_FREQ_1 =   2022-12-08T05:12:47.635   2216502470.1
RECEIVE_FREQ_1 =   2022-12-08T05:12:57.571   2216502468.7
RECEIVE_FREQ_1 =   2022-12-08T05:13:07.594   2216502467.1
RECEIVE_FREQ_1 =   2022-12-08T05:13:17.616   2216502465.8
RECEIVE_FREQ_1 =   2022-12-08T05:13:27.552   2216502464.5
RECEIVE_FREQ_1 =   2022-12-08T05:13:37.574   2216502462.8
RECEIVE_FREQ_1 =   2022-12-08T05:13:47.597   2216502461.8
RECEIVE_FREQ_1 =   2022-12-08T05:13:57.619   2216502459.8
RECEIVE_FREQ_1 =   2022-12-08T05:14:07.555   2216502458.5
RECEIVE_FREQ_1 =   2022-12-08T05:14:17.578   2216502457.9
RECEIVE_FREQ_1 =   2022-12-08T05:14:27.600   2216502456.0
RECEIVE_FREQ_1 =   2022-12-08T05:14:37.622   2216502454.5
RECEIVE_FREQ_1 =   2022-12-08T05:14:47.558   2216502453.3
RECEIVE_FREQ_1 =   2022-12-08T05:14:57.581   2216502451.8
RECEIVE_FREQ_1 =   2022-12-08T05:15:07.603   2216502450.3
RECEIVE_FREQ_1 =   2022-12-08T05:15:17.539   2216502448.8
RECEIVE_FREQ_1 =   2022-12-08T05:15:27.562   2216502447.8
RECEIVE_FREQ_1 =   2022-12-08T05:15:37.584   2216502445.9
RECEIVE_FREQ_1 =   2022-12-08T05:15:47.606   2216502445.0
RECEIVE_FREQ_1 =   2022-12-08T05:15:57.542   2216502443.6
RECEIVE_FREQ_1 =   2022-12-08T05:16:07.565   2216502441.9
RECEIVE_FREQ_1 =   2022-12-08T05:16:17.587   2216502440.7
RECEIVE_FREQ_1 =   2022-12-08T05:16:27.610   2216502439.4
RECEIVE_FREQ_1 =   2022-12-08T05:16:37.546   2216502437.6
RECEIVE_FREQ_1 =   2022-12-08T05:16:47.568   2216502436.8
RECEIVE_FREQ_1 =   2022-12-08T05:16:57.590   2216502435.0
RECEIVE_FREQ_1 =   2022-12-08T05:17:07.613   2216502433.7
RECEIVE_FREQ_1 =   2022-12-08T05:17:17.549   2216502432.1
RECEIVE_FREQ_1 =   2022-12-08T05:17:27.571   2216502431.0
RECEIVE_FREQ_1 =   2022-12-08T05:17:37.594   2216502429.4
RECEIVE_FREQ_1 =   2022-12-08T05:17:47.616   2216502427.9
RECEIVE_FREQ_1 =   2022-12-08T05:17:57.552   2216502426.8
RECEIVE_FREQ_1 =   2022-12-08T05:18:07.574   2216502425.3
RECEIVE_FREQ_1 =   2022-12-08T05:18:17.597   2216502423.9
RECEIVE_FREQ_1 =   2022-12-08T05:18:27.619   2216502422.2
RECEIVE_FREQ_1 =   2022-12-08T05:18:37.555   2216502420.9
RECEIVE_FREQ_1 =   2022-12-08T05:18:47.578   2216502419.2
RECEIVE_FREQ_1 =   2022-12-08T05:18:57.600   2216502418.2
RECEIVE_FREQ_1 =   2022-12-08T05:19:07.622   2216502416.7
RECEIVE_FREQ_1 =   2022-12-08T05:19:17.558   2216502415.3
RECEIVE_FREQ_1 =   2022-12-08T05:19:27.581   2216502413.9
RECEIVE_FREQ_1 =   2022-12-08T05:19:37.603   2216502412.5
RECEIVE_FREQ_1 =   2022-12-08T05:19:47.626   2216502411.4
RECEIVE_FREQ_1 =   2022-12-08T05:19:57.562   2216502409.8
RECEIVE_FREQ_1 =   2022-12-08T05:20:07.584   2216502408.5
RECEIVE_FREQ_1 =   2022-12-08T05:20:17.606   2216502406.9
RECEIVE_FREQ_1 =   2022-12-08T05:20:27.542   2216502405.5
RECEIVE_FREQ_1 =   2022-12-08T05:20:37.565   2216502404.0
RECEIVE_FREQ_1 =   2022-12-08T05:20:47.587   2216502402.7
RECEIVE_FREQ_1 =   2022-12-08T05:20:57.610   2216502401.6
RECEIVE_FREQ_1 =   2022-12-08T05:21:07.546   2216502399.8
RECEIVE_FREQ_1 =   2022-12-08T05:21:17.568   2216502398.6
RECEIVE_FREQ_1 =   2022-12-08T05:21:27.590   2216502397.3
RECEIVE_FREQ_1 =   2022-12-08T05:21:37.613   2216502395.6
RECEIVE_FREQ_1 =   2022-12-08T05:21:47.549   2216502394.1
RECEIVE_FREQ_1 =   2022-12-08T05:21:57.571   2216502392.8
RECEIVE_FREQ_1 =   2022-12-08T05:22:07.594   2216502391.5
RECEIVE_FREQ_1 =   2022-12-08T05:22:17.616   2216502389.7
RECEIVE_FREQ_1 =   2022-12-08T05:22:27.552   2216502388.7
RECEIVE_FREQ_1 =   2022-12-08T05:22:37.574   2216502387.3
RECEIVE_FREQ_1 =   2022-12-08T05:22:47.597   2216502385.5
RECEIVE_FREQ_1 =   2022-12-08T05:22:57.619   2216502384.2
RECEIVE_FREQ_1 =   2022-12-08T05:23:07.555   2216502383.2
RECEIVE_FREQ_1 =   2022-12-08T05:23:17.578   2216502381.8
RECEIVE_FREQ_1 =   2022-12-08T05:23:27.600   2216502379.8
RECEIVE_FREQ_1 =   2022-12-08T05:23:37.622   2216502378.9
RECEIVE_FREQ_1 =   2022-12-08T05:23:47.558   2216502377.4
RECEIVE_FREQ_1 =   2022-12-08T05:23:57.581   2216502375.8
RECEIVE_FREQ_1 =   2022-12-08T05:24:07.603   2216502374.5
RECEIVE_FREQ_1 =   2022-12-08T05:24:17.539   2216502373.0
RECEIVE_FREQ_1 =   2022-12-08T05:24:27.562   2216502371.4
RECEIVE_FREQ_1 =   2022-12-08T05:24:37.584   2216502370.5
RECEIVE_FREQ_1 =   2022-12-08T05:24:47.606   2216502368.9
RECEIVE_FREQ_1 =   2022-12-08T05:24:57.629   2216502367.1
RECEIVE_FREQ_1 =   2022-12-08T05:25:07.565   2216502365.9
RECEIVE_FREQ_1 =   2022-12-08T05:25:17.587   2216502364.6
RECEIVE_FREQ_1 =   2022-12-08T05:25:27.610   2216502363.3
RECEIVE_FREQ_1 =   2022-12-08T05:25:37.546   2216502361.7
RECEIVE_FREQ_1 =   2022-12-08T05:25:47.568   2216502360.5
RECEIVE_FREQ_1 =   2022-12-08T05:25:57.590   2216502358.8
RECEIVE_FREQ_1 =   2022-12-08T05:26:07.613   2216502357.9
RECEIVE_FREQ_1 =   2022-12-08T05:26:17.549   2216502356.2
RECEIVE_FREQ_1 =   2022-12-08T05:26:27.571   2216502354.5
RECEIVE_FREQ_1 =   2022-12-08T05:26:37.594   2216502353.2
RECEIVE_FREQ_1 =   2022-12-08T05:26:47.616   2216502352.1
RECEIVE_FREQ_1 =   2022-12-08T05:26:57.552   2216502350.3
RECEIVE_FREQ_1 =   2022-12-08T05:27:07.574   2216502348.9
RECEIVE_FREQ_1 =   2022-12-08T05:27:17.597   2216502347.7
RECEIVE_FREQ_1 =   2022-12-08T05:27:27.619   2216502346.6
RECEIVE_FREQ_1 =   2022-12-08T05:27:37.555   2216502344.8
RECEIVE_FREQ_1 =   2022-12-08T05:27:47.578   2216502343.1
RECEIVE_FREQ_1 =   2022-12-08T05:27:57.600   2216502342.3
RECEIVE_FREQ_1 =   2022-12-08T05:28:07.622   2216502340.3
RECEIVE_FREQ_1 =   2022-12-08T05:28:17.558   2216502339.2
RECEIVE_FREQ_1 =   2022-12-08T05:28:27.581   2216502337.7
RECEIVE_FREQ_1 =   2022-12-08T05:28:37.603   2216502336.1
RECEIVE_FREQ_1 =   2022-12-08T05:28:47.626   2216502334.9
RECEIVE_FREQ_1 =   2022-12-08T05:28:57.562   2216502333.8
RECEIVE_FREQ_1 =   2022-12-08T05:29:07.584   2216502332.3
RECEIVE_FREQ_1 =   2022-12-08T05:29:17.606   2216502330.9
RECEIVE_FREQ_1 =   2022-12-08T05:29:27.542   2216502329.1
RECEIVE_FREQ_1 =   2022-12-08T05:29:37.565   2216502328.0
RECEIVE_FREQ_1 =   2022-12-08T05:29:47.587   2216502326.4
RECEIVE_FREQ_1 =   2022-12-08T05:29:57.610   2216502325.3
RECEIVE_FREQ_1 =   2022-12-08T05:30:07.546   2216502323.6
RECEIVE_FREQ_1 =   2022-12-08T05:30:17.568   2216502322.4
RECEIVE_FREQ_1 =   2022-12-08T05:30:27.590   2216502320.8
RECEIVE_FREQ_1 =   2022-12-08T05:30:37.613   2216502319.3
RECEIVE_FREQ_1 =   2022-12-08T05:30:47.549   2216502317.9
RECEIVE_FREQ_1 =   2022-12-08T05:30:57.571   2216502316.4
RECEIVE_FREQ_1 =   2022-12-08T05:31:07.594   2216502315.0
RECEIVE_FREQ_1 =   2022-12-08T05:31:17.616   2216502313.8
RECEIVE_FREQ_1 =   2022-12-08T05:31:27.552   2216502312.6
RECEIVE_FREQ_1 =   2022-12-08T05:31:37.574   2216502311.0
RECEIVE_FREQ_1 =   2022-12-08T05:31:47.597   2216502309.1
RECEIVE_FREQ_1 =   2022-12-08T05:31:57.619   2216502308.3
RECEIVE_FREQ_1 =   2022-12-08T05:32:07.555   2216502306.3
RECEIVE_FREQ_1 =   2022-12-08T05:32:17.578   2216502305.2
RECEIVE_FREQ_1 =   2022-12-08T05:32:27.600   2216502303.8
RECEIVE_FREQ_1 =   2022-12-08T05:32:37.536   2216502302.2
RECEIVE_FREQ_1 =   2022-12-08T05:32:47.558   2216502301.0
RECEIVE_FREQ_1 =   2022-12-08T05:32:57.581   2216502299.7
RECEIVE_FREQ_1 =   2022-12-08T05:33:07.603   2216502298.1
RECEIVE_FREQ_1 =   2022-12-08T05:33:17.539   2216502296.7
RECEIVE_FREQ_1 =   2022-12-08T05:33:27.562   2216502295.2
RECEIVE_FREQ_1 =   2022-12-08T05:33:37.584   2216502294.1
RECEIVE_FREQ_1 =   2022-12-08T05:33:47.606   2216502292.5
RECEIVE_FREQ_1 =   2022-12-08T05:33:57.542   2216502290.6
RECEIVE_FREQ_1 =   2022-12-08T05:34:07.565   2216502289.6
RECEIVE_FREQ_1 =   2022-12-08T05:34:17.587   2216502288.2
RECEIVE_FREQ_1 =   2022-12-08T05:34:27.610   2216502286.8
RECEIVE_FREQ_1 =   2022-12-08T05:34:37.546   2216502285.3
RECEIVE_FREQ_1 =   2022-12-08T05:34:47.568   2216502283.9
RECEIVE_FREQ_1 =   2022-12-08T05:34:57.590   2216502282.4
RECEIVE_FREQ_1 =   2022-12-08T05:35:07.613   2216502281.0
RECEIVE_FREQ_1 =   2022-12-08T05:35:17.549   2216502279.9
RECEIVE_FREQ_1 =   2022-12-08T05:35:27.571   2216502278.3
RECEIVE_FREQ_1 =   2022-12-08T05:35:37.594   2216502276.5
RECEIVE_FREQ_1 =   2022-12-08T05:35:47.616   2216502275.8
RECEIVE_FREQ_1 =   2022-12-08T05:35:57.552   2216502273.8
RECEIVE_FREQ_1 =   2022-12-08T05:36:07.574   2216502272.1
RECEIVE_FREQ_1 =   2022-12-08T05:36:17.597   2216502271.3
RECEIVE_FREQ_1 =   2022-12-08T05:36:27.619   2216502269.7
RECEIVE_FREQ_1 =   2022-12-08T05:36:37.555   2216502268.3
RECEIVE_FREQ_1 =   2022-12-08T05:36:47.578   2216502266.9
RECEIVE_FREQ_1 =   2022-12-08T05:36:57.600   2216502265.4
RECEIVE_FREQ_1 =   2022-12-08T05:37:07.622   2216502264.2
RECEIVE_FREQ_1 =   2022-12-08T05:37:17.558   2216502262.5
RECEIVE_FREQ_1 =   2022-12-08T05:37:27.581   2216502261.1
RECEIVE_FREQ_1 =   2022-12-08T05:37:37.603   2216502259.9
RECEIVE_FREQ_1 =   2022-12-08T05:37:47.626   2216502258.4
RECEIVE_FREQ_1 =   2022-12-08T05:37:57.562   2216502256.8
RECEIVE_FREQ_1 =   2022-12-08T05:38:07.584   2216502255.5
RECEIVE_FREQ_1 =   2022-12-08T05:38:17.606   2216502254.0
RECEIVE_FREQ_1 =   2022-12-08T05:38:27.629   2216502252.7
RECEIVE_FREQ_1 =   2022-12-08T05:38:37.565   2216502251.3
RECEIVE_FREQ_1 =   2022-12-08T05:38:47.587   2216502249.9
RECEIVE_FREQ_1 =   2022-12-08T05:38:57.610   2216502248.5
RECEIVE_FREQ_1 =   2022-12-08T05:39:07.546   2216502246.9
RECEIVE_FREQ_1 =   2022-12-08T05:39:17.568   2216502245.4
RECEIVE_FREQ_1 =   2022-12-08T05:39:27.590   2216502244.3
RECEIVE_FREQ_1 =   2022-12-08T05:39:37.613   2216502243.0
RECEIVE_FREQ_1 =   2022-12-08T05:39:47.549   2216502241.2
RECEIVE_FREQ_1 =   2022-12-08T05:39:57.571   2216502240.0
RECEIVE_FREQ_1 =   2022-12-08T05:40:07.594   2216502238.8
RECEIVE_FREQ_1 =   2022-12-08T05:40:17.616   2216502236.7
RECEIVE_FREQ_1 =   2022-12-08T05:40:27.552   2216502235.3
RECEIVE_FREQ_1 =   2022-12-08T05:40:37.574   2216502234.4
RECEIVE_FREQ_1 =   2022-12-08T05:40:47.597   2216502232.7
RECEIVE_FREQ_1 =   2022-12-08T05:40:57.619   2216502231.2
RECEIVE_FREQ_1 =   2022-12-08T05:41:07.555   2216502230.3
RECEIVE_FREQ_1 =   2022-12-08T05:41:17.578   2216502228.5
RECEIVE_FREQ_1 =   2022-12-08T05:41:27.600   2216502227.4
RECEIVE_FREQ_1 =   2022-12-08T05:41:37.622   2216502225.9
RECEIVE_FREQ_1 =   2022-12-08T05:41:47.558   2216502224.3
RECEIVE_FREQ_1 =   2022-12-08T05:41:57.581   2216502222.9
RECEIVE_FREQ_1 =   2022-12-08T05:42:07.603   2216502221.3
RECEIVE_FREQ_1 =   2022-12-08T05:42:17.539   2216502219.9
RECEIVE_FREQ_1 =   2022-12-08T05:42:27.562   2216502218.7
RECEIVE_FREQ_1 =   2022-12-08T05:42:37.584   2216502217.3
RECEIVE_FREQ_1 =   2022-12-08T05:42:47.606   2216502215.5
RECEIVE_FREQ_1 =   2022-12-08T05:42:57.629   2216502214.4
RECEIVE_FREQ_1 =   2022-12-08T05:43:07.565   2216502213.3
RECEIVE_FREQ_1 =   2022-12-08T05:43:17.587   2216502211.6
RECEIVE_FREQ_1 =   2022-12-08T05:43:27.610   2216502210.1
RECEIVE_FREQ_1 =   2022-12-08T05:43:37.546   2216502208.8
RECEIVE_FREQ_1 =   2022-12-08T05:43:47.568   2216502207.7
RECEIVE_FREQ_1 =   2022-12-08T05:43:57.590   2216502206.2
RECEIVE_FREQ_1 =   2022-12-08T05:44:07.613   2216502204.6
RECEIVE_FREQ_1 =   2022-12-08T05:44:17.549   2216502203.2
RECEIVE_FREQ_1 =   2022-12-08T05:44:27.571   2216502201.3
RECEIVE_FREQ_1 =   2022-12-08T05:44:37.594   2216502200.0
RECEIVE_FREQ_1 =   2022-12-08T05:44:47.616   2216502199.0
RECEIVE_FREQ_1 =   2022-12-08T05:44:57.552   2216502197.4
RECEIVE_FREQ_1 =   2022-12-08T05:45:07.574   2216502196.1
RECEIVE_FREQ_1 =   2022-12-08T05:45:17.597   2216502194.8
RECEIVE_FREQ_1 =   2022-12-08T05:45:27.619   2216502193.3
RECEIVE_FREQ_1 =   2022-12-08T05:45:37.555   2216502191.8
RECEIVE_FREQ_1 =   2022-12-08T05:45:47.578   2216502190.4
RECEIVE_FREQ_1 =   2022-12-08T05:45:57.600   2216502188.9
RECEIVE_FREQ_1 =   2022-12-08T05:46:07.622   2216502187.2
RECEIVE_FREQ_1 =   2022-12-08T05:46:17.558   2216502186.2
RECEIVE_FREQ_1 =   2022-12-08T05:46:27.581   2216502184.6
RECEIVE_FREQ_1 =   2022-12-08T05:46:37.603   2216502183.2
RECEIVE_FREQ_1 =   2022-12-08T05:46:47.626   2216502181.8
RECEIVE_FREQ_1 =   2022-12-08T05:46:57.562   2216502180.2
RECEIVE_FREQ_1 =   2022-12-08T05:47:07.584   2216502178.8
RECEIVE_FREQ_1 =   2022-12-08T05:47:17.606   2216502177.4
RECEIVE_FREQ_1 =   2022-12-08T05:47:27.542   2216502175.9
RECEIVE_FREQ_1 =   2022-12-08T05:47:37.565   2216502174.8
RECEIVE_FREQ_1 =   2022-12-08T05:47:47.587   2216502173.4
RECEIVE_FREQ_1 =   2022-12-08T05:47:57.610   2216502171.9
RECEIVE_FREQ_1 =   2022-12-08T05:48:07.546   2216502170.4
RECEIVE_FREQ_1 =   2022-12-08T05:48:17.568   2216502169.2
RECEIVE_FREQ_1 =   2022-12-08T05:48:27.590   2216502167.4
RECEIVE_FREQ_1 =   2022-12-08T05:48:37.613   2216502166.1
RECEIVE_FREQ_1 =   2022-12-08T05:48:47.635   2216502164.6
RECEIVE_FREQ_1 =   2022-12-08T05:48:57.571   2216502163.5
RECEIVE_FREQ_1 =   2022-12-08T05:49:07.594   2216502161.6
RECEIVE_FREQ_1 =   2022-12-08T05:49:17.616   2216502160.3
RECEIVE_FREQ_1 =   2022-12-08T05:49:27.552   2216502158.9
RECEIVE_FREQ_1 =   2022-12-08T05:49:37.574   2216502157.9
RECEIVE_FREQ_1 =   2022-12-08T05:49:47.597   2216502156.1
RECEIVE_FREQ_1 =   2022-12-08T05:49:57.619   2216502154.9
RECEIVE_FREQ_1 =   2022-12-08T05:50:07.555   2216502153.4
RECEIVE_FREQ_1 =   2022-12-08T05:50:17.578   2216502152.2
RECEIVE_FREQ_1 =   2022-12-08T05:50:27.600   2216502150.7
RECEIVE_FREQ_1 =   2022-12-08T05:50:37.622   2216502149.2
RECEIVE_FREQ_1 =   2022-12-08T05:50:47.558   2216502147.6
RECEIVE_FREQ_1 =   2022-12-08T05:50:57.581   2216502146.2
RECEIVE_FREQ_1 =   2022-12-08T05:51:07.603   2216502144.9
RECEIVE_FREQ_1 =   2022-12-08T05:51:17.626   2216502143.2
RECEIVE_FREQ_1 =   2022-12-08T05:51:27.562   2216502142.1
RECEIVE_FREQ_1 =   2022-12-08T05:51:37.584   2216502140.8
RECEIVE_FREQ_1 =   2022-12-08T05:51:47.606   2216502139.1
RECEIVE_FREQ_1 =   2022-12-08T05:51:57.542   2216502137.6
RECEIVE_FREQ_1 =   2022-12-08T05:52:07.565   2216502136.3
RECEIVE_FREQ_1 =   2022-12-08T05:52:17.587   2216502135.0
RECEIVE_FREQ_1 =   2022-12-08T05:52:27.610   2216502133.4
RECEIVE_FREQ_1 =   2022-12-08T05:52:37.546   2216502132.3
RECEIVE_FREQ_1 =   2022-12-08T05:52:47.568   2216502130.7
RECEIVE_FREQ_1 =   2022-12-08T05:52:57.590   2216502129.2
RECEIVE_FREQ_1 =   2022-12-08T05:53:07.613   2216502127.8
RECEIVE_FREQ_1 =   2022-12-08T05:53:17.635   2216502126.6
RECEIVE_FREQ_1 =   2022-12-08T05:53:27.571   2216502125.1
RECEIVE_FREQ_1 =   2022-12-08T05:53:37.594   2216502123.6
RECEIVE_FREQ_1 =   2022-12-08T05:53:47.616   2216502122.3
RECEIVE_FREQ_1 =   2022-12-08T05:53:57.638   2216502121.0
RECEIVE_FREQ_1 =   2022-12-08T05:54:07.574   2216502119.5
RECEIVE_FREQ_1 =   2022-12-08T05:54:17.597   2216502118.0
RECEIVE_FREQ_1 =   2022-12-08T05:54:27.619   2216502116.4
RECEIVE_FREQ_1 =   2022-12-08T05:54:37.642   2216502115.2
RECEIVE_FREQ_1 =   2022-12-08T05:54:47.578   2216502113.9
RECEIVE_FREQ_1 =   2022-12-08T05:54:57.600   2216502112.3
RECEIVE_FREQ_1 =   2022-12-08T05:55:07.622   2216502110.8
RECEIVE_FREQ_1 =   2022-12-08T05:55:17.558   2216502109.7
RECEIVE_FREQ_1 =   2022-12-08T05:55:27.581   2216502108.3
RECEIVE_FREQ_1 =   2022-12-08T05:55:37.603   2216502106.8
RECEIVE_FREQ_1 =   2022-12-08T05:55:47.626   2216502105.1
RECEIVE_FREQ_1 =   2022-12-08T05:55:57.648   2216502103.8
RECEIVE_FREQ_1 =   2022-12-08T05:56:07.584   2216502102.6
RECEIVE_FREQ_1 =   2022-12-08T05:56:17.606   2216502101.1
RECEIVE_FREQ_1 =   2022-12-08T05:56:27.629   2216502099.9
RECEIVE_FREQ_1 =   2022-12-08T05:56:37.565   2216502098.5
RECEIVE_FREQ_1 =   2022-12-08T05:56:47.587   2216502096.6
RECEIVE_FREQ_1 =   2022-12-08T05:56:57.610   2216502095.2
RECEIVE_FREQ_1 =   2022-12-08T05:57:07.632   2216502094.2
RECEIVE_FREQ_1 =   2022-12-08T05:57:17.568   2216502092.5
RECEIVE_FREQ_1 =   2022-12-08T05:57:27.590   2216502091.4
RECEIVE_FREQ_1 =   2022-12-08T05:57:37.613   2216502089.7
RECEIVE_FREQ_1 =   2022-12-08T05:57:47.635   2216502088.2
RECEIVE_FREQ_1 =   2022-12-08T05:57:57.571   2216502086.9
RECEIVE_FREQ_1 =   2022-12-08T05:58:07.594   2216502085.7
RECEIVE_FREQ_1 =   2022-12-08T05:58:17.616   2216502084.2
RECEIVE_FREQ_1 =   2022-12-08T05:58:27.552   2216502082.9
RECEIVE_FREQ_1 =   2022-12-08T05:58:37.574   2216502081.8
RECEIVE_FREQ_1 =   2022-12-08T05:58:47.597   2216502079.8
RECEIVE_FREQ_1 =   2022-12-08T05:58:57.619   2216502078.8
RECEIVE_FREQ_1 =   2022-12-08T05:59:07.555   2216502077.5
RECEIVE_FREQ_1 =   2022-12-08T05:59:17.578   2216502075.8
RECEIVE_FREQ_1 =   2022-12-08T05:59:27.600   2216502074.6
RECEIVE_FREQ_1 =   2022-12-08T05:59:37.622   2216502073.1
RECEIVE_FREQ_1 =   2022-12-08T05:59:47.558   2216502071.4
RECEIVE_FREQ_1 =   2022-12-08T05:59:57.581   2216502070.1
RECEIVE_FREQ_1 =   2022-12-08T06:00:07.603   2216502068.8
RECEIVE_FREQ_1 =   2022-12-08T06:00:17.626   2216502067.4
RECEIVE_FREQ_1 =   2022-12-08T06:00:27.562   2216502066.1
RECEIVE_FREQ_1 =   2022-12-08T06:00:37.584   2216502064.4
RECEIVE_FREQ_1 =   2022-12-08T06:00:47.606   2216502063.2
RECEIVE_FREQ_1 =   2022-12-08T06:00:57.542   2216502061.9
RECEIVE_FREQ_1 =   2022-12-08T06:01:07.565   2216502060.6
RECEIVE_FREQ_1 =   2022-12-08T06:01:17.587   2216502058.9
RECEIVE_FREQ_1 =   2022-12-08T06:01:27.523   2216502057.7
RECEIVE_FREQ_1 =   2022-12-08T06:01:37.546   2216502055.9
RECEIVE_FREQ_1 =   2022-12-08T06:01:47.568   2216502054.5
RECEIVE_FREQ_1 =   2022-12-08T06:01:57.590   2216502053.4
RECEIVE_FREQ_1 =   2022-12-08T06:02:07.526   2216502051.7
RECEIVE_FREQ_1 =   2022-12-08T06:02:17.549   2216502050.7
RECEIVE_FREQ_1 =   2022-12-08T06:02:27.571   2216502049.4
RECEIVE_FREQ_1 =   2022-12-08T06:02:37.594   2216502047.7
RECEIVE_FREQ_1 =   2022-12-08T06:02:47.616   2216502046.3
RECEIVE_FREQ_1 =   2022-12-08T06:02:57.552   2216502044.9
RECEIVE_FREQ_1 =   2022-12-08T06:03:07.574   2216502043.7
RECEIVE_FREQ_1 =   2022-12-08T06:03:17.597   2216502042.4
RECEIVE_FREQ_1 =   2022-12-08T06:03:27.619   2216502040.4
RECEIVE_FREQ_1 =   2022-12-08T06:03:37.555   2216502039.4
RECEIVE_FREQ_1 =   2022-12-08T06:03:47.578   2216502037.7
RECEIVE_FREQ_1 =   2022-12-08T06:03:57.600   2216502037.0
RECEIVE_FREQ_1 =   2022-12-08T06:04:07.622   2216502035.5
RECEIVE_FREQ_1 =   2022-12-08T06:04:17.645   2216502033.8
RECEIVE_FREQ_1 =   2022-12-08T06:04:27.581   2216502032.2
RECEIVE_FREQ_1 =   2022-12-08T06:04:37.603   2216502031.1
RECEIVE_FREQ_1 =   2022-12-08T06:04:47.626   2216502029.9
RECEIVE_FREQ_1 =   2022-12-08T06:04:57.562   2216502028.1
RECEIVE_FREQ_1 =   2022-12-08T06:05:07.584   2216502026.6
RECEIVE_FREQ_1 =   2022-12-08T06:05:17.606   2216502025.5
RECEIVE_FREQ_1 =   2022-12-08T06:05:27.629   2216502023.7
RECEIVE_FREQ_1 =   2022-12-08T06:05:37.565   2216502022.9
RECEIVE_FREQ_1 =   2022-12-08T06:05:47.587   2216502021.2
RECEIVE_FREQ_1 =   2022-12-08T06:05:57.610   2216502019.8
RECEIVE_FREQ_1 =   2022-12-08T06:06:07.632   2216502018.6
RECEIVE_FREQ_1 =   2022-12-08T06:06:17.568   2216502016.8
RECEIVE_FREQ_1 =   2022-12-08T06:06:27.590   2216502015.4
RECEIVE_FREQ_1 =   2022-12-08T06:06:37.613   2216502014.2
RECEIVE_FREQ_1 =   2022-12-08T06:06:47.635   2216502013.4
RECEIVE_FREQ_1 =   2022-12-08T06:06:57.571   2216502011.3
RECEIVE_FREQ_1 =   2022-12-08T06:07:07.594   2216502009.7
RECEIVE_FREQ_1 =   2022-12-08T06:07:17.616   2216502008.9
RECEIVE_FREQ_1 =   2022-12-08T06:07:27.552   2216502007.6
RECEIVE_FREQ_1 =   2022-12-08T06:07:37.574   2216502005.9
RECEIVE_FREQ_1 =   2022-12-08T06:07:47.597   2216502004.8
RECEIVE_FREQ_1 =   2022-12-08T06:07:57.619   2216502003.2
RECEIVE_FREQ_1 =   2022-12-08T06:08:07.642   2216502002.0
RECEIVE_FREQ_1 =   2022-12-08T06:08:17.578   2216502000.3
RECEIVE_FREQ_1 =   2022-12-08T06:08:27.600   2216501998.6
RECEIVE_FREQ_1 =   2022-12-08T06:08:37.622   2216501997.1
RECEIVE_FREQ_1 =   2022-12-08T06:08:47.645   2216501995.9
RECEIVE_FREQ_1 =   2022-12-08T06:08:57.581   2216501994.0
RECEIVE_FREQ_1 =   2022-12-08T06:09:07.603   2216501993.2
RECEIVE_FREQ_1 =   2022-12-08T06:09:17.626   2216501991.3
RECEIVE_FREQ_1 =   2022-12-08T06:09:27.562   2216501990.0
RECEIVE_FREQ_1 =   2022-12-08T06:09:37.584   2216501988.5
RECEIVE_FREQ_1 =   2022-12-08T06:09:47.606   2216501986.9
RECEIVE_FREQ_1 =   2022-12-08T06:09:57.629   2216501985.5
RECEIVE_FREQ_1 =   2022-12-08T06:10:07.565   2216501984.5
RECEIVE_FREQ_1 =   2022-12-08T06:10:17.587   2216501983.0
RECEIVE_FREQ_1 =   2022-12-08T06:10:27.610   2216501981.8
RECEIVE_FREQ_1 =   2022-12-08T06:10:37.632   2216501979.5
RECEIVE_FREQ_1 =   2022-12-08T06:10:47.568   2216501978.2
RECEIVE_FREQ_1 =   2022-12-08T06:10:57.590   2216501976.9
RECEIVE_FREQ_1 =   2022-12-08T06:11:07.613   2216501975.5
RECEIVE_FREQ_1 =   2022-12-08T06:11:17.549   2216501974.3
RECEIVE_FREQ_1 =   2022-12-08T06:11:27.571   2216501972.8
RECEIVE_FREQ_1 =   2022-12-08T06:11:37.594   2216501971.4
RECEIVE_FREQ_1 =   2022-12-08T06:11:47.616   2216501969.7
RECEIVE_FREQ_1 =   2022-12-08T06:11:57.638   2216501968.3
RECEIVE_FREQ_1 =   2022-12-08T06:12:07.574   2216501966.8
RECEIVE_FREQ_1 =   2022-12-08T06:12:17.597   2216501965.2
RECEIVE_FREQ_1 =   2022-12-08T06:12:27.619   2216501964.0
RECEIVE_FREQ_1 =   2022-12-08T06:12:37.555   2216501962.5
RECEIVE_FREQ_1 =   2022-12-08T06:12:47.578   2216501960.9
RECEIVE_FREQ_1 =   2022-12-08T06:12:57.600   2216501959.2
RECEIVE_FREQ_1 =   2022-12-08T06:13:07.536   2216501958.3
RECEIVE_FREQ_1 =   2022-12-08T06:13:17.558   2216501956.7
RECEIVE_FREQ_1 =   2022-12-08T06:13:27.581   2216501955.6
RECEIVE_FREQ_1 =   2022-12-08T06:13:37.603   2216501953.6
RECEIVE_FREQ_1 =   2022-12-08T06:13:47.626   2216501952.3
RECEIVE_FREQ_1 =   2022-12-08T06:13:57.562   2216501950.7
RECEIVE_FREQ_1 =   2022-12-08T06:14:07.584   2216501949.5
RECEIVE_FREQ_1 =   2022-12-08T06:14:17.606   2216501947.9
RECEIVE_FREQ_1 =   2022-12-08T06:14:27.629   2216501946.8
RECEIVE_FREQ_1 =   2022-12-08T06:14:37.565   2216501945.1
RECEIVE_FREQ_1 =   2022-12-08T06:14:47.587   2216501943.8
RECEIVE_FREQ_1 =   2022-12-08T06:14:57.610   2216501942.6
RECEIVE_FREQ_1 =   2022-12-08T06:15:07.546   2216501941.1
RECEIVE_FREQ_1 =   2022-12-08T06:15:17.568   2216501939.4
RECEIVE_FREQ_1 =   2022-12-08T06:15:27.590   2216501938.1
RECEIVE_FREQ_1 =   2022-12-08T06:15:37.613   2216501936.3
RECEIVE_FREQ_1 =   2022-12-08T06:15:47.549   2216501935.0
RECEIVE_FREQ_1 =   2022-12-08T06:15:57.571   2216501933.4
RECEIVE_FREQ_1 =   2022-12-08T06:16:07.594   2216501932.2
RECEIVE_FREQ_1 =   2022-12-08T06:16:17.616   2216501930.6
RECEIVE_FREQ_1 =   2022-12-08T06:16:27.552   2216501929.3
RECEIVE_FREQ_1 =   2022-12-08T06:16:37.574   2216501927.8
RECEIVE_FREQ_1 =   2022-12-08T06:16:47.597   2216501926.4
RECEIVE_FREQ_1 =   2022-12-08T06:16:57.619   2216501924.7
RECEIVE_FREQ_1 =   2022-12-08T06:17:07.555   2216501923.6
RECEIVE_FREQ_1 =   2022-12-08T06:17:17.578   2216501922.1
RECEIVE_FREQ_1 =   2022-12-08T06:17:27.600   2216501920.4
RECEIVE_FREQ_1 =   2022-12-08T06:17:37.622   2216501919.4
RECEIVE_FREQ_1 =   2022-12-08T06:17:47.558   2216501917.8
RECEIVE_FREQ_1 =   2022-12-08T06:17:57.581   2216501916.4
RECEIVE_FREQ_1 =   2022-12-08T06:18:07.603   2216501914.9
RECEIVE_FREQ_1 =   2022-12-08T06:18:17.626   2216501913.5
RECEIVE_FREQ_1 =   2022-12-08T06:18:27.562   2216501912.0
RECEIVE_FREQ_1 =   2022-12-08T06:18:37.584   2216501910.6
RECEIVE_FREQ_1 =   2022-12-08T06:18:47.606   2216501909.3
RECEIVE_FREQ_1 =   2022-12-08T06:18:57.629   2216501907.6
RECEIVE_FREQ_1 =   2022-12-08T06:19:07.565   2216501906.4
RECEIVE_FREQ_1 =   2022-12-08T06:19:17.587   2216501905.4
RECEIVE_FREQ_1 =   2022-12-08T06:19:27.610   2216501903.4
RECEIVE_FREQ_1 =   2022-12-08T06:19:37.632   2216501902.3
RECEIVE_FREQ_1 =   2022-12-08T06:19:47.568   2216501900.4
RECEIVE_FREQ_1 =   2022-12-08T06:19:57.590   2216501899.3
RECEIVE_FREQ_1 =   2022-12-08T06:20:07.613   2216501897.6
RECEIVE_FREQ_1 =   2022-12-08T06:20:17.549   2216501896.3
RECEIVE_FREQ_1 =   2022-12-08T06:20:27.571   2216501894.8
RECEIVE_FREQ_1 =   2022-12-08T06:20:37.594   2216501893.5
RECEIVE_FREQ_1 =   2022-12-08T06:20:47.616   2216501892.0
RECEIVE_FREQ_1 =   2022-12-08T06:20:57.552   2216501891.1
RECEIVE_FREQ_1 =   2022-12-08T06:21:07.574   2216501889.2
RECEIVE_FREQ_1 =   2022-12-08T06:21:17.597   2216501888.2
RECEIVE_FREQ_1 =   2022-12-08T06:21:27.619   2216501886.8
RECEIVE_FREQ_1 =   2022-12-08T06:21:37.555   2216501885.4
RECEIVE_FREQ_1 =   2022-12-08T06:21:47.578   2216501883.6
RECEIVE_FREQ_1 =   2022-12-08T06:21:57.600   2216501882.2
RECEIVE_FREQ_1 =   2022-12-08T06:22:07.622   2216501880.9
RECEIVE_FREQ_1 =   2022-12-08T06:22:17.558   2216501879.4
RECEIVE_FREQ_1 =   2022-12-08T06:22:27.581   2216501877.8
RECEIVE_FREQ_1 =   2022-12-08T06:22:37.603   2216501876.8
RECEIVE_FREQ_1 =   2022-12-08T06:22:47.539   2216501875.0
RECEIVE_FREQ_1 =   2022-12-08T06:22:57.562   2216501873.8
RECEIVE_FREQ_1 =   2022-12-08T06:23:07.584   2216501872.6
RECEIVE_FREQ_1 =   2022-12-08T06:23:17.606   2216501870.8
RECEIVE_FREQ_1 =   2022-12-08T06:23:27.542   2216501869.6
RECEIVE_FREQ_1 =   2022-12-08T06:23:37.565   2216501868.1
RECEIVE_FREQ_1 =   2022-12-08T06:23:47.587   2216501866.8
RECEIVE_FREQ_1 =   2022-12-08T06:23:57.610   2216501865.6
RECEIVE_FREQ_1 =   2022-12-08T06:24:07.546   2216501863.8
RECEIVE_FREQ_1 =   2022-12-08T06:24:17.568   2216501862.0
RECEIVE_FREQ_1 =   2022-12-08T06:24:27.590   2216501861.4
RECEIVE_FREQ_1 =   2022-12-08T06:24:37.613   2216501859.8
RECEIVE_FREQ_1 =   2022-12-08T06:24:47.549   2216501858.2
RECEIVE_FREQ_1 =   2022-12-08T06:24:57.571   2216501856.6
RECEIVE_FREQ_1 =   2022-12-08T06:25:07.594   2216501855.0
RECEIVE_FREQ_1 =   2022-12-08T06:25:17.616   2216501854.1
RECEIVE_FREQ_1 =   2022-12-08T06:25:27.552   2216501852.4
RECEIVE_FREQ_1 =   2022-12-08T06:25:37.574   2216501851.2
RECEIVE_FREQ_1 =   2022-12-08T06:25:47.597   2216501849.7
RECEIVE_FREQ_1 =   2022-12-08T06:25:57.619   2216501848.3
RECEIVE_FREQ_1 =   2022-12-08T06:26:07.555   2216501846.6
RECEIVE_FREQ_1 =   2022-12-08T06:26:17.578   2216501845.7
RECEIVE_FREQ_1 =   2022-12-08T06:26:27.600   2216501844.6
RECEIVE_FREQ_1 =   2022-12-08T06:26:37.622   2216501843.3
RECEIVE_FREQ_1 =   2022-12-08T06:26:47.558   2216501841.0
RECEIVE_FREQ_1 =   2022-12-08T06:26:57.581   2216501839.8
RECEIVE_FREQ_1 =   2022-12-08T06:27:07.603   2216501838.4
RECEIVE_FREQ_1 =   2022-12-08T06:27:17.539   2216501836.9
RECEIVE_FREQ_1 =   2022-12-08T06:27:27.562   2216501835.6
RECEIVE_FREQ_1 =   2022-12-08T06:27:37.584   2216501834.5
RECEIVE_FREQ_1 =   2022-12-08T06:27:47.606   2216501832.8
RECEIVE_FREQ_1 =   2022-12-08T06:27:57.542   2216501831.4
RECEIVE_FREQ_1 =   2022-12-08T06:28:07.565   2216501830.1
RECEIVE_FREQ_1 =   2022-12-08T06:28:17.587   2216501828.9
RECEIVE_FREQ_1 =   2022-12-08T06:28:27.610   2216501826.9
RECEIVE_FREQ_1 =   2022-12-08T06:28:37.632   2216501826.2
RECEIVE_FREQ_1 =   2022-12-08T06:28:47.568   2216501824.4
RECEIVE_FREQ_1 =   2022-12-08T06:28:57.590   2216501823.6
RECEIVE_FREQ_1 =   2022-12-08T06:29:07.613   2216501821.5
RECEIVE_FREQ_1 =   2022-12-08T06:29:17.549   2216501820.4
RECEIVE_FREQ_1 =   2022-12-08T06:29:27.571   2216501819.0
RECEIVE_FREQ_1 =   2022-12-08T06:29:37.594   2216501817.2
RECEIVE_FREQ_1 =   2022-12-08T06:29:47.616   2216501816.2
RECEIVE_FREQ_1 =   2022-12-08T06:29:57.552   2216501815.0
RECEIVE_FREQ_1 =   2022-12-08T06:30:07.574   2216501813.2
RECEIVE_FREQ_1 =   2022-12-08T06:30:17.597   2216501812.0
RECEIVE_FREQ_1 =   2022-12-08T06:30:27.619   2216501810.5
RECEIVE_FREQ_1 =   2022-12-08T06:30:37.642   2216501808.9
RECEIVE_FREQ_1 =   2022-12-08T06:30:47.578   2216501807.6
RECEIVE_FREQ_1 =   2022-12-08T06:30:57.600   2216501806.4
RECEIVE_FREQ_1 =   2022-12-08T06:31:07.622   2216501805.0
RECEIVE_FREQ_1 =   2022-12-08T06:31:17.558   2216501803.3
RECEIVE_FREQ_1 =   2022-12-08T06:31:27.581   2216501802.1
RECEIVE_FREQ_1 =   2022-12-08T06:31:37.603   2216501801.0
RECEIVE_FREQ_1 =   2022-12-08T06:31:47.626   2216501799.3
RECEIVE_FREQ_1 =   2022-12-08T06:31:57.562   2216501797.9
RECEIVE_FREQ_1 =   2022-12-08T06:32:07.584   2216501796.9
RECEIVE_FREQ_1 =   2022-12-08T06:32:17.606   2216501795.2
RECEIVE_FREQ_1 =   2022-12-08T06:32:27.629   2216501793.8
RECEIVE_FREQ_1 =   2022-12-08T06:32:37.565   2216501793.0
RECEIVE_FREQ_1 =   2022-12-08T06:32:47.587   2216501791.2
RECEIVE_FREQ_1 =   2022-12-08T06:32:57.610   2216501789.8
RECEIVE_FREQ_1 =   2022-12-08T06:33:07.546   2216501788.5
RECEIVE_FREQ_1 =   2022-12-08T06:33:17.568   2216501786.9
RECEIVE_FREQ_1 =   2022-12-08T06:33:27.590   2216501785.5
RECEIVE_FREQ_1 =   2022-12-08T06:33:37.613   2216501784.0
RECEIVE_FREQ_1 =   2022-12-08T06:33:47.549   2216501782.8
RECEIVE_FREQ_1 =   2022-12-08T06:33:57.571   2216501781.5
RECEIVE_FREQ_1 =   2022-12-08T06:34:07.594   2216501780.0
RECEIVE_FREQ_1 =   2022-12-08T06:34:17.616   2216501778.8
RECEIVE_FREQ_1 =   2022-12-08T06:34:27.552   2216501777.2
RECEIVE_FREQ_1 =   2022-12-08T06:34:37.574   2216501775.7
RECEIVE_FREQ_1 =   2022-12-08T06:34:47.597   2216501774.8
RECEIVE_FREQ_1 =   2022-12-08T06:34:57.619   2216501773.2
RECEIVE_FREQ_1 =   2022-12-08T06:35:07.555   2216501771.9
RECEIVE_FREQ_1 =   2022-12-08T06:35:17.578   2216501770.5
RECEIVE_FREQ_1 =   2022-12-08T06:35:27.600   2216501769.2
RECEIVE_FREQ_1 =   2022-12-08T06:35:37.622   2216501767.9
RECEIVE_FREQ_1 =   2022-12-08T06:35:47.558   2216501766.5
RECEIVE_FREQ_1 =   2022-12-08T06:35:57.581   2216501765.2
RECEIVE_FREQ_1 =   2022-12-08T06:36:07.603   2216501763.4
RECEIVE_FREQ_1 =   2022-12-08T06:36:17.539   2216501761.8
RECEIVE_FREQ_1 =   2022-12-08T06:36:27.562   2216501760.9
RECEIVE_FREQ_1 =   2022-12-08T06:36:37.584   2216501759.3
RECEIVE_FREQ_1 =   2022-12-08T06:36:47.606   2216501758.3
RECEIVE_FREQ_1 =   2022-12-08T06:36:57.542   2216501756.8
RECEIVE_FREQ_1 =   2022-12-08T06:37:07.565   2216501755.4
RECEIVE_FREQ_1 =   2022-12-08T06:37:17.587   2216501753.9
RECEIVE_FREQ_1 =   2022-12-08T06:37:27.610   2216501752.5
RECEIVE_FREQ_1 =   2022-12-08T06:37:37.546   2216501751.4
RECEIVE_FREQ_1 =   2022-12-08T06:37:47.568   2216501749.8
RECEIVE_FREQ_1 =   2022-12-08T06:37:57.590   2216501748.5
RECEIVE_FREQ_1 =   2022-12-08T06:38:07.613   2216501747.2
RECEIVE_FREQ_1 =   2022-12-08T06:38:17.549   2216501745.7
RECEIVE_FREQ_1 =   2022-12-08T06:38:27.571   2216501744.6
RECEIVE_FREQ_1 =   2022-12-08T06:38:37.594   2216501742.9
RECEIVE_FREQ_1 =   2022-12-08T06:38:47.616   2216501741.9
RECEIVE_FREQ_1 =   2022-12-08T06:38:57.552   2216501740.3
RECEIVE_FREQ_1 =   2022-12-08T06:39:07.574   2216501739.0
RECEIVE_FREQ_1 =   2022-12-08T06:39:17.597   2216501737.6
RECEIVE_FREQ_1 =   2022-12-08T06:39:27.619   2216501736.6
RECEIVE_FREQ_1 =   2022-12-08T06:39:37.555   2216501734.9
RECEIVE_FREQ_1 =   2022-12-08T06:39:47.578   2216501733.7
RECEIVE_FREQ_1 =   2022-12-08T06:39:57.600   2216501732.0
RECEIVE_FREQ_1 =   2022-12-08T06:40:07.622   2216501730.8
RECEIVE_FREQ_1 =   2022-12-08T06:40:17.558   2216501729.7
RECEIVE_FREQ_1 =   2022-12-08T06:40:27.581   2216501728.6
RECEIVE_FREQ_1 =   2022-12-08T06:40:37.603   2216501726.8
RECEIVE_FREQ_1 =   2022-12-08T06:40:47.539   2216501725.1
RECEIVE_FREQ_1 =   2022-12-08T06:40:57.562   2216501724.2
RECEIVE_FREQ_1 =   2022-12-08T06:41:07.584   2216501722.9
RECEIVE_FREQ_1 =   2022-12-08T06:41:17.606   2216501721.8
RECEIVE_FREQ_1 =   2022-12-08T06:41:27.629   2216501720.0
RECEIVE_FREQ_1 =   2022-12-08T06:41:37.565   2216501718.8
RECEIVE_FREQ_1 =   2022-12-08T06:41:47.587   2216501717.4
RECEIVE_FREQ_1 =   2022-12-08T06:41:57.610   2216501716.1
RECEIVE_FREQ_1 =   2022-12-08T06:42:07.546   2216501714.7
RECEIVE_FREQ_1 =   2022-12-08T06:42:17.568   2216501713.2
RECEIVE_FREQ_1 =   2022-12-08T06:42:27.590   2216501712.2
RECEIVE_FREQ_1 =   2022-12-08T06:42:37.613   2216501710.6
RECEIVE_FREQ_1 =   2022-12-08T06:42:47.549   2216501709.6
RECEIVE_FREQ_1 =   2022-12-08T06:42:57.571   2216501708.3
RECEIVE_FREQ_1 =   2022-12-08T06:43:07.594   2216501706.5
RECEIVE_FREQ_1 =   2022-12-08T06:43:17.616   2216501704.9
RECEIVE_FREQ_1 =   2022-12-08T06:43:27.552   2216501704.0
RECEIVE_FREQ_1 =   2022-12-08T06:43:37.574   2216501702.0
RECEIVE_FREQ_1 =   2022-12-08T06:43:47.597   2216501700.6
RECEIVE_FREQ_1 =   2022-12-08T06:43:57.619   2216501699.2
RECEIVE_FREQ_1 =   2022-12-08T06:44:07.555   2216501697.8
RECEIVE_FREQ_1 =   2022-12-08T06:44:17.578   2216501696.7
RECEIVE_FREQ_1 =   2022-12-08T06:44:27.600   2216501695.4
RECEIVE_FREQ_1 =   2022-12-08T06:44:37.622   2216501693.5
RECEIVE_FREQ_1 =   2022-12-08T06:44:47.558   2216501692.3
RECEIVE_FREQ_1 =   2022-12-08T06:44:57.581   2216501690.6
RECEIVE_FREQ_1 =   2022-12-08T06:45:07.603   2216501689.7
RECEIVE_FREQ_1 =   2022-12-08T06:45:17.626   2216501688.2
RECEIVE_FREQ_1 =   2022-12-08T06:45:27.562   2216501686.4
RECEIVE_FREQ_1 =   2022-12-08T06:45:37.584   2216501685.0
RECEIVE_FREQ_1 =   2022-12-08T06:45:47.606   2216501683.8
RECEIVE_FREQ_1 =   2022-12-08T06:45:57.542   2216501682.2
RECEIVE_FREQ_1 =   2022-12-08T06:46:07.565   2216501680.8
RECEIVE_FREQ_1 =   2022-12-08T06:46:17.587   2216501679.3
RECEIVE_FREQ_1 =   2022-12-08T06:46:27.610   2216501678.0
RECEIVE_FREQ_1 =   2022-12-08T06:46:37.546   2216501676.5
RECEIVE_FREQ_1 =   2022-12-08T06:46:47.568   2216501675.1
RECEIVE_FREQ_1 =   2022-12-08T06:46:57.590   2216501673.7
RECEIVE_FREQ_1 =   2022-12-08T06:47:07.613   2216501672.3
RECEIVE_FREQ_1 =   2022-12-08T06:47:17.549   2216501670.9
RECEIVE_FREQ_1 =   2022-12-08T06:47:27.571   2216501669.8
RECEIVE_FREQ_1 =   2022-12-08T06:47:37.594   2216501667.8
RECEIVE_FREQ_1 =   2022-12-08T06:47:47.616   2216501666.9
RECEIVE_FREQ_1 =   2022-12-08T06:47:57.552   2216501665.6
RECEIVE_FREQ_1 =   2022-12-08T06:48:07.574   2216501663.9
RECEIVE_FREQ_1 =   2022-12-08T06:48:17.597   2216501662.5
RECEIVE_FREQ_1 =   2022-12-08T06:48:27.619   2216501661.2
RECEIVE_FREQ_1 =   2022-12-08T06:48:37.555   2216501660.0
RECEIVE_FREQ_1 =   2022-12-08T06:48:47.578   2216501658.5
RECEIVE_FREQ_1 =   2022-12-08T06:48:57.600   2216501657.0
RECEIVE_FREQ_1 =   2022-12-08T06:49:07.622   2216501655.5
RECEIVE_FREQ_1 =   2022-12-08T06:49:17.558   2216501654.3
RECEIVE_FREQ_1 =   2022-12-08T06:49:27.581   2216501652.4
RECEIVE_FREQ_1 =   2022-12-08T06:49:37.603   2216501651.4
RECEIVE_FREQ_1 =   2022-12-08T06:49:47.539   2216501649.9
RECEIVE_FREQ_1 =   2022-12-08T06:49:57.562   2216501648.3
RECEIVE_FREQ_1 =   2022-12-08T06:50:07.584   2216501647.0
RECEIVE_FREQ_1 =   2022-12-08T06:50:17.606   2216501645.7
RECEIVE_FREQ_1 =   2022-12-08T06:50:27.629   2216501644.7
RECEIVE_FREQ_1 =   2022-12-08T06:50:37.565   2216501642.9
RECEIVE_FREQ_1 =   2022-12-08T06:50:47.587   2216501641.5
RECEIVE_FREQ_1 =   2022-12-08T06:50:57.610   2216501640.0
RECEIVE_FREQ_1 =   2022-12-08T06:51:07.632   2216501638.7
RECEIVE_FREQ_1 =   2022-12-08T06:51:17.568   2216501637.3
RECEIVE_FREQ_1 =   2022-12-08T06:51:27.590   2216501635.9
RECEIVE_FREQ_1 =   2022-12-08T06:51:37.613   2216501634.6
RECEIVE_FREQ_1 =   2022-12-08T06:51:47.549   2216501633.2
RECEIVE_FREQ_1 =   2022-12-08T06:51:57.571   2216501631.7
RECEIVE_FREQ_1 =   2022-12-08T06:52:07.594   2216501630.7
RECEIVE_FREQ_1 =   2022-12-08T06:52:17.616   2216501629.2
RECEIVE_FREQ_1 =   2022-12-08T06:52:27.552   2216501627.4
RECEIVE_FREQ_1 =   2022-12-08T06:52:37.574   2216501626.2
RECEIVE_FREQ_1 =   2022-12-08T06:52:47.597   2216501624.8
RECEIVE_FREQ_1 =   2022-12-08T06:52:57.619   2216501623.4
RECEIVE_FREQ_1 =   2022-12-08T06:53:07.555   2216501622.4
RECEIVE_FREQ_1 =   2022-12-08T06:53:17.578   2216501620.8
RECEIVE_FREQ_1 =   2022-12-08T06:53:27.600   2216501619.2
RECEIVE_FREQ_1 =   2022-12-08T06:53:37.622   2216501617.8
RECEIVE_FREQ_1 =   2022-12-08T06:53:47.558   2216501616.6
RECEIVE_FREQ_1 =   2022-12-08T06:53:57.581   2216501615.1
RECEIVE_FREQ_1 =   2022-12-08T06:54:07.603   2216501613.6
RECEIVE_FREQ_1 =   2022-12-08T06:54:17.626   2216501612.5
RECEIVE_FREQ_1 =   2022-12-08T06:54:27.562   2216501611.4
RECEIVE_FREQ_1 =   2022-12-08T06:54:37.584   2216501609.5
RECEIVE_FREQ_1 =   2022-12-08T06:54:47.606   2216501608.5
RECEIVE_FREQ_1 =   2022-12-08T06:54:57.542   2216501606.8
RECEIVE_FREQ_1 =   2022-12-08T06:55:07.565   2216501605.4
RECEIVE_FREQ_1 =   2022-12-08T06:55:17.587   2216501604.5
RECEIVE_FREQ_1 =   2022-12-08T06:55:27.610   2216501602.9
RECEIVE_FREQ_1 =   2022-12-08T06:55:37.546   2216501601.4
RECEIVE_FREQ_1 =   2022-12-08T06:55:47.568   2216501600.3
RECEIVE_FREQ_1 =   2022-12-08T06:55:57.590   2216501598.7
RECEIVE_FREQ_1 =   2022-12-08T06:56:07.613   2216501597.5
RECEIVE_FREQ_1 =   2022-12-08T06:56:17.549   2216501596.1
RECEIVE_FREQ_1 =   2022-12-08T06:56:27.571   2216501594.8
RECEIVE_FREQ_1 =   2022-12-08T06:56:37.594   2216501593.1
RECEIVE_FREQ_1 =   2022-12-08T06:56:47.616   2216501592.1
RECEIVE_FREQ_1 =   2022-12-08T06:56:57.552   2216501590.3
RECEIVE_FREQ_1 =   2022-12-08T06:57:07.574   2216501589.2
RECEIVE_FREQ_1 =   2022-12-08T06:57:17.597   2216501588.0
RECEIVE_FREQ_1 =   2022-12-08T06:57:27.619   2216501586.4
RECEIVE_FREQ_1 =   2022-12-08T06:57:37.555   2216501585.2
RECEIVE_FREQ_1 =   2022-12-08T06:57:47.578   2216501583.6
RECEIVE_FREQ_1 =   2022-12-08T06:57:57.600   2216501582.2
RECEIVE_FREQ_1 =   2022-12-08T06:58:07.622   2216501581.0
RECEIVE_FREQ_1 =   2022-12-08T06:58:17.558   2216501579.4
RECEIVE_FREQ_1 =   2022-12-08T06:58:27.581   2216501578.7
RECEIVE_FREQ_1 =   2022-12-08T06:58:37.603   2216501577.2
RECEIVE_FREQ_1 =   2022-12-08T06:58:47.539   2216501576.2
RECEIVE_FREQ_1 =   2022-12-08T06:58:57.562   2216501574.3
RECEIVE_FREQ_1 =   2022-12-08T06:59:07.584   2216501573.0
RECEIVE_FREQ_1 =   2022-12-08T06:59:17.606   2216501571.8
RECEIVE_FREQ_1 =   2022-12-08T06:59:27.629   2216501570.4
RECEIVE_FREQ_1 =   2022-12-08T06:59:37.565   2216501569.0
RECEIVE_FREQ_1 =   2022-12-08T06:59:47.587   2216501567.6
RECEIVE_FREQ_1 =   2022-12-08T06:59:57.610   2216501566.2
RECEIVE_FREQ_1 =   2022-12-08T07:00:07.632   2216501564.9
RECEIVE_FREQ_1 =   2022-12-08T07:00:17.568   2216501563.7
RECEIVE_FREQ_1 =   2022-12-08T07:00:27.590   2216501562.2
RECEIVE_FREQ_1 =   2022-12-08T07:00:37.613   2216501561.0
RECEIVE_FREQ_1 =   2022-12-08T07:00:47.549   2216501559.7
RECEIVE_FREQ_1 =   2022-12-08T07:00:57.571   2216501558.4
RECEIVE_FREQ_1 =   2022-12-08T07:01:07.594   2216501556.7
RECEIVE_FREQ_1 =   2022-12-08T07:01:17.616   2216501555.6
RECEIVE_FREQ_1 =   2022-12-08T07:01:27.638   2216501554.2
RECEIVE_FREQ_1 =   2022-12-08T07:01:37.574   2216501552.8
RECEIVE_FREQ_1 =   2022-12-08T07:01:47.597   2216501551.7
RECEIVE_FREQ_1 =   2022-12-08T07:01:57.619   2216501550.3
RECEIVE_FREQ_1 =   2022-12-08T07:02:07.555   2216501548.8
RECEIVE_FREQ_1 =   2022-12-08T07:02:17.578   2216501547.5
RECEIVE_FREQ_1 =   2022-12-08T07:02:27.600   2216501546.4
RECEIVE_FREQ_1 =   2022-12-08T07:02:37.536   2216501544.7
RECEIVE_FREQ_1 =   2022-12-08T07:02:47.558   2216501543.7
RECEIVE_FREQ_1 =   2022-12-08T07:02:57.581   2216501542.2
RECEIVE_FREQ_1 =   2022-12-08T07:03:07.603   2216501540.6
RECEIVE_FREQ_1 =   2022-12-08T07:03:17.626   2216501539.5
RECEIVE_FREQ_1 =   2022-12-08T07:03:27.562   2216501538.4
RECEIVE_FREQ_1 =   2022-12-08T07:03:37.584   2216501537.0
RECEIVE_FREQ_1 =   2022-12-08T07:03:47.606   2216501535.7
RECEIVE_FREQ_1 =   2022-12-08T07:03:57.629   2216501534.3
RECEIVE_FREQ_1 =   2022-12-08T07:04:07.651   2216501532.9
RECEIVE_FREQ_1 =   2022-12-08T07:04:17.587   2216501531.9
RECEIVE_FREQ_1 =   2022-12-08T07:04:27.610   2216501530.6
RECEIVE_FREQ_1 =   2022-12-08T07:04:37.632   2216501529.0
RECEIVE_FREQ_1 =   2022-12-08T07:04:47.568   2216501527.8
RECEIVE_FREQ_1 =   2022-12-08T07:04:57.590   2216501526.6
RECEIVE_FREQ_1 =   2022-12-08T07:05:07.613   2216501525.4
RECEIVE_FREQ_1 =   2022-12-08T07:05:17.635   2216501523.9
RECEIVE_FREQ_1 =   2022-12-08T07:05:27.571   2216501522.5
RECEIVE_FREQ_1 =   2022-12-08T07:05:37.594   2216501521.3
RECEIVE_FREQ_1 =   2022-12-08T07:05:47.616   2216501519.9
RECEIVE_FREQ_1 =   2022-12-08T07:05:57.552   2216501518.4
RECEIVE_FREQ_1 =   2022-12-08T07:06:07.574   2216501517.3
RECEIVE_FREQ_1 =   2022-12-08T07:06:17.597   2216501516.3
RECEIVE_FREQ_1 =   2022-12-08T07:06:27.619   2216501514.6
RECEIVE_FREQ_1 =   2022-12-08T07:06:37.642   2216501513.4
RECEIVE_FREQ_1 =   2022-12-08T07:06:47.578   2216501512.5
RECEIVE_FREQ_1 =   2022-12-08T07:06:57.600   2216501510.7
RECEIVE_FREQ_1 =   2022-12-08T07:07:07.622   2216501509.5
RECEIVE_FREQ_1 =   2022-12-08T07:07:17.558   2216501508.2
RECEIVE_FREQ_1 =   2022-12-08T07:07:27.581   2216501506.9
RECEIVE_FREQ_1 =   2022-12-08T07:07:37.603   2216501505.3
RECEIVE_FREQ_1 =   2022-12-08T07:07:47.539   2216501504.3
RECEIVE_FREQ_1 =   2022-12-08T07:07:57.562   2216501503.0
RECEIVE_FREQ_1 =   2022-12-08T07:08:07.584   2216501501.7
RECEIVE_FREQ_1 =   2022-12-08T07:08:17.606   2216501500.5
RECEIVE_FREQ_1 =   2022-12-08T07:08:27.629   2216501498.9
RECEIVE_FREQ_1 =   2022-12-08T07:08:37.565   2216501497.9
RECEIVE_FREQ_1 =   2022-12-08T07:08:47.587   2216501496.5
RECEIVE_FREQ_1 =   2022-12-08T07:08:57.610   2216501495.1
RECEIVE_FREQ_1 =   2022-12-08T07:09:07.632   2216501493.9
RECEIVE_FREQ_1 =   2022-12-08T07:09:17.568   2216501492.5
RECEIVE_FREQ_1 =   2022-12-08T07:09:27.590   2216501491.3
RECEIVE_FREQ_1 =   2022-12-08T07:09:37.613   2216501490.1
RECEIVE_FREQ_1 =   2022-12-08T07:09:47.549   2216501488.7
RECEIVE_FREQ_1 =   2022-12-08T07:09:57.571   2216501487.3
RECEIVE_FREQ_1 =   2022-12-08T07:10:07.594   2216501486.1
RECEIVE_FREQ_1 =   2022-12-08T07:10:17.616   2216501485.1
RECEIVE_FREQ_1 =   2022-12-08T07:10:27.552   2216501483.5
RECEIVE_FREQ_1 =   2022-12-08T07:10:37.574   2216501482.4
RECEIVE_FREQ_1 =   2022-12-08T07:10:47.597   2216501481.5
RECEIVE_FREQ_1 =   2022-12-08T07:10:57.619   2216501480.0
RECEIVE_FREQ_1 =   2022-12-08T07:11:07.555   2216501478.3
RECEIVE_FREQ_1 =   2022-12-08T07:11:17.578   2216501477.2
RECEIVE_FREQ_1 =   2022-12-08T07:11:27.600   2216501475.7
RECEIVE_FREQ_1 =   2022-12-08T07:11:37.622   2216501474.3
RECEIVE_FREQ_1 =   2022-12-08T07:11:47.558   2216501473.0
RECEIVE_FREQ_1 =   2022-12-08T07:11:57.581   2216501471.5
RECEIVE_FREQ_1 =   2022-12-08T07:12:07.603   2216501470.3
RECEIVE_FREQ_1 =   2022-12-08T07:12:17.626   2216501468.7
RECEIVE_FREQ_1 =   2022-12-08T07:12:27.562   2216501467.6
RECEIVE_FREQ_1 =   2022-12-08T07:12:37.584   2216501465.9
RECEIVE_FREQ_1 =   2022-12-08T07:12:47.606   2216501464.7
RECEIVE_FREQ_1 =   2022-12-08T07:12:57.629   2216501463.3
RECEIVE_FREQ_1 =   2022-12-08T07:13:07.565   2216501461.7
RECEIVE_FREQ_1 =   2022-12-08T07:13:17.587   2216501460.5
RECEIVE_FREQ_1 =   2022-12-08T07:13:27.610   2216501459.1
RECEIVE_FREQ_1 =   2022-12-08T07:13:37.546   2216501457.9
RECEIVE_FREQ_1 =   2022-12-08T07:13:47.568   2216501456.2
RECEIVE_FREQ_1 =   2022-12-08T07:13:57.590   2216501454.9
